     2.10           OBSERVATION DATA    M (MIXED)           RINEX VERSION / TYPE
RTKCONV-QT 2.4.3 b15                    20161002 105959 UTC PGM / RUN BY / DATE 
log: /home/max/rtklib_logs/base_201610020835_bordstein.rtc  COMMENT             
format: RTCM 3, station ID: 682                             COMMENT             
                                                            MARKER NAME         
                                                            MARKER NUMBER       
                                                            OBSERVER / AGENCY   
                    TRIMBLE NETR5                           REC # / TYPE / VERS 
                    ADVNULLANTENNA                          ANT # / TYPE        
  3902512.6539   520357.3157  5001305.1582                  APPROX POSITION XYZ 
        0.0000        0.0000        0.0000                  ANTENNA: DELTA H/E/N
     1     1                                                WAVELENGTH FACT L1/2
    10    C1    L1    D1    S1    P1    P2    L2    D2    S2# / TYPES OF OBSERV 
          C2                                                # / TYPES OF OBSERV 
  2016    10     2     8    35   13.0000000     GPS         TIME OF FIRST OBS   
  2016    10     2     8    36   54.0000000     GPS         TIME OF LAST OBS    
                                                            END OF HEADER       
 16 10  2  8 35 13.0000000  0  7G16G18G20G21G26G27G29
  20582435.004   108161426.4911                         47.500                  
  20582437.624    84281630.6411                         41.000                  
  22618801.310   118862603.2901                         47.500                  
  22618804.070    92620210.4381                         31.000                  
  22262506.432   116990260.5751                         47.000                  
  22262509.332    91161242.7051                         31.750                  
  21446079.778   112699909.9421                         48.250                  
  21446081.998    87818111.8791                         41.000                  
  20780848.982   109204098.1551                         50.000                  
  20780856.022    85094102.6341                         51.500                  
  21964678.754   115425166.3731                         47.000                  
  21964684.634    89941687.6181                         47.500                  
  24043692.880   126350458.3861                         39.250                  
  24043696.400    98454903.4571                         23.250                  
 16 10  2  8 35 14.0000000  0  7G16G18G20G21G26G27G29
  20582295.384   108160692.575                          47.000                  
  20582298.044    84281058.758                          41.000                  
  22618370.350   118860339.211                          47.500                  
  22618373.470    92618446.214                          31.250                  
  22262651.172   116991020.385                          47.000                  
  22262653.952    91161834.762                          32.250                  
  21446298.358   112701059.224                          48.500                  
  21446300.558    87819007.425                          41.000                  
  20781097.842   109205405.030                          49.500                  
  20781104.522    85095120.980                          51.500                  
  21964184.294   115422564.818                          45.750                  
  21964189.674    89939660.434                          47.500                  
  24044310.160   126353703.431                          40.000                  
  24044313.760    98457432.058                          25.750                  
 16 10  2  8 35 15.0000000  0  7G16G18G20G21G26G27G29
  20582155.624   108159959.931                          47.500                  
  20582158.624    84280487.867                          41.000                  
  22617939.910   118858076.185                          47.500                  
  22617942.770    92616682.817                          31.000                  
  22262795.572   116991781.509                          47.500                  
  22262798.572    91162427.840                          31.750                  
  21446516.858   112702209.591                          48.500                  
  21446519.478    87819903.813                          40.750                  
  20781347.082   109206713.181                          49.500                  
  20781353.362    85096140.317                          52.000                  
  21963689.054   115419964.216                          46.000                  
  21963694.734    89937633.996                          47.250                  
  24044927.060   126356949.248                          38.250                  
  24044932.160    98459961.258                          24.500                  
 16 10  2  8 35 16.0000000  0  7G16G18G20G21G26G27G29
  20582016.144   108159227.161                          47.000                  
  20582019.164    84279916.877                          40.750                  
  22617509.090   118855812.828                          47.750                  
  22617512.170    92614919.159                          30.750                  
  22262940.732   116992542.588                          47.000                  
  22262943.352    91163020.892                          32.000                  
  21446735.898   112703359.613                          48.250                  
  21446738.378    87820799.936                          40.500                  
  20781596.002   109208021.210                          49.250                  
  20781602.202    85097159.562                          51.750                  
  21963194.294   115417363.105                          45.500                  
  21963199.794    89935607.160                          47.000                  
  24045544.620   126360194.453                          38.250                  
  24045549.160    98462489.981                          24.500                  
 16 10  2  8 35 17.0000000  0  7G16G18G20G21G26G27G29
  20581877.124   108158494.993                          47.000                  
  20581879.544    84279346.363                          41.000                  
  22617078.250   118853549.842                          47.000                  
  22617081.670    92613155.788                          31.750                  
  22263085.312   116993304.305                          46.750                  
  22263088.112    91163614.442                          31.000                  
  21446955.418   112704510.009                          48.500                  
  21446957.338    87821696.350                          40.500                  
  20781845.102   109209329.824                          49.250                  
  20781851.502    85098179.259                          51.500                  
  21962699.454   115414762.265                          46.000                  
  21962704.674    89933580.531                          47.000                  
  24046161.660   126363439.690                          38.250                  
  24046166.500    98465018.743                          25.000                  
 16 10  2  8 35 18.0000000  0  7G16G18G20G21G26G27G29
  20581738.004   108157763.578                          47.250                  
  20581740.584    84278776.429                          40.750                  
  22616647.590   118851287.365                          47.000                  
  22616651.070    92611392.817                          31.000                  
  22263230.592   116994066.832                          46.750                  
  22263233.292    91164208.617                          32.000                  
  21447174.238   112705660.935                          48.500                  
  21447176.278    87822593.176                          40.500                  
  20782094.122   109210639.153                          49.250                  
  20782100.282    85099199.516                          51.750                  
  21962204.694   115412161.789                          46.250                  
  21962210.314    89931554.185                          47.000                  
  24046780.180   126366685.210                          39.000                  
  24046784.500    98467547.711                          25.250                  
 16 10  2  8 35 19.0000000  0  7G16G18G20G21G26G27G29
  20581598.964   108157032.997                          47.000                  
  20581601.664    84278207.139                          40.750                  
  22616216.910   118849025.498                          46.750                  
  22616220.670    92609630.326                          30.500                  
  22263375.912   116994830.267                          47.000                  
  22263378.852    91164803.500                          31.250                  
  21447393.278   112706812.492                          48.750                  
  21447395.798    87823490.495                          40.750                  
  20782343.422   109211949.346                          49.250                  
  20782349.602    85100220.448                          51.750                  
  21961709.734   115409561.826                          46.500                  
  21961715.114    89929528.235                          47.250                  
  24047397.460   126369931.035                          39.500                  
  24047401.500    98470076.916                          24.750                  
 16 10  2  8 35 20.0000000  0  7G16G18G20G21G26G27G29
  20581460.064   108156302.736                          47.250                  
  20581462.524    84277638.107                          41.250                  
  22615786.710   118846763.736                          47.250                  
  22615790.430    92607867.914                          30.500                  
  22263521.392   116995594.061                          46.500                  
  22263524.372    91165398.661                          32.000                  
  21447612.438   112707964.149                          49.000                  
  21447614.738    87824387.884                          41.000                  
  20782592.922   109213259.820                          49.500                  
  20782599.002    85101241.597                          51.750                  
  21961215.054   115406961.827                          46.500                  
  21961220.054    89927502.249                          47.250                  
  24048015.360   126373176.627                          39.250                  
  24048019.700    98472605.958                          25.000                  
 16 10  2  8 35 21.0000000  0  7G16G18G20G21G26G27G29
  20581321.204   108155572.639                          47.750                  
  20581323.604    84277069.199                          41.250                  
  22615356.430   118844501.903                          47.000                  
  22615359.650    92606105.457                          30.750                  
  22263666.932   116996358.098                          46.500                  
  22263669.712    91165994.011                          32.000                  
  21447831.478   112709115.766                          49.250                  
  21447833.838    87825285.250                          40.500                  
  20782842.122   109214570.466                          49.750                  
  20782848.802    85102262.879                          51.750                  
  21960720.094   115404361.630                          46.750                  
  21960725.774    89925476.118                          47.500                  
  24048632.820   126376421.884                          39.250                  
  24048637.220    98475134.730                          24.000                  
 16 10  2  8 35 22.0000000  0  7G16G18G20G21G26G27G29
  20581182.364   108154844.157                          47.500                  
  20581185.064    84276501.549                          41.250                  
  22614926.150   118842241.473                          46.750                  
  22614929.870    92604344.087                          30.250                  
  22263812.372   116997123.799                          46.750                  
  22263815.312    91166590.661                          31.750                  
  21448050.558   112710268.768                          48.750                  
  21448053.238    87826183.693                          40.500                  
  20783092.082   109215882.706                          50.000                  
  20783098.402    85103285.403                          51.500                  
  21960225.614   115401762.681                          46.500                  
  21960230.854    89923450.963                          47.750                  
  24049250.100   126379668.267                          39.750                  
  24049254.760    98477664.369                          24.500                  
 16 10  2  8 35 23.0000000  0  7G16G18G20G21G26G27G29
  20581043.724   108154115.344                          47.750                  
  20581046.304    84275933.647                          41.250                  
  22614495.970   118839980.473                          47.000                  
  22614499.730    92602582.273                          30.500                  
  22263957.992   116997889.218                          46.000                  
  22263960.932    91167187.102                          32.000                  
  21448270.338   112711421.216                          49.000                  
  21448272.778    87827081.700                          40.500                  
  20783341.482   109217194.607                          50.250                  
  20783348.002    85104307.658                          51.500                  
  21959730.914   115399163.065                          47.000                  
  21959736.454    89921425.292                          47.750                  
  24049868.280   126382913.779                          39.500                  
  24049872.540    98480193.333                          24.500                  
 16 10  2  8 35 24.0000000  0  7G16G18G20G21G26G27G29
  20580905.284   108153387.789                          48.000                  
  20580908.064    84275366.719                          41.250                  
  22614065.670   118837720.498                          47.500                  
  22614069.170    92600821.253                          31.250                  
  22264103.872   116998655.944                          46.000                  
  22264107.032    91167784.557                          32.000                  
  21448489.578   112712574.712                          49.000                  
  21448492.178    87827980.524                          40.500                  
  20783591.582   109218507.741                          50.750                  
  20783597.882    85105330.875                          51.750                  
  21959236.414   115396564.329                          47.000                  
  21959241.854    89919400.309                          47.750                  
  24050485.220   126386160.035                          39.250                  
  24050490.300    98482722.888                          24.250                  
 16 10  2  8 35 25.0000000  0  7G16G18G20G21G26G27G29
  20580766.964   108152660.427                          48.000                  
  20580769.404    84274799.943                          41.000                  
  22613635.530   118835460.517                          47.500                  
  22613639.530    92599060.231                          30.250                  
  22264249.412   116999422.953                          46.250                  
  22264252.812    91168382.222                          32.500                  
  21448709.038   112713728.195                          49.000                  
  21448711.538    87828879.344                          40.500                  
  20783841.782   109219821.063                          50.750                  
  20783848.142    85106354.243                          51.750                  
  21958741.774   115393965.457                          47.250                  
  21958747.194    89917375.218                          48.000                  
  24051103.880   126389405.963                          39.500                  
  24051108.020    98485252.172                          24.250                  
 16 10  2  8 35 26.0000000  0  7G16G18G20G21G26G27G29
  20580628.884   108151934.341                          47.750                  
  20580631.224    84274234.164                          41.250                  
  22613205.850   118833201.601                          47.000                  
  22613209.230    92597300.041                          31.000                  
  22264396.232   117000191.279                          46.000                  
  22264399.332    91168980.917                          31.750                  
  21448928.998   112714882.742                          48.500                  
  21448931.258    87829778.991                          40.500                  
  20784091.782   109221135.652                          50.250                  
  20784097.822    85107378.600                          52.000                  
  21958247.194   115391367.498                          47.500                  
  21958252.694    89915350.841                          48.000                  
  24051721.480   126392652.626                          39.000                  
  24051725.800    98487782.045                          25.500                  
 16 10  2  8 35 27.0000000  0  7G16G18G20G21G26G27G29
  20580490.444   108151208.768                          47.750                  
  20580493.164    84273668.781                          41.000                  
  22612776.290   118830942.942                          46.500                  
  22612779.470    92595540.051                          30.250                  
  22264542.412   117000960.166                          46.500                  
  22264545.152    91169580.049                          31.750                  
  21449148.398   112716037.570                          48.750                  
  21449150.898    87830678.859                          40.500                  
  20784341.662   109222450.746                          50.000                  
  20784348.242    85108403.351                          51.750                  
  21957753.514   115388769.685                          47.500                  
  21957758.494    89913326.571                          47.750                  
  24052338.600   126395899.290                          39.000                  
  24052343.600    98490311.909                          24.750                  
 16 10  2  8 35 28.0000000  0  7G16G18G20G21G26G27G29
  20580352.644   108150483.449                          48.250                  
  20580354.904    84273103.598                          41.250                  
  22612346.690   118828684.330                          47.000                  
  22612349.690    92593780.096                          30.000                  
  22264688.812   117001729.375                          46.250                  
  22264691.872    91170179.428                          32.250                  
  21449368.278   112717192.451                          48.750                  
  21449370.618    87831578.769                          40.500                  
  20784591.842   109223766.079                          50.500                  
  20784598.302    85109428.283                          51.500                  
  21957259.034   115386171.805                          47.500                  
  21957264.374    89911302.241                          47.500                  
  24052957.020   126399145.732                          39.500                  
  24052961.200    98492841.598                          26.250                  
 16 10  2  8 35 29.0000000  0  7G16G18G20G21G26G27G29
  20580214.684   108149758.557                          48.750                  
  20580217.004    84272538.748                          41.250                  
  22611916.890   118826425.918                          47.000                  
  22611919.530    92592020.288                          30.250                  
  22264835.292   117002499.067                          46.500                  
  22264838.532    91170779.192                          32.000                  
  21449587.598   112718347.555                          48.500                  
  21449590.658    87832478.850                          40.250                  
  20784842.342   109225081.824                          50.500                  
  20784848.902    85110453.548                          51.250                  
  21956764.674   115383573.968                          47.500                  
  21956770.154    89909277.950                          47.750                  
  24053574.860   126402392.057                          40.000                  
  24053579.080    98495371.206                          24.500                  
 16 10  2  8 35 30.0000000  0  7G16G18G20G21G26G27G29
  20580076.944   108149034.944                          48.000                  
  20580079.464    84271974.892                          41.250                  
  22611487.270   118824168.578                          47.000                  
  22611490.150    92590261.330                          30.000                  
  22264981.712   117003270.080                          46.000                  
  22264985.432    91171379.988                          32.000                  
  21449808.158   112719503.697                          48.250                  
  21449810.618    87833379.735                          40.250                  
  20785093.002   109226398.817                          50.750                  
  20785099.262    85111479.776                          51.500                  
  21956270.134   115380977.058                          47.500                  
  21956275.434    89907254.386                          47.750                  
  24054193.080   126405639.122                          39.250                  
  24054197.020    98497901.395                          26.000                  
 16 10  2  8 35 31.0000000  0  7G16G18G20G21G26G27G29
  20579939.344   108148311.527                          47.750                  
  20579941.804    84271411.193                          41.500                  
  22611057.930   118821911.215                          47.000                  
  22611060.370    92588502.344                          30.750                  
  22265128.472   117004041.380                          46.500                  
  22265131.852    91171980.997                          31.750                  
  21450027.978   112720659.839                          48.500                  
  21450030.298    87834280.627                          40.250                  
  20785343.442   109227716.047                          50.750                  
  20785350.142    85112506.189                          51.250                  
  21955775.794   115378380.007                          47.250                  
  21955781.494    89905230.703                          47.500                  
  24054810.740   126408885.899                          39.250                  
  24054815.200    98500431.348                          24.000                  
 16 10  2  8 35 32.0000000  0  7G16G18G20G21G26G27G29
  20579802.044   108147588.463                          48.250                  
  20579804.424    84270847.764                          41.750                  
  22610628.430   118819653.980                          47.000                  
  22610631.370    92586743.459                          30.500                  
  22265275.472   117004813.066                          46.500                  
  22265278.692    91172582.306                          32.000                  
  21450247.818   112721816.094                          48.750                  
  21450250.458    87835181.603                          40.250                  
  20785594.422   109229033.582                          51.000                  
  20785600.802    85113532.835                          51.500                  
  21955281.194   115375782.929                          47.000                  
  21955286.974    89903207.006                          47.500                  
  24055428.380   126412132.449                          39.000                  
  24055432.300    98502961.126                          26.000                  
 16 10  2  8 35 33.0000000  0  7G16G18G20G21G26G27G29
  20579664.504   108146866.080                          47.750                  
  20579667.024    84270284.862                          41.250                  
  22610198.450   118817397.179                          47.500                  
  22610201.290    92584984.903                          30.750                  
  22265422.792   117005585.478                          47.000                  
  22265425.452    91173184.189                          31.500                  
  21450468.098   112722972.830                          49.250                  
  21450471.038    87836082.956                          40.500                  
  20785845.102   109230351.786                          50.250                  
  20785851.522    85114560.008                          51.750                  
  21954787.554   115373186.161                          46.750                  
  21954792.914    89901183.553                          47.500                  
  24056045.620   126415379.212                          39.750                  
  24056050.560    98505491.071                          26.000                  
 16 10  2  8 35 34.0000000  0  7G16G18G20G21G26G27G29
  20579527.184   108146144.143                          48.250                  
  20579529.404    84269722.318                          41.500                  
  22609769.270   118815140.630                          47.000                  
  22609772.210    92583226.553                          30.500                  
  22265569.792   117006358.420                          47.000                  
  22265572.892    91173786.476                          31.750                  
  21450688.378   112724129.789                          49.000                  
  21450690.778    87836984.482                          40.250                  
  20786096.042   109231670.414                          50.000                  
  20786102.662    85115587.510                          51.750                  
  21954293.334   115370589.514                          47.000                  
  21954298.934    89899160.197                          47.750                  
  24056663.940   126418625.897                          38.750                  
  24056667.900    98508020.945                          26.000                  
 16 10  2  8 35 35.0000000  0  7G16G18G20G21G26G27G29
  20579389.724   108145423.336                          48.000                  
  20579392.344    84269160.652                          41.250                  
  22609340.190   118812884.993                          47.250                  
  22609343.090    92581468.907                          31.250                  
  22265717.072   117007132.537                          46.750                  
  22265720.132    91174389.690                          32.250                  
  21450908.718   112725287.689                          48.500                  
  21450910.778    87837886.742                          40.750                  
  20786347.122   109232990.190                          50.000                  
  20786353.882    85116615.902                          51.500                  
  21953799.634   115367993.637                          47.000                  
  21953804.774    89897137.432                          48.000                  
  24057281.860   126421873.220                          39.000                  
  24057286.100    98510551.328                          24.000                  
 16 10  2  8 35 36.0000000  0  7G16G18G20G21G26G27G29
  20579252.304   108144702.966                          48.000                  
  20579255.264    84268599.324                          41.250                  
  22608910.710   118810629.526                          47.000                  
  22608913.750    92579711.405                          30.500                  
  22265864.572   117007907.131                          47.000                  
  22265867.572    91174993.270                          31.500                  
  21451129.158   112726445.788                          48.750                  
  21451131.778    87838789.159                          40.750                  
  20786598.622   109234310.357                          50.250                  
  20786604.942    85117644.606                          51.500                  
  21953305.434   115365397.851                          47.000                  
  21953310.954    89895114.744                          48.000                  
  24057899.660   126425120.445                          39.000                  
  24057904.060    98513081.612                          26.000                  
 16 10  2  8 35 37.0000000  0  7G16G18G20G21G26G27G29
  20579115.244   108143983.065                          48.000                  
  20579118.184    84268038.365                          41.500                  
  22608481.870   118808374.335                          47.000                  
  22608484.870    92577954.114                          30.250                  
  22266012.072   117008682.286                          47.250                  
  22266015.052    91175597.289                          31.750                  
  21451349.398   112727604.142                          48.750                  
  21451351.858    87839691.771                          40.750                  
  20786850.002   109235631.019                          50.250                  
  20786856.442    85118673.689                          51.750                  
  21952811.214   115362802.190                          46.750                  
  21952817.154    89893092.153                          48.000                  
  24058517.480   126428367.618                          39.250                  
  24058522.120    98515611.881                          25.500                  
 16 10  2  8 35 38.0000000  0  7G16G18G20G21G26G27G29
  20578979.044   108143263.963                          48.500                  
  20578981.244    84267478.026                          41.500                  
  22608052.410   118806119.689                          47.000                  
  22608055.570    92576197.242                          31.000                  
  22266159.472   117009458.273                          47.250                  
  22266162.572    91176201.952                          32.000                  
  21451570.438   112728763.083                          48.500                  
  21451572.598    87840594.845                          40.750                  
  20787101.122   109236952.445                          50.250                  
  20787107.922    85119703.374                          51.000                  
  21952317.614   115360206.925                          46.500                  
  21952323.094    89891069.866                          47.750                  
  24059135.880   126431615.054                          40.000                  
  24059140.040    98518142.354                          25.250                  
 16 10  2  8 35 39.0000000  0  7G16G18G20G21G26G27G29
  20578842.224   108142545.579                          48.750                  
  20578844.484    84266918.244                          41.000                  
  22607623.410   118803865.541                          46.750                  
  22607626.730    92574440.761                          31.000                  
  22266307.532   117010235.036                          47.250                  
  22266310.192    91176807.220                          31.750                  
  21451790.978   112729922.519                          49.000                  
  21451793.098    87841498.298                          41.250                  
  20787352.982   109238274.562                          50.500                  
  20787359.322    85120733.593                          51.500                  
  21951824.214   115357612.059                          47.000                  
  21951829.474    89889047.897                          47.500                  
  24059753.880   126434862.716                          40.500                  
  24059758.020    98520672.998                          26.500                  
 16 10  2  8 35 40.0000000  0  7G16G18G20G21G26G27G29
  20578705.104   108141827.875                          48.750                  
  20578708.004    84266358.994                          41.250                  
  22607195.050   118801611.859                          47.000                  
  22607197.450    92572684.649                          31.000                  
  22266455.532   117011012.542                          47.000                  
  22266458.192    91177413.069                          32.000                  
  21452011.538   112731082.419                          48.250                  
  21452013.898    87842402.120                          41.000                  
  20787604.202   109239597.357                          50.500                  
  20787611.102    85121764.340                          51.500                  
  21951330.534   115355017.514                          47.000                  
  21951335.794    89887026.176                          47.750                  
  24060371.380   126438110.520                          40.000                  
  24060376.180    98523203.746                          24.500                  
 16 10  2  8 35 41.0000000  0  7G16G18G20G21G26G27G29
  20578568.984   108141110.602                          48.500                  
  20578571.444    84265800.080                          41.750                  
  22606765.890   118799358.376                          46.750                  
  22606768.670    92570928.685                          30.500                  
  22266603.272   117011790.532                          47.250                  
  22266606.332    91178019.294                          31.500                  
  21452232.078   112732242.531                          48.000                  
  21452234.778    87843306.102                          41.000                  
  20787856.322   109240920.577                          50.750                  
  20787862.702    85122795.425                          51.500                  
  21950836.654   115352423.045                          47.250                  
  21950842.134    89885004.514                          47.500                  
  24060989.600   126441358.226                          40.000                  
  24060994.480    98525734.424                          26.000                  
 16 10  2  8 35 42.0000000  0  7G16G18G20G21G26G27G29
  20578432.524   108140393.403                          48.250                  
  20578435.384    84265241.220                          41.500                  
  22606337.090   118797104.736                          46.500                  
  22606339.970    92569172.599                          31.000                  
  22266751.232   117012568.650                          47.500                  
  22266754.512    91178625.624                          31.500                  
  21452452.838   112733402.512                          48.250                  
  21452455.998    87844209.979                          40.500                  
  20788108.182   109242243.848                          50.750                  
  20788114.562    85123826.543                          51.500                  
  21950342.834   115349828.306                          47.250                  
  21950348.134    89882982.635                          47.750                  
  24061607.600   126444605.497                          39.500                  
  24061612.480    98528264.765                          26.000                  
 16 10  2  8 35 43.0000000  0  7G16G18G20G21G26G27G29
  20578296.084   108139677.546                          48.250                  
  20578298.824    84264683.415                          41.500                  
  22605908.230   118794852.189                          46.500                  
  22605911.410    92567417.376                          31.000                  
  22266900.112   117013348.140                          47.250                  
  22266902.772    91179233.021                          31.750                  
  21452674.078   112734563.599                          48.000                  
  21452676.178    87845114.724                          40.500                  
  20788359.942   109243568.445                          50.500                  
  20788366.502    85124858.696                          51.500                  
  21949849.554   115347234.510                          46.250                  
  21949854.974    89880961.493                          47.500                  
  24062225.900   126447853.582                          39.500                  
  24062230.720    98530795.736                          26.250                  
 16 10  2  8 35 44.0000000  0  7G16G18G20G21G26G27G29
  20578160.244   108138962.388                          48.250                  
  20578162.504    84264126.147                          41.000                  
  22605479.210   118792600.138                          46.000                  
  22605482.450    92565662.533                          31.250                  
  22267048.592   117014128.416                          47.500                  
  22267051.172    91179841.024                          32.000                  
  21452894.678   112735725.169                          48.000                  
  21452897.478    87846019.844                          41.000                  
  20788612.582   109244893.712                          50.250                  
  20788618.702    85125891.368                          51.500                  
  21949355.854   115344641.079                          46.750                  
  21949361.274    89878940.632                          47.500                  
  24062844.420   126451101.871                          40.500                  
  24062848.640    98533326.862                          26.000                  
 16 10  2  8 35 45.0000000  0  7G16G18G20G21G26G27G29
  20578024.124   108138247.572                          48.500                  
  20578026.504    84263569.146                          41.000                  
  22605050.910   118790348.203                          46.000                  
  22605054.450    92563907.787                          30.750                  
  22267196.952   117014909.075                          47.000                  
  22267199.892    91180449.326                          31.750                  
  21453115.838   112736886.884                          48.500                  
  21453118.338    87846925.072                          40.500                  
  20788864.962   109246219.329                          50.500                  
  20788870.902    85126924.321                          51.500                  
  21948862.174   115342047.635                          47.000                  
  21948867.434    89876919.772                          47.500                  
  24063461.820   126454349.977                          39.500                  
  24063466.660    98535857.854                          25.750                  
 16 10  2  8 35 46.0000000  0  7G16G18G20G21G26G27G29
  20577888.744   108137532.648                          48.500                  
  20577890.604    84263012.062                          41.000                  
  22604622.450   118788095.942                          46.000                  
  22604625.470    92562152.786                          31.000                  
  22267345.172   117015689.697                          47.000                  
  22267348.252    91181057.607                          31.500                  
  21453336.738   112738048.265                          48.500                  
  21453339.398    87847830.042                          40.250                  
  20789117.062   109247544.831                          50.000                  
  20789123.402    85127957.175                          51.250                  
  21948368.534   115339453.744                          47.000                  
  21948374.194    89874898.559                          47.500                  
  24064080.120   126457597.421                          39.500                  
  24064084.700    98538388.332                          26.000                  
 16 10  2  8 35 47.0000000  0  7G16G18G20G21G26G27G29
  20577752.564   108136818.746                          48.750                  
  20577754.704    84262455.773                          40.750                  
  22604194.190   118785844.459                          46.000                  
  22604197.210    92560398.384                          31.000                  
  22267494.352   117016471.381                          47.000                  
  22267497.232    91181666.707                          31.250                  
  21453558.178   112739210.429                          48.750                  
  21453560.938    87848735.625                          40.000                  
  20789369.342   109248871.328                          50.500                  
  20789375.922    85128990.809                          51.250                  
  21947875.054   115336860.507                          47.500                  
  21947880.534    89872877.857                          47.750                  
  24064698.380   126460845.427                          39.750                  
  24064702.960    98540919.243                          26.250                  
 16 10  2  8 35 48.0000000  0  7G16G18G20G21G26G27G29
  20577616.824   108136106.232                          48.250                  
  20577619.204    84261900.567                          40.500                  
  22603766.410   118783594.161                          46.250                  
  22603768.870    92558644.909                          31.000                  
  22267643.312   117017254.518                          47.000                  
  22267646.012    91182276.944                          31.750                  
  21453779.538   112740373.810                          48.250                  
  21453781.938    87849642.159                          40.250                  
  20789621.922   109250199.204                          50.750                  
  20789628.302    85130025.520                          51.000                  
  21947382.014   115334268.301                          48.000                  
  21947387.114    89870857.954                          47.750                  
  24065316.220   126464094.253                          40.250                  
  24065320.920    98543450.788                          26.500                  
 16 10  2  8 35 49.0000000  0  7G16G18G20G21G26G27G29
  20577481.284   108135394.077                          48.750                  
  20577483.904    84261345.643                          41.000                  
  22603338.010   118781343.960                          46.000                  
  22603340.970    92556891.508                          31.750                  
  22267791.932   117018038.049                          46.750                  
  22267795.212    91182887.481                          32.250                  
  21454000.738   112741537.288                          48.000                  
  21454003.438    87850548.768                          40.500                  
  20789874.702   109251527.430                          50.250                  
  20789880.862    85131060.497                          51.250                  
  21946888.274   115331676.121                          47.500                  
  21946893.914    89868838.073                          48.000                  
  24065933.560   126467342.942                          39.750                  
  24065939.080    98545982.246                          26.000                  
 16 10  2  8 35 50.0000000  0  7G16G18G20G21G26G27G29
  20577345.704   108134682.378                          48.500                  
  20577348.284    84260791.076                          41.250                  
  22602909.710   118779094.006                          46.250                  
  22602912.730    92555138.295                          30.750                  
  22267941.292   117018822.100                          47.000                  
  22267944.452    91183498.428                          32.000                  
  21454222.158   112742701.018                          48.250                  
  21454225.158    87851455.568                          40.500                  
  20790127.462   109252856.087                          49.500                  
  20790133.762    85132095.808                          51.250                  
  21946395.194   115329084.014                          47.250                  
  21946400.574    89866818.243                          47.500                  
  24066551.780   126470591.573                          40.000                  
  24066557.280    98548513.651                          26.500                  
 16 10  2  8 35 51.0000000  0  7G16G18G20G21G26G27G29
  20577210.324   108133970.528                          48.500                  
  20577212.904    84260236.382                          40.750                  
  22602480.910   118776843.684                          45.750                  
  22602484.370    92553384.797                          31.000                  
  22268090.752   117019606.070                          47.000                  
  22268093.992    91184109.310                          31.750                  
  21454443.558   112743864.383                          48.000                  
  21454446.318    87852362.091                          40.500                  
  20790380.342   109254184.607                          49.750                  
  20790386.882    85133131.020                          51.000                  
  21945901.894   115326491.416                          47.000                  
  21945907.394    89864798.039                          47.750                  
  24067170.680   126473839.559                          40.250                  
  24067175.560    98551044.547                          25.250                  
 16 10  2  8 35 52.0000000  0  7G16G18G20G21G26G27G29
  20577075.044   108133259.884                          48.750                  
  20577077.624    84259682.633                          40.750                  
  22602053.430   118774594.337                          46.250                  
  22602056.570    92551632.061                          30.750                  
  22268239.972   117020391.309                          47.000                  
  22268243.272    91184721.188                          32.250                  
  21454665.418   112745028.755                          48.250                  
  21454667.878    87853269.389                          40.500                  
  20790633.562   109255514.302                          49.750                  
  20790640.042    85134167.150                          51.500                  
  21945408.334   115323899.675                          47.000                  
  21945414.094    89862778.502                          48.000                  
  24067789.400   126477088.177                          40.250                  
  24067794.160    98553575.932                          25.500                  
 16 10  2  8 35 53.0000000  0  7G16G18G20G21G26G27G29
  20576940.304   108132550.326                          48.500                  
  20576942.464    84259129.733                          41.250                  
  22601625.550   118772345.846                          46.500                  
  22601628.930    92549879.991                          30.500                  
  22268389.672   117021177.659                          46.750                  
  22268392.892    91185333.925                          32.250                  
  21454886.938   112746193.959                          48.000                  
  21454889.258    87854177.342                          40.500                  
  20790886.642   109256845.064                          49.250                  
  20790892.862    85135204.105                          51.250                  
  21944915.514   115321308.624                          47.250                  
  21944921.074    89860759.506                          47.750                  
  24068407.280   126480337.378                          40.500                  
  24068412.000    98556107.771                          26.250                  
 16 10  2  8 35 54.0000000  0  7G16G18G20G21G26G27G29
  20576805.204   108131840.368                          48.750                  
  20576807.504    84258576.517                          41.000                  
  22601198.150   118770096.733                          46.750                  
  22601200.770    92548127.437                          31.000                  
  22268539.512   117021963.652                          46.500                  
  22268542.432    91185946.389                          32.500                  
  21455108.718   112747358.554                          47.750                  
  21455111.538    87855084.817                          41.000                  
  20791139.602   109258175.399                          49.500                  
  20791146.202    85136240.735                          51.500                  
  21944422.254   115318716.838                          46.000                  
  21944427.834    89858739.933                          47.500                  
  24069025.500   126483585.658                          41.000                  
  24069030.320    98558638.889                          25.000                  
 16 10  2  8 35 55.0000000  0  7G16G18G20G21G26G27G29
  20576670.284   108131131.455                          48.500                  
  20576672.524    84258024.116                          41.000                  
  22600769.830   118767848.424                          46.500                  
  22600772.750    92546375.510                          31.000                  
  22268688.732   117022750.781                          46.500                  
  22268692.212    91186559.738                          32.250                  
  21455330.218   112748523.976                          47.500                  
  21455333.458    87855992.940                          40.750                  
  20791393.182   109259506.781                          49.500                  
  20791399.682    85137278.175                          51.750                  
  21943929.714   115316125.761                          46.000                  
  21943934.874    89856720.914                          47.500                  
  24069643.360   126486834.452                          41.250                  
  24069648.340    98561170.413                          26.500                  
 16 10  2  8 35 56.0000000  0  7G16G18G20G21G26G27G29
  20576535.504   108130423.056                          48.750                  
  20576538.244    84257472.122                          41.250                  
  22600342.090   118765600.446                          46.250                  
  22600345.350    92544623.835                          31.750                  
  22268838.512   117023538.484                          46.750                  
  22268842.092    91187173.533                          32.500                  
  21455552.218   112749689.729                          47.500                  
  21455554.558    87856901.317                          40.750                  
  20791647.202   109260838.678                          49.500                  
  20791652.962    85138316.012                          51.750                  
  21943436.894   115313534.842                          46.500                  
  21943441.954    89854702.012                          47.750                  
  24070261.580   126490083.273                          41.250                  
  24070266.140    98563701.956                          26.500                  
 16 10  2  8 35 57.0000000  0  7G16G18G20G21G26G27G29
  20576400.944   108129716.109                          49.000                  
  20576403.284    84256921.256                          41.250                  
  22599914.050   118763353.645                          46.500                  
  22599917.350    92542873.089                          31.250                  
  22268989.192   117024327.664                          47.000                  
  22268992.332    91187788.476                          32.750                  
  21455774.198   112750856.657                          48.000                  
  21455777.098    87857810.612                          40.250                  
  20791900.382   109262171.972                          48.500                  
  20791906.842    85139354.941                          51.500                  
  21942943.634   115310944.993                          46.250                  
  21942948.894    89852683.939                          48.000                  
  24070880.460   126493332.986                          41.000                  
  24070885.040    98566234.196                          26.500                  
 16 10  2  8 35 58.0000000  0  7G16G18G20G21G26G27G29
  20576266.364   108129009.136                          48.500                  
  20576268.604    84256370.364                          41.500                  
  22599486.910   118761106.631                          47.000                  
  22599489.950    92541122.165                          31.250                  
  22269139.152   117025116.894                          47.250                  
  22269142.852    91188403.457                          32.500                  
  21455996.478   112752023.383                          47.750                  
  21455998.838    87858719.749                          40.250                  
  20792153.822   109263505.267                          48.750                  
  20792160.482    85140393.866                          51.250                  
  21942450.934   115308354.796                          47.000                  
  21942455.934    89850665.606                          48.250                  
  24071498.060   126496582.191                          40.500                  
  24071503.440    98568766.054                          25.750                  
 16 10  2  8 35 59.0000000  0  7G16G18G20G21G26G27G29
  20576131.424   108128302.951                          48.000                  
  20576134.524    84255820.092                          41.250                  
  22599059.330   118758860.169                          46.750                  
  22599062.810    92539371.679                          30.750                  
  22269289.572   117025906.952                          47.000                  
  22269292.732    91189019.088                          32.750                  
  21456218.238   112753190.663                          48.000                  
  21456221.078    87859629.309                          40.500                  
  20792407.902   109264839.320                          49.000                  
  20792414.242    85141433.388                          51.250                  
  21941958.074   115305765.031                          47.250                  
  21941963.234    89848647.605                          48.000                  
  24072116.920   126499831.621                          41.250                  
  24072121.480    98571298.071                          27.000                  
 16 10  2  8 36  0.0000000  0  7G16G18G20G21G26G27G29
  20575997.604   108127596.892                          48.250                  
  20576000.264    84255269.911                          41.500                  
  22598631.490   118756613.600                          46.750                  
  22598635.070    92537621.108                          31.000                  
  22269440.052   117026697.183                          47.000                  
  22269443.132    91189634.853                          32.250                  
  21456440.578   112754357.854                          48.000                  
  21456443.158    87860538.813                          40.500                  
  20792661.662   109266173.482                          49.000                  
  20792668.402    85142472.995                          51.500                  
  21941464.574   115303175.015                          47.250                  
  21941470.574    89846629.415                          48.000                  
  24072735.160   126503080.678                          40.750                  
  24072739.780    98573829.814                          26.750                  
 16 10  2  8 36  1.0000000  0  7G16G18G20G21G26G27G29
  20575863.484   108126891.953                          48.250                  
  20575865.844    84254720.607                          41.000                  
  22598204.550   118754367.913                          47.000                  
  22598207.730    92535871.222                          31.500                  
  22269590.652   117027488.623                          47.000                  
  22269593.872    91190251.557                          33.000                  
  21456663.018   112755525.938                          48.000                  
  21456665.438    87861449.008                          40.500                  
  20792916.082   109267508.755                          49.500                  
  20792922.142    85143513.463                          51.500                  
  21940972.474   115300585.757                          46.250                  
  21940977.654    89844611.813                          47.750                  
  24073353.260   126506330.355                          41.250                  
  24073358.580    98576362.026                          26.750                  
 16 10  2  8 36  2.0000000  0  7G16G18G20G21G26G27G29
  20575729.524   108126187.652                          48.500                  
  20575731.824    84254171.799                          41.000                  
  22597777.210   118752122.670                          47.000                  
  22597780.610    92534121.692                          30.500                  
  22269741.192   117028280.720                          47.000                  
  22269744.552    91190868.779                          32.500                  
  21456885.258   112756694.450                          47.500                  
  21456887.858    87862359.541                          40.500                  
  20793170.062   109268844.651                          50.000                  
  20793176.542    85144554.419                          51.000                  
  21940479.394   115297996.806                          46.500                  
  21940484.834    89842594.459                          47.750                  
  24073971.740   126509580.111                          40.500                  
  24073976.980    98578894.305                          27.750                  
 16 10  2  8 36  3.0000000  0  7G16G18G20G21G26G27G29
  20575595.224   108125483.559                          48.250                  
  20575597.844    84253623.159                          41.500                  
  22597350.170   118749877.391                          47.750                  
  22597353.270    92532372.122                          31.000                  
  22269892.252   117029073.101                          47.000                  
  22269895.572    91191486.219                          32.500                  
  21457107.358   112757862.926                          47.750                  
  21457110.078    87863270.037                          41.000                  
  20793424.582   109270180.730                          50.000                  
  20793430.462    85145595.526                          51.250                  
  21939987.514   115295407.689                          46.750                  
  21939992.634    89840576.974                          47.500                  
  24074589.820   126512829.596                          40.000                  
  24074595.220    98581426.362                          27.500                  
 16 10  2  8 36  4.0000000  0  7G16G18G20G21G26G27G29
  20575461.564   108124780.735                          48.250                  
  20575464.184    84253075.504                          41.250                  
  22596923.050   118747633.183                          47.000                  
  22596926.250    92530623.386                          30.500                  
  22270043.312   117029866.813                          47.000                  
  22270046.492    91192104.694                          32.750                  
  21457330.038   112759032.484                          48.000                  
  21457332.518    87864181.379                          41.000                  
  20793678.942   109271518.071                          50.250                  
  20793684.842    85146637.603                          51.500                  
  21939494.614   115292819.506                          46.750                  
  21939499.734    89838560.201                          47.000                  
  24075208.760   126516079.796                          40.000                  
  24075213.460    98583958.977                          26.250                  
 16 10  2  8 36  5.0000000  0  7G16G18G20G21G26G27G29
  20575327.924   108124077.479                          48.500                  
  20575330.184    84252527.513                          41.250                  
  22596495.890   118745388.308                          47.250                  
  22596499.250    92528874.123                          30.750                  
  22270194.272   117030660.140                          47.000                  
  22270197.192    91192722.871                          32.000                  
  21457552.778   112760201.401                          48.000                  
  21457554.818    87865092.224                          41.250                  
  20793933.262   109272854.973                          50.000                  
  20793939.662    85147679.345                          51.750                  
  21939001.834   115290230.518                          46.750                  
  21939007.294    89836542.800                          47.000                  
  24075827.640   126519329.082                          41.000                  
  24075832.080    98586490.878                          27.000                  
 16 10  2  8 36  6.0000000  0  7G16G18G20G21G26G27G29
  20575194.444   108123375.239                          48.250                  
  20575196.544    84251980.308                          40.750                  
  22596068.630   118743144.221                          47.500                  
  22596071.990    92527125.480                          30.500                  
  22270345.112   117031454.557                          47.250                  
  22270348.772    91193341.897                          32.000                  
  21457775.138   112761371.093                          48.250                  
  21457777.718    87866003.672                          41.000                  
  20794188.222   109274192.868                          50.000                  
  20794194.502    85148721.861                          51.500                  
  21938509.474   115287642.216                          46.750                  
  21938514.714    89834525.939                          47.000                  
  24076446.120   126522578.843                          40.750                  
  24076450.260    98589023.153                          26.500                  
 16 10  2  8 36  7.0000000  0  7G16G18G20G21G26G27G29
  20575061.044   108122674.059                          48.250                  
  20575063.324    84251433.939                          41.250                  
  22595641.610   118740900.957                          47.000                  
  22595645.350    92525377.486                          30.750                  
  22270496.892   117032250.051                          46.250                  
  22270499.712    91193961.758                          32.500                  
  21457997.718   112762541.657                          48.000                  
  21458000.638    87866915.800                          41.000                  
  20794442.902   109275531.825                          50.000                  
  20794448.782    85149765.200                          51.500                  
  21938016.834   115285054.597                          47.000                  
  21938022.314    89832509.605                          47.000                  
  24077063.580   126525829.167                          41.000                  
  24077068.960    98591555.873                          27.000                  
 16 10  2  8 36  8.0000000  0  7G16G18G20G21G26G27G29
  20574927.344   108121973.405                          48.500                  
  20574929.684    84250887.973                          41.500                  
  22595215.270   118738658.008                          47.000                  
  22595218.430    92523629.733                          31.250                  
  22270647.992   117033046.144                          46.250                  
  22270651.132    91194582.091                          32.250                  
  21458220.658   112763712.500                          48.500                  
  21458223.358    87867828.137                          40.500                  
  20794697.482   109276871.279                          50.000                  
  20794704.122    85150808.930                          51.750                  
  21937524.294   115282467.159                          46.500                  
  21937529.814    89830493.417                          47.000                  
  24077682.940   126529079.482                          41.250                  
  24077687.440    98594088.586                          26.500                  
 16 10  2  8 36  9.0000000  0  7G16G18G20G21G26G27G29
  20574794.524   108121272.930                          48.000                  
  20574796.504    84250342.150                          41.500                  
  22594788.670   118736414.983                          47.250                  
  22594791.510    92521881.930                          31.250                  
  22270799.852   117033842.458                          46.500                  
  22270802.992    91195202.595                          32.750                  
  21458443.538   112764883.285                          48.500                  
  21458446.098    87868740.441                          40.750                  
  20794952.342   109278210.876                          49.750                  
  20794959.002    85151852.774                          52.000                  
  21937032.194   115279879.525                          46.750                  
  21937037.194    89828477.085                          47.500                  
  24078301.000   126532329.425                          41.500                  
  24078305.900    98596621.009                          26.250                  
 16 10  2  8 36 10.0000000  0  7G16G18G20G21G26G27G29
  20574660.984   108120573.343                          48.500                  
  20574663.584    84249797.019                          41.250                  
  22594361.390   118734172.643                          47.250                  
  22594365.130    92520134.648                          31.000                  
  22270951.432   117034639.726                          46.750                  
  22270955.052    91195823.851                          32.500                  
  21458666.138   112766054.745                          48.250                  
  21458669.158    87869653.268                          40.250                  
  20795207.662   109279551.357                          49.500                  
  20795214.002    85152897.301                          51.750                  
  21936539.894   115277292.418                          47.500                  
  21936545.114    89826461.166                          47.500                  
  24078919.120   126535579.735                          41.250                  
  24078924.780    98599153.710                          28.250                  
 16 10  2  8 36 11.0000000  0  7G16G18G20G21G26G27G29
  20574527.524   108119874.770                          48.500                  
  20574530.104    84249252.672                          41.500                  
  22593934.830   118731931.108                          47.500                  
  22593937.970    92518387.997                          31.250                  
  22271103.512   117035438.076                          46.750                  
  22271106.812    91196445.942                          32.500                  
  21458889.638   112767227.039                          48.500                  
  21458892.598    87870566.745                          40.500                  
  20795462.782   109280892.852                          49.750                  
  20795469.302    85153942.619                          52.000                  
  21936047.714   115274706.029                          47.500                  
  21936053.134    89824445.802                          48.000                  
  24079538.040   126538830.571                          41.250                  
  24079543.260    98601686.835                          28.000                  
 16 10  2  8 36 12.0000000  0  7G16G18G20G21G26G27G29
  20574394.844   108119176.273                          48.750                  
  20574397.724    84248708.389                          41.250                  
  22593508.330   118729689.402                          47.500                  
  22593511.970    92516641.211                          30.750                  
  22271255.492   117036236.534                          46.000                  
  22271258.832    91197068.109                          33.000                  
  21459112.258   112768399.148                          48.250                  
  21459115.118    87871480.077                          40.750                  
  20795718.342   109282234.384                          49.750                  
  20795724.342    85154987.971                          51.500                  
  21935555.454   115272119.306                          47.500                  
  21935560.894    89822430.174                          47.500                  
  24080156.340   126542080.929                          41.500                  
  24080161.460    98604219.575                          28.000                  
 16 10  2  8 36 13.0000000  0  7G16G18G20G21G26G27G29
  20574262.504   108118478.762                          48.500                  
  20574264.924    84248164.878                          41.250                  
  22593081.690   118727448.460                          47.000                  
  22593085.130    92514895.019                          31.250                  
  22271407.512   117037036.027                          46.000                  
  22271411.052    91197691.094                          33.000                  
  21459335.478   112769572.038                          48.250                  
  21459338.278    87872394.017                          40.500                  
  20795973.642   109283576.903                          50.250                  
  20795979.882    85156034.086                          51.000                  
  21935063.114   115269533.224                          47.000                  
  21935068.634    89820415.051                          47.500                  
  24080775.160   126545331.781                          41.750                  
  24080779.960    98606752.714                          26.000                  
 16 10  2  8 36 14.0000000  0  7G16G18G20G21G26G27G29
  20574130.064   108117782.034                          48.750                  
  20574132.324    84247621.969                          41.000                  
  22592655.050   118725208.094                          46.750                  
  22592658.630    92513149.279                          30.750                  
  22271559.712   117037836.371                          46.250                  
  22271563.172    91198314.735                          32.750                  
  21459558.838   112770745.501                          48.000                  
  21459561.318    87873308.403                          40.500                  
  20796229.042   109284920.196                          49.750                  
  20796235.522    85157080.811                          50.750                  
  21934571.574   115266947.571                          47.250                  
  21934576.694    89818400.258                          47.250                  
  24081393.320   126548582.879                          40.000                  
  24081398.620    98609286.026                          27.000                  
 16 10  2  8 36 15.0000000  0  7G16G18G20G21G26G27G29
  20573997.064   108117085.484                          48.500                  
  20573999.444    84247079.201                          41.000                  
  22592229.190   118722967.676                          46.250                  
  22592232.930    92511403.500                          31.000                  
  22271712.052   117038636.929                          46.000                  
  22271715.532    91198938.546                          32.500                  
  21459782.358   112771918.900                          48.000                  
  21459785.378    87874222.737                          40.250                  
  20796484.602   109286263.632                          49.000                  
  20796491.042    85158127.649                          51.000                  
  21934078.814   115264361.746                          47.750                  
  21934084.494    89816385.322                          47.250                  
  24082012.900   126551833.631                          40.250                  
  24082017.840    98611819.083                          26.750                  
 16 10  2  8 36 16.0000000  0  7G16G18G20G21G26G27G29
  20573865.024   108116388.771                          48.000                  
  20573867.284    84246536.312                          41.750                  
  22591802.870   118720726.889                          46.500                  
  22591806.270    92509657.435                          30.750                  
  22271864.452   117039437.426                          46.250                  
  22271867.832    91199562.308                          32.250                  
  21460005.578   112773091.945                          47.750                  
  21460008.338    87875136.799                          40.000                  
  20796740.522   109287606.914                          48.250                  
  20796746.742    85159174.364                          50.500                  
  21933587.234   115261775.436                          46.750                  
  21933592.374    89814370.007                          47.500                  
  24082631.280   126555083.710                          40.250                  
  24082635.840    98614351.604                          27.000                  
 16 10  2  8 36 17.0000000  0  7G16G18G20G21G26G27G29
  20573732.524   108115693.354                          48.250                  
  20573734.924    84245994.424                          42.000                  
  22591376.570   118718487.159                          46.250                  
  22591379.710    92507912.195                          31.500                  
  22272017.212   117040239.218                          46.500                  
  22272020.072    91200187.083                          31.750                  
  21460228.878   112774266.025                          48.000                  
  21460231.618    87876051.667                          40.500                  
  20796996.622   109288951.446                          48.750                  
  20797002.842    85160222.058                          50.500                  
  21933095.294   115259190.011                          47.250                  
  21933100.594    89812355.386                          47.500                  
  24083249.920   126558334.562                          41.000                  
  24083254.700    98616884.740                          27.500                  
 16 10  2  8 36 18.0000000  0  7G16G18G20G21G26G27G29
  20573600.064   108114999.109                          48.000                  
  20573602.524    84245453.456                          41.500                  
  22590950.790   118716248.395                          46.750                  
  22590953.770    92506167.704                          31.250                  
  22272169.912   117041042.279                          46.500                  
  22272172.612    91200812.846                          32.000                  
  21460452.398   112775441.095                          48.250                  
  21460455.218    87876967.306                          40.750                  
  20797252.722   109290297.169                          49.500                  
  20797258.842    85161270.673                          50.750                  
  21932603.314   115256605.422                          47.000                  
  21932608.634    89810341.412                          47.250                  
  24083868.380   126561586.052                          40.750                  
  24083873.120    98619418.358                          27.500                  
 16 10  2  8 36 19.0000000  0  7G16G18G20G21G26G27G29
  20573468.044   108114305.121                          48.500                  
  20573470.884    84244912.684                          41.750                  
  22590524.790   118714009.606                          46.500                  
  22590527.770    92504423.194                          30.750                  
  22272322.492   117041845.596                          46.500                  
  22272325.852    91201438.810                          32.000                  
  21460676.298   112776616.171                          48.000                  
  21460678.558    87877882.952                          41.000                  
  20797508.562   109291643.104                          49.000                  
  20797514.962    85162319.452                          51.000                  
  21932111.454   115254020.730                          46.000                  
  21932116.634    89808327.367                          47.500                  
  24084487.200   126564837.287                          40.750                  
  24084492.280    98621951.788                          27.500                  
 16 10  2  8 36 20.0000000  0  7G16G18G20G21G26G27G29
  20573336.304   108113611.945                          48.250                  
  20573338.784    84244372.555                          41.500                  
  22590098.810   118711771.473                          46.500                  
  22590102.230    92502679.191                          31.500                  
  22272475.612   117042649.816                          46.250                  
  22272478.872    91202065.479                          32.500                  
  21460899.718   112777791.854                          48.500                  
  21460902.578    87878799.066                          41.000                  
  20797764.722   109292989.846                          49.250                  
  20797771.002    85163368.859                          51.000                  
  21931619.634   115251436.516                          46.250                  
  21931624.754    89806313.694                          48.000                  
  24085105.880   126568088.796                          41.000                  
  24085110.940    98624485.429                          26.750                  
 16 10  2  8 36 21.0000000  0  7G16G18G20G21G26G27G29
  20573204.664   108112918.703                          48.000                  
  20573207.244    84243832.361                          41.250                  
  22589672.550   118709533.014                          46.750                  
  22589675.930    92500934.935                          31.000                  
  22272628.812   117043453.996                          46.500                  
  22272632.052    91202692.114                          32.000                  
  21461123.438   112778967.245                          48.000                  
  21461126.118    87879714.954                          40.500                  
  20798021.142   109294336.510                          49.000                  
  20798027.282    85164418.209                          51.000                  
  21931127.834   115248851.851                          46.750                  
  21931132.834    89804299.671                          47.750                  
  24085724.420   126571339.734                          41.000                  
  24085729.280    98627018.632                          27.750                  
 16 10  2  8 36 22.0000000  0  7G16G18G20G21G26G27G29
  20573072.664   108112226.662                          47.500                  
  20573074.924    84243293.110                          41.500                  
  22589246.750   118707295.549                          46.000                  
  22589250.250    92499191.450                          31.000                  
  22272782.192   117044259.478                          46.500                  
  22272785.452    91203319.757                          32.500                  
  21461347.338   112780143.624                          48.000                  
  21461350.378    87880631.613                          40.750                  
  20798277.702   109295684.350                          49.250                  
  20798283.642    85165468.472                          51.500                  
  21930635.854   115246268.066                          47.000                  
  21930641.354    89802286.342                          48.000                  
  24086343.200   126574591.356                          41.000                  
  24086348.000    98629552.357                          28.000                  
 16 10  2  8 36 23.0000000  0  7G16G18G20G21G26G27G29
  20572941.364   108111535.313                          47.500                  
  20572943.764    84242754.394                          41.500                  
  22588820.730   118705058.520                          46.000                  
  22588824.210    92497448.314                          31.250                  
  22272935.752   117045065.658                          47.000                  
  22272938.712    91203947.950                          33.000                  
  21461571.018   112781320.476                          48.000                  
  21461573.998    87881548.636                          41.000                  
  20798534.082   109297032.868                          49.000                  
  20798540.402    85166519.264                          51.250                  
  21930144.394   115243684.582                          47.000                  
  21930149.794    89800273.242                          48.000                  
  24086962.500   126577843.124                          41.000                  
  24086966.700    98632086.204                          28.250                  
 16 10  2  8 36 24.0000000  0  7G16G18G20G21G26G27G29
  20572809.644   108110844.622                          48.000                  
  20572812.004    84242216.192                          41.250                  
  22588395.230   118702821.953                          46.000                  
  22588398.390    92495705.547                          30.500                  
  22273088.832   117045872.579                          47.000                  
  22273091.912    91204576.713                          33.000                  
  21461795.618   112782497.759                          48.250                  
  21461798.258    87882466.001                          41.000                  
  20798790.882   109298382.033                          49.500                  
  20798797.002    85167570.559                          50.750                  
  21929652.854   115241101.428                          47.500                  
  21929658.234    89798260.398                          47.750                  
  24087580.640   126581095.032                          41.500                  
  24087585.900    98634620.159                          28.500                  
 16 10  2  8 36 25.0000000  0  7G16G18G20G21G26G27G29
  20572678.084   108110153.848                          48.500                  
  20572680.544    84241677.928                          41.500                  
  22587969.930   118700585.055                          46.250                  
  22587972.910    92493962.526                          30.000                  
  22273242.492   117046679.432                          47.500                  
  22273245.732    91205205.428                          32.500                  
  21462019.378   112783674.735                          48.000                  
  21462022.098    87883383.125                          41.250                  
  20799047.842   109299731.114                          49.250                  
  20799054.002    85168621.792                          50.750                  
  21929161.334   115238517.816                          47.250                  
  21929166.534    89796247.192                          48.000                  
  24088199.940   126584346.346                          41.500                  
  24088204.420    98637153.642                          27.500                  
 16 10  2  8 36 26.0000000  0  7G16G18G20G21G26G27G29
  20572546.884   108109464.035                          48.500                  
  20572549.384    84241140.411                          41.000                  
  22587544.670   118698348.891                          46.250                  
  22587547.530    92492220.068                          30.750                  
  22273396.472   117047487.323                          47.250                  
  22273399.572    91205834.953                          32.750                  
  21462243.578   112784852.430                          48.250                  
  21462246.158    87884300.814                          41.000                  
  20799304.382   109301081.082                          49.000                  
  20799310.842    85169673.716                          50.750                  
  21928669.754   115235934.795                          48.000                  
  21928674.914    89794234.451                          47.750                  
  24088818.120   126587598.075                          40.750                  
  24088823.260    98639687.449                          28.500                  
 16 10  2  8 36 27.0000000  0  7G16G18G20G21G26G27G29
  20572416.064   108108774.787                          48.250                  
  20572418.084    84240603.335                          41.250                  
  22587119.210   118696113.094                          46.500                  
  22587121.750    92490477.887                          30.750                  
  22273550.572   117048295.829                          47.250                  
  22273553.812    91206464.962                          32.500                  
  21462467.458   112786030.483                          48.250                  
  21462470.258    87885218.777                          41.000                  
  20799561.322   109302431.658                          49.000                  
  20799567.962    85170726.115                          51.000                  
  21928178.374   115233352.029                          47.500                  
  21928183.554    89792221.904                          47.750                  
  24089436.820   126590849.873                          41.000                  
  24089441.900    98642221.309                          28.500                  
 16 10  2  8 36 28.0000000  0  7G16G18G20G21G26G27G29
  20572285.104   108108086.625                          48.250                  
  20572287.524    84240067.105                          41.500                  
  22586693.690   118693878.156                          46.250                  
  22586696.750    92488736.377                          31.250                  
  22273704.212   117049105.474                          47.250                  
  22273707.792    91207095.853                          32.500                  
  21462691.778   112787209.422                          48.250                  
  21462694.538    87886137.429                          41.250                  
  20799818.562   109303783.290                          49.000                  
  20799824.762    85171779.328                          51.000                  
  21927687.154   115230769.970                          47.500                  
  21927692.114    89790209.906                          47.500                  
  24090056.020   126594102.217                          41.250                  
  24090061.100    98644755.603                          29.000                  
 16 10  2  8 36 29.0000000  0  7G16G18G20G21G26G27G29
  20572154.104   108107398.299                          48.500                  
  20572156.344    84239530.747                          41.750                  
  22586268.210   118691642.816                          46.750                  
  22586271.090    92486994.556                          30.250                  
  22273858.472   117049914.984                          47.000                  
  22273861.632    91207726.637                          32.500                  
  21462916.338   112788387.942                          48.500                  
  21462918.998    87887055.754                          41.250                  
  20800075.842   109305134.714                          49.250                  
  20800082.202    85172832.388                          51.000                  
  21927195.534   115228187.383                          47.750                  
  21927200.834    89788197.498                          47.500                  
  24090675.360   126597353.867                          41.500                  
  24090679.820    98647289.354                          27.500                  
 16 10  2  8 36 30.0000000  0  7G16G18G20G21G26G27G29
  20572023.344   108106710.935                          48.500                  
  20572025.604    84238995.139                          42.000                  
  22585843.350   118689408.223                          46.250                  
  22585845.890    92485253.308                          31.250                  
  22274012.472   117050725.549                          47.000                  
  22274016.232    91208358.249                          32.500                  
  21463140.838   112789567.235                          48.750                  
  21463143.518    87887974.684                          41.000                  
  20800333.242   109306487.121                          49.250                  
  20800339.422    85173886.216                          51.250                  
  21926703.754   115225605.411                          47.000                  
  21926709.474    89786185.563                          47.500                  
  24091294.200   126600605.972                          42.000                  
  24091298.620    98649823.468                          28.250                  
 16 10  2  8 36 31.0000000  0  7G16G18G20G21G26G27G29
  20571892.264   108106024.554                          48.000                  
  20571895.004    84238460.296                          41.250                  
  22585418.310   118687174.415                          46.250                  
  22585420.670    92483512.679                          31.250                  
  22274167.152   117051537.134                          46.750                  
  22274170.312    91208990.653                          32.500                  
  21463365.438   112790747.282                          48.250                  
  21463367.918    87888894.205                          41.000                  
  20800590.682   109307840.474                          48.500                  
  20800597.002    85174940.775                          51.250                  
  21926212.514   115223024.077                          46.000                  
  21926218.154    89784174.136                          47.750                  
  24091912.740   126603858.545                          41.750                  
  24091917.300    98652357.930                          29.250                  
 16 10  2  8 36 32.0000000  0  7G16G18G20G21G26G27G29
  20571761.844   108105338.530                          48.000                  
  20571764.824    84237925.728                          41.250                  
  22584993.250   118684940.699                          46.500                  
  22584995.530    92481772.115                          31.500                  
  22274321.432   117052349.106                          47.000                  
  22274324.632    91209623.360                          32.000                  
  21463589.778   112791927.450                          48.500                  
  21463592.698    87889813.813                          40.750                  
  20800848.142   109309194.169                          48.500                  
  20800854.622    85175995.599                          50.750                  
  21925721.394   115220442.722                          46.250                  
  21925726.954    89782162.693                          47.750                  
  24092531.480   126607110.923                          41.250                  
  24092536.440    98654892.247                          28.000                  
 16 10  2  8 36 33.0000000  0  7G16G18G20G21G26G27G29
  20571631.244   108104653.047                          48.000                  
  20571633.844    84237391.586                          41.250                  
  22584567.870   118682707.304                          46.250                  
  22584570.390    92480031.805                          31.500                  
  22274475.992   117053161.705                          47.000                  
  22274479.252    91210256.554                          32.000                  
  21463814.478   112793107.923                          48.500                  
  21463817.338    87890733.661                          40.750                  
  20801106.022   109310548.384                          48.500                  
  20801112.582    85177050.828                          51.000                  
  21925230.934   115217861.561                          46.500                  
  21925235.614    89780151.407                          48.000                  
  24093150.600   126610363.317                          42.000                  
  24093155.380    98657426.578                          29.000                  
 16 10  2  8 36 34.0000000  0  7G16G18G20G21G26G27G29
  20571501.224   108103968.495                          47.750                  
  20571503.404    84236858.168                          41.000                  
  22584143.150   118680474.644                          46.500                  
  22584145.550    92478292.072                          31.250                  
  22274631.412   117053975.263                          47.250                  
  22274634.092    91210890.497                          32.000                  
  21464039.178   112794289.131                          48.500                  
  21464042.038    87891654.082                          40.750                  
  20801363.862   109311903.521                          48.500                  
  20801369.862    85178106.779                          51.000                  
  21924739.554   115215281.008                          47.000                  
  21924744.714    89778140.591                          48.250                  
  24093769.780   126613616.140                          41.750                  
  24093774.580    98659961.247                          28.750                  
 16 10  2  8 36 35.0000000  0  7G16G18G20G21G26G27G29
  20571371.364   108103284.134                          47.750                  
  20571373.544    84236324.900                          41.000                  
  22583717.970   118678241.922                          46.750                  
  22583720.590    92476552.288                          31.000                  
  22274785.712   117054789.069                          47.250                  
  22274788.912    91211524.629                          31.750                  
  21464263.798   112795470.293                          49.000                  
  21464266.458    87892574.467                          40.750                  
  20801621.662   109313258.818                          48.500                  
  20801628.102    85179162.850                          51.000                  
  21924248.274   115212700.250                          46.500                  
  21924253.694    89776129.606                          48.250                  
  24094388.160   126616868.615                          41.500                  
  24094393.260    98662495.653                          28.000                  
 16 10  2  8 36 36.0000000  0  7G16G18G20G21G26G27G29
  20571241.284   108102600.370                          48.000                  
  20571243.744    84235792.101                          41.250                  
  22583293.390   118676009.601                          46.500                  
  22583296.250    92474812.821                          31.500                  
  22274941.072   117055603.547                          47.000                  
  22274944.272    91212159.283                          32.250                  
  21464488.498   112796651.864                          48.250                  
  21464491.418    87893495.174                          40.750                  
  20801879.722   109314614.712                          48.500                  
  20801886.202    85180219.393                          51.000                  
  21923757.134   115210119.754                          46.500                  
  21923762.514    89774118.830                          48.250                  
  24095007.200   126620121.206                          41.750                  
  24095012.260    98665030.136                          27.500                  
 16 10  2  8 36 37.0000000  0  7G16G18G20G21G26G27G29
  20571111.144   108101917.807                          47.750                  
  20571113.144    84235260.229                          41.250                  
  22582868.650   118673778.255                          46.750                  
  22582871.590    92473074.104                          31.500                  
  22275096.212   117056419.259                          46.750                  
  22275099.332    91212794.906                          32.250                  
  21464713.898   112797834.396                          48.250                  
  21464716.458    87894416.630                          40.500                  
  20802137.962   109315971.790                          48.750                  
  20802144.262    85181276.853                          51.250                  
  21923266.514   115207540.107                          46.750                  
  21923271.714    89772108.720                          48.500                  
  24095626.640   126623374.409                          41.500                  
  24095631.380    98667565.095                          28.750                  
 16 10  2  8 36 38.0000000  0  7G16G18G20G21G26G27G29
  20570981.564   108101235.264                          48.250                  
  20570983.544    84234728.382                          41.500                  
  22582443.730   118671546.678                          46.500                  
  22582446.930    92471335.215                          31.250                  
  22275251.172   117057235.035                          46.500                  
  22275254.772    91213430.573                          32.000                  
  21464938.698   112799016.716                          48.250                  
  21464941.578    87895337.914                          40.750                  
  20802396.022   109317328.845                          48.750                  
  20802402.402    85182334.298                          51.000                  
  21922775.354   115204960.118                          47.000                  
  21922781.054    89770098.335                          48.000                  
  24096245.600   126626627.153                          41.500                  
  24096250.380    98670099.696                          28.750                  
 16 10  2  8 36 39.0000000  0  7G16G18G20G21G26G27G29
  20570851.364   108100552.953                          47.500                  
  20570853.784    84234196.709                          41.250                  
  22582018.830   118669315.130                          46.500                  
  22582022.490    92469596.348                          30.250                  
  22275406.732   117058051.098                          46.500                  
  22275409.772    91214066.466                          31.500                  
  21465163.818   112800199.049                          48.250                  
  21465166.318    87896259.212                          40.750                  
  20802655.002   109318686.142                          48.250                  
  20802660.962    85183391.934                          51.250                  
  21922284.674   115202379.990                          47.000                  
  21922290.054    89768087.844                          48.500                  
  24096864.360   126629879.607                          41.000                  
  24096869.400    98672634.068                          28.500                  
 16 10  2  8 36 40.0000000  0  7G16G18G20G21G26G27G29
  20570721.604   108099872.142                          47.500                  
  20570724.044    84233666.209                          41.250                  
  22581594.830   118667084.874                          46.750                  
  22581598.230    92467858.491                          30.500                  
  22275561.872   117058868.752                          46.500                  
  22275565.352    91214703.597                          32.500                  
  21465389.118   112801382.699                          48.000                  
  21465391.878    87897181.533                          40.750                  
  20802913.142   109320044.945                          48.500                  
  20802919.362    85184450.745                          51.250                  
  21921793.694   115199801.040                          46.750                  
  21921799.134    89766078.274                          48.250                  
  24097483.640   126633133.023                          41.500                  
  24097488.160    98675169.188                          28.000                  
 16 10  2  8 36 41.0000000  0  7G16G18G20G21G26G27G29
  20570592.724   108099192.093                          47.500                  
  20570594.724    84233136.299                          41.000                  
  22581170.330   118664855.131                          46.500                  
  22581173.430    92466121.031                          30.500                  
  22275718.292   117059687.187                          46.500                  
  22275721.432    91215341.337                          32.750                  
  21465614.158   112802566.858                          47.750                  
  21465616.918    87898104.256                          40.750                  
  20803171.702   109321404.446                          48.500                  
  20803177.942    85185510.097                          51.250                  
  21921303.094   115197222.473                          46.750                  
  21921308.074    89764069.005                          48.250                  
  24098102.780   126636386.689                          42.000                  
  24098107.520    98677704.516                          29.500                  
 16 10  2  8 36 42.0000000  0  7G16G18G20G21G26G27G29
  20570463.284   108098511.669                          47.500                  
  20570465.444    84232606.098                          41.250                  
  22580746.150   118662624.794                          47.000                  
  22580749.530    92464383.108                          30.750                  
  22275873.892   117060505.310                          46.500                  
  22275876.912    91215978.835                          33.000                  
  21465839.458   112803750.408                          47.000                  
  21465842.158    87899026.498                          40.500                  
  20803430.602   109322763.566                          49.250                  
  20803436.582    85186569.146                          51.000                  
  21920812.094   115194643.173                          47.000                  
  21920817.654    89762059.158                          47.500                  
  24098721.900   126639639.443                          42.500                  
  24098726.700    98680239.129                          28.250                  
 16 10  2  8 36 43.0000000  0  7G16G18G20G21G26G27G29
  20570333.784   108097832.195                          47.750                  
  20570335.864    84232076.640                          41.500                  
  22580321.910   118660395.188                          46.750                  
  22580324.990    92462645.750                          31.500                  
  22276029.472   117061324.415                          47.000                  
  22276032.732    91216617.099                          32.250                  
  21466064.958   112804934.688                          47.500                  
  21466067.658    87899949.316                          40.500                  
  20803689.082   109324123.633                          49.250                  
  20803695.762    85187628.936                          51.250                  
  21920321.514   115192064.495                          46.750                  
  21920326.934    89760049.795                          47.500                  
  24099340.940   126642892.623                          42.500                  
  24099345.700    98682774.076                          27.750                  
 16 10  2  8 36 44.0000000  0  7G16G18G20G21G26G27G29
  20570204.104   108097153.353                          47.500                  
  20570206.864    84231547.672                          41.500                  
  22579897.830   118658165.994                          46.500                  
  22579900.850    92460908.714                          31.000                  
  22276185.272   117062144.216                          46.750                  
  22276188.692    91217255.905                          32.250                  
  21466290.378   112806119.391                          47.500                  
  21466292.918    87900872.463                          40.750                  
  20803948.042   109325484.300                          49.000                  
  20803954.982    85188689.202                          51.500                  
  21919831.054   115189486.073                          46.500                  
  21919836.314    89758040.631                          48.000                  
  24099959.880   126646145.894                          42.250                  
  24099964.400    98685309.097                          28.750                  
 16 10  2  8 36 45.0000000  0  7G16G18G20G21G26G27G29
  20570075.404   108096475.463                          48.000                  
  20570078.024    84231019.449                          41.250                  
  22579473.490   118655937.520                          46.250                  
  22579477.110    92459172.237                          31.750                  
  22276341.712   117062965.005                          46.500                  
  22276344.872    91217895.479                          32.750                  
  21466515.958   112807304.806                          47.500                  
  21466518.758    87901796.166                          41.000                  
  20804207.162   109326845.899                          49.250                  
  20804213.622    85189750.182                          51.500                  
  21919340.114   115186908.231                          46.500                  
  21919345.814    89756031.919                          48.000                  
  24100579.220   126649399.610                          42.000                  
  24100583.680    98687844.444                          27.500                  
 16 10  2  8 36 46.0000000  0  7G16G18G20G21G26G27G29
  20569946.244   108095798.205                          48.000                  
  20569949.084    84230491.709                          41.000                  
  22579049.430   118653709.482                          46.500                  
  22579052.750    92457436.101                          31.250                  
  22276498.072   117063786.496                          46.250                  
  22276501.692    91218535.601                          33.000                  
  21466741.458   112808490.665                          47.000                  
  21466744.358    87902720.204                          40.250                  
  20804466.362   109328208.133                          49.500                  
  20804472.962    85190811.661                          51.250                  
  21918849.454   115184330.688                          46.750                  
  21918855.394    89754023.440                          48.500                  
  24101197.640   126652653.457                          41.000                  
  24101203.040    98690379.903                          28.500                  
 16 10  2  8 36 47.0000000  0  7G16G18G20G21G26G27G29
  20569817.704   108095121.104                          48.750                  
  20569819.864    84229964.098                          41.250                  
  22578625.790   118651481.347                          47.000                  
  22578629.150    92455699.894                          30.750                  
  22276654.212   117064608.197                          46.750                  
  22276657.912    91219175.884                          32.500                  
  21466967.238   112809676.422                          47.500                  
  21466970.058    87903644.172                          40.250                  
  20804725.802   109329570.493                          49.250                  
  20804731.762    85191873.240                          51.500                  
  21918359.134   115181752.959                          47.250                  
  21918365.314    89752014.822                          48.500                  
  24101816.860   126655906.910                          41.000                  
  24101822.160    98692915.063                          28.250                  
 16 10  2  8 36 48.0000000  0  7G16G18G20G21G26G27G29
  20569688.984   108094444.479                          49.000                  
  20569691.464    84229436.857                          41.250                  
  22578201.730   118649253.480                          46.750                  
  22578205.050    92453963.900                          31.000                  
  22276810.532   117065430.413                          46.750                  
  22276813.812    91219816.574                          32.500                  
  21467192.918   112810862.462                          48.000                  
  21467195.658    87904568.353                          40.000                  
  20804985.322   109330933.291                          48.750                  
  20804991.682    85192935.157                          51.500                  
  21917868.674   115179175.333                          47.000                  
  21917874.234    89750006.284                          48.750                  
  24102436.340   126659160.318                          41.250                  
  24102441.400    98695450.186                          28.250                  
 16 10  2  8 36 49.0000000  0  7G16G18G20G21G26G27G29
  20569560.604   108093769.651                          48.750                  
  20569562.844    84228911.017                          41.000                  
  22577778.250   118647027.190                          47.000                  
  22577781.210    92452229.128                          31.250                  
  22276967.572   117066254.505                          47.000                  
  22276970.972    91220458.723                          33.000                  
  21467418.678   112812050.074                          48.000                  
  21467421.698    87905493.769                          40.250                  
  20805244.602   109332297.911                          49.000                  
  20805251.022    85193998.497                          51.250                  
  21917378.354   115176599.157                          47.500                  
  21917383.834    89747998.886                          48.500                  
  24103055.440   126662415.006                          41.500                  
  24103060.380    98697986.311                          29.000                  
 16 10  2  8 36 50.0000000  0  7G16G18G20G21G26G27G29
  20569432.424   108093094.174                          48.500                  
  20569434.304    84228384.665                          41.000                  
  22577354.290   118644800.024                          47.000                  
  22577357.770    92450493.677                          30.750                  
  22277124.672   117067077.964                          47.000                  
  22277127.712    91221100.384                          33.000                  
  21467644.578   112813236.785                          48.250                  
  21467647.518    87906418.474                          40.500                  
  20805504.122   109333661.819                          49.000                  
  20805510.642    85195061.289                          51.000                  
  21916888.214   115174021.967                          46.250                  
  21916893.394    89745990.692                          48.500                  
  24103674.500   126665668.509                          41.500                  
  24103679.620    98700521.502                          28.000                  
 16 10  2  8 36 51.0000000  0  7G16G18G20G21G26G27G29
  20569303.804   108092420.326                          48.250                  
  20569306.144    84227859.591                          41.500                  
  22576930.810   118642574.275                          46.750                  
  22576934.210    92448759.327                          31.500                  
  22277281.172   117067903.120                          47.000                  
  22277284.652    91221743.358                          32.500                  
  21467870.758   112814424.922                          48.250                  
  21467873.538    87907344.300                          40.250                  
  20805764.142   109335027.358                          48.500                  
  20805770.242    85196125.341                          51.000                  
  21916397.974   115171446.059                          47.000                  
  21916403.154    89743983.493                          48.000                  
  24104294.340   126668923.120                          41.500                  
  24104298.740    98703057.552                          27.500                  
 16 10  2  8 36 52.0000000  0  7G16G18G20G21G26G27G29
  20569175.744   108091746.483                          48.250                  
  20569177.984    84227334.521                          41.000                  
  22576506.530   118640348.289                          47.000                  
  22576510.710    92447024.788                          30.000                  
  22277438.112   117068728.337                          47.000                  
  22277441.512    91222386.380                          32.750                  
  21468096.718   112815612.849                          48.500                  
  21468099.658    87908269.959                          40.000                  
  20806024.082   109336392.908                          48.500                  
  20806030.282    85197189.408                          51.000                  
  21915907.634   115168869.801                          47.500                  
  21915912.954    89741976.014                          47.500                  
  24104913.340   126672177.220                          42.250                  
  24104918.100    98705593.212                          28.000                  
 16 10  2  8 36 53.0000000  0  7G16G18G20G21G26G27G29
  20569047.384   108091073.003                          48.500                  
  20569049.664    84226809.731                          41.000                  
  22576083.510   118638122.466                          47.000                  
  22576087.110    92445290.381                          31.250                  
  22277595.472   117069553.958                          46.750                  
  22277599.012    91223029.730                          32.250                  
  21468323.018   112816800.907                          48.500                  
  21468325.838    87909195.717                          40.250                  
  20806283.742   109337758.768                          49.000                  
  20806290.022    85198253.714                          51.250                  
  21915417.234   115166293.531                          47.000                  
  21915423.114    89739968.528                          47.000                  
  24105533.120   126675431.159                          42.250                  
  24105537.600    98708128.753                          29.250                  
 16 10  2  8 36 54.0000000  0  7G16G18G20G21G26G27G29
  20568919.364   108090400.832                          48.750                  
  20568921.744    84226285.963                          40.500                  
  22575659.630   118635897.729                          47.000                  
  22575663.410    92443556.821                          31.000                  
  22277752.432   117070380.943                          47.000                  
  22277756.452    91223674.131                          32.750                  
  21468549.118   112817990.067                          48.500                  
  21468552.038    87910122.335                          40.500                  
  20806544.222   109339125.931                          49.250                  
  20806550.522    85199319.036                          51.000                  
  21914926.974   115163718.227                          47.250                  
  21914932.634    89737961.790                          47.250                  
  24106151.940   126678685.873                          42.000                  
  24106156.720    98710664.894                          29.500                  
