     2.10           OBSERVATION DATA    M (MIXED)           RINEX VERSION / TYPE
RTKCONV-QT 2.4.3 b15                    20161002 104306 UTC PGM / RUN BY / DATE 
log: /home/max/rtklib_logs/base_201610020757_outer.rtcm3    COMMENT             
format: RTCM 3, station ID: 643                             COMMENT             
                                                            MARKER NAME         
                                                            MARKER NUMBER       
                                                            OBSERVER / AGENCY   
                    TRIMBLE NETR5                           REC # / TYPE / VERS 
                    ADVNULLANTENNA                          ANT # / TYPE        
  3902539.4579   520420.3505  5001277.0341                  APPROX POSITION XYZ 
        0.0000        0.0000        0.0000                  ANTENNA: DELTA H/E/N
     1     1                                                WAVELENGTH FACT L1/2
    10    C1    L1    D1    S1    P1    P2    L2    D2    S2# / TYPES OF OBSERV 
          C2                                                # / TYPES OF OBSERV 
  2016    10     2     7    57   25.0000000     GPS         TIME OF FIRST OBS   
  2016    10     2     8     9   16.0000000     GPS         TIME OF LAST OBS    
                                                            END OF HEADER       
 16 10  2  7 57 25.0000000  0  8G 5G16G20G21G26G27G29G31
  24423864.958   128348277.1361                         41.250                  
  24423869.898   100011643.8291                         39.250                  
  21178433.080   111293417.4721                         48.000                  
  21178435.420    86722143.2631                         38.250                  
  22265691.352   117006998.0581                         47.750                  
  22265693.872    91174283.5741                         33.500                  
  21160133.780   111197253.1421                         47.000                  
  21160136.340    86647210.6751                         40.500                  
  20515888.004   107811719.2721                         49.250                  
  20515894.124    84009131.5651                         51.750                  
  23197730.626   121904896.8541                         42.250                  
  23197736.406    94990828.6791                         44.000                  
  22701047.810   119294811.3361                         45.500                  
  22701052.570    92956995.5991                         34.500                  
  23986030.660   126047442.0031                         43.250                  
  23986034.140    98218785.4951                         40.750                  
 16 10  2  7 57 26.0000000  0  8G 5G16G20G21G26G27G29G31
  24424272.438   128350416.335                          41.500                  
  24424277.218   100013310.733                          39.500                  
  21178057.260   111291442.522                          48.000                  
  21178059.920    86720604.341                          38.250                  
  22265544.612   117006229.622                          47.500                  
  22265548.032    91173684.789                          34.500                  
  21160160.960   111197395.585                          47.000                  
  21160163.800    86647321.671                          40.500                  
  20515872.564   107811638.599                          49.500                  
  20515878.764    84009068.705                          51.750                  
  23197145.026   121901817.390                          42.500                  
  23197150.266    94988429.094                          43.750                  
  22701608.890   119297757.585                          45.500                  
  22701613.450    92959291.375                          34.500                  
  23986687.160   126050887.643                          43.000                  
  23986690.220    98221470.403                          40.500                  
 16 10  2  7 57 27.0000000  0  8G 5G16G20G21G26G27G29G31
  24424679.798   128352556.582                          41.500                  
  24424684.018   100014978.458                          39.500                  
  21177681.660   111289468.575                          48.000                  
  21177683.860    86719066.197                          38.250                  
  22265399.052   117005462.360                          47.500                  
  22265401.772    91173086.923                          34.750                  
  21160188.040   111197539.029                          47.000                  
  21160190.780    86647433.442                          40.500                  
  20515857.584   107811559.028                          50.000                  
  20515864.264    84009006.697                          52.000                  
  23196559.106   121898738.583                          42.500                  
  23196565.026    94986030.018                          43.750                  
  22702169.310   119300704.522                          46.000                  
  22702173.890    92961587.690                          34.250                  
  23987343.060   126054333.968                          43.750                  
  23987345.800    98224155.850                          39.750                  
 16 10  2  7 57 28.0000000  0  8G 5G16G20G21G26G27G29G31
  24425087.078   128354698.009                          42.000                  
  24425091.558   100016647.101                          39.750                  
  21177305.960   111287495.709                          48.250                  
  21177308.420    86717528.901                          38.500                  
  22265253.272   117004696.371                          47.750                  
  22265256.132    91172490.046                          34.250                  
  21160215.100   111197683.553                          46.250                  
  21160218.360    86647546.060                          40.500                  
  20515842.544   107811480.686                          49.500                  
  20515849.164    84008945.653                          52.000                  
  23195973.586   121895660.622                          42.750                  
  23195979.206    94983631.601                          44.000                  
  22702730.030   119303652.232                          46.000                  
  22702735.010    92963884.600                          34.500                  
  23987998.520   126057781.030                          44.000                  
  23988001.460    98226841.874                          39.750                  
 16 10  2  7 57 29.0000000  0  8G 5G16G20G21G26G27G29G31
  24425494.798   128356839.893                          42.750                  
  24425499.118   100018316.095                          39.000                  
  21176930.520   111285523.260                          48.250                  
  21176933.020    86715991.928                          38.500                  
  22265107.532   117003930.972                          48.000                  
  22265110.252    91171893.633                          33.750                  
  21160242.960   111197828.526                          46.000                  
  21160245.640    86647659.024                          40.500                  
  20515827.564   107811402.932                          49.250                  
  20515834.104    84008885.068                          52.000                  
  23195387.426   121892582.756                          42.500                  
  23195393.246    94981233.265                          44.000                  
  22703291.810   119306600.092                          45.750                  
  22703296.110    92966181.636                          34.000                  
  23988654.400   126061228.173                          44.000                  
  23988657.500    98229527.963                          39.750                  
 16 10  2  7 57 30.0000000  0  8G 5G16G20G21G26G27G29G31
  24425902.518   128358982.158                          42.000                  
  24425906.878   100019985.387                          38.750                  
  21176555.540   111283551.148                          48.250                  
  21176557.920    86714455.217                          38.750                  
  22264961.892   117003166.099                          48.000                  
  22264964.912    91171297.630                          34.000                  
  21160270.220   111197973.865                          46.500                  
  21160273.560    86647772.273                          40.000                  
  20515812.504   107811325.607                          49.500                  
  20515819.364    84008824.810                          52.000                  
  23194802.686   121889504.897                          42.250                  
  23194807.806    94978834.942                          44.000                  
  22703852.590   119309547.959                          45.750                  
  22703856.870    92968478.665                          34.250                  
  23989309.940   126064675.337                          44.000                  
  23989313.400    98232214.067                          39.750                  
 16 10  2  7 57 31.0000000  0  8G 5G16G20G21G26G27G29G31
  24426310.558   128361123.879                          41.750                  
  24426314.638   100021654.254                          38.750                  
  21176180.440   111281578.437                          48.250                  
  21176182.760    86712918.035                          38.000                  
  22264816.532   117002400.774                          47.750                  
  22264819.192    91170701.271                          34.000                  
  21160297.700   111198118.573                          47.000                  
  21160301.020    86647885.036                          40.250                  
  20515798.164   107811247.798                          49.000                  
  20515804.464    84008764.182                          51.750                  
  23194216.686   121886426.146                          42.500                  
  23194222.346    94976435.923                          43.750                  
  22704413.410   119312494.930                          46.000                  
  22704418.130    92970775.010                          34.000                  
  23989966.860   126068121.537                          44.250                  
  23989969.500    98234899.422                          39.000                  
 16 10  2  7 57 32.0000000  0  8G 5G16G20G21G26G27G29G31
  24426717.938   128363267.561                          42.250                  
  24426722.398   100023324.659                          39.000                  
  21175804.820   111279607.628                          48.500                  
  21175807.600    86711382.346                          38.250                  
  22264671.372   117001637.554                          47.750                  
  22264674.172    91170106.554                          34.250                  
  21160326.020   111198265.223                          47.000                  
  21160329.100    86647999.311                          40.500                  
  20515783.364   107811172.065                          48.750                  
  20515790.164    84008705.170                          51.750                  
  23193630.586   121883349.007                          42.750                  
  23193636.266    94974038.150                          43.750                  
  22704974.830   119315443.502                          45.750                  
  22704978.810    92973072.598                          34.250                  
  23990621.380   126071569.329                          43.750                  
  23990625.240    98237586.021                          39.000                  
 16 10  2  7 57 33.0000000  0  8G 5G16G20G21G26G27G29G31
  24427125.698   128365410.790                          42.250                  
  24427130.438   100024994.714                          39.000                  
  21175429.720   111277636.301                          48.000                  
  21175432.200    86709846.245                          38.250                  
  22264525.672   117000873.997                          47.500                  
  22264528.872    91169511.573                          34.250                  
  21160354.140   111198411.362                          46.500                  
  21160356.880    86648113.186                          40.500                  
  20515768.964   107811095.922                          49.000                  
  20515775.924    84008645.833                          52.000                  
  23193045.546   121880271.051                          43.000                  
  23193050.806    94971639.737                          44.000                  
  22705535.450   119318391.261                          45.500                  
  22705539.890    92975369.554                          34.000                  
  23991277.620   126075016.251                          44.500                  
  23991281.300    98240271.936                          39.000                  
 16 10  2  7 57 34.0000000  0  8G 5G16G20G21G26G27G29G31
  24427533.538   128367555.160                          41.750                  
  24427538.478   100026665.664                          39.000                  
  21175054.980   111275666.062                          47.750                  
  21175057.820    86708310.994                          38.000                  
  22264380.552   117000111.712                          47.000                  
  22264383.192    91168917.587                          34.500                  
  21160382.120   111198558.580                          46.250                  
  21160384.740    86648227.903                          40.250                  
  20515755.144   107811020.991                          49.000                  
  20515761.324    84008587.449                          52.250                  
  23192459.346   121877193.868                          42.750                  
  23192465.206    94969241.930                          44.000                  
  22706096.830   119321339.814                          45.500                  
  22706100.810    92977667.124                          34.250                  
  23991933.720   126078463.956                          44.500                  
  23991937.200    98242958.460                          39.000                  
 16 10  2  7 57 35.0000000  0  8G 5G16G20G21G26G27G29G31
  24427941.158   128369699.093                          41.750                  
  24427946.238   100028336.264                          39.000                  
  21174680.020   111273695.353                          47.500                  
  21174682.320    86706775.374                          38.500                  
  22264236.092   116999349.117                          47.250                  
  22264238.632    91168323.361                          34.000                  
  21160410.000   111198705.342                          46.500                  
  21160412.840    86648342.263                          40.500                  
  20515741.024   107810945.741                          49.250                  
  20515747.084    84008528.811                          52.250                  
  23191874.206   121874115.865                          42.500                  
  23191879.466    94966843.482                          44.000                  
  22706657.510   119324287.577                          45.250                  
  22706661.930    92979964.083                          34.000                  
  23992590.000   126081910.808                          44.750                  
  23992593.280    98245644.329                          39.250                  
 16 10  2  7 57 36.0000000  0  8G 5G16G20G21G26G27G29G31
  24428349.898   128371844.929                          41.000                  
  24428354.618   100030008.340                          39.250                  
  21174305.380   111271726.472                          47.500                  
  21174307.520    86705241.184                          38.000                  
  22264091.012   116998588.564                          47.000                  
  22264093.212    91167730.720                          34.500                  
  21160438.400   111198853.970                          46.000                  
  21160441.020    86648458.069                          40.250                  
  20515726.884   107810872.452                          49.000                  
  20515733.084    84008471.701                          52.250                  
  23191287.926   121871039.488                          42.750                  
  23191294.066    94964446.297                          44.500                  
  22707218.430   119327236.910                          44.500                  
  22707223.210    92982262.265                          34.500                  
  23993245.720   126085359.183                          45.000                  
  23993249.580    98248331.374                          40.000                  
 16 10  2  7 57 37.0000000  0  8G 5G16G20G21G26G27G29G31
  24428757.958   128373989.972                          41.750                  
  24428762.778   100031679.795                          39.250                  
  21173930.580   111269756.719                          47.500                  
  21173932.880    86703706.318                          38.250                  
  22263945.992   116997827.282                          47.250                  
  22263948.512    91167137.516                          34.000                  
  21160466.520   111199001.705                          46.000                  
  21160469.320    86648573.191                          40.500                  
  20515712.804   107810798.403                          48.750                  
  20515719.224    84008414.002                          52.250                  
  23190703.306   121867961.856                          43.000                  
  23190708.446    94962048.140                          44.250                  
  22707779.690   119330185.014                          45.000                  
  22707784.290    92984559.493                          34.500                  
  23993901.740   126088806.334                          44.750                  
  23993905.520    98251017.470                          40.250                  
 16 10  2  7 57 38.0000000  0  8G 5G16G20G21G26G27G29G31
  24429167.518   128376136.759                          41.500                  
  24429171.858   100033352.608                          39.500                  
  21173556.060   111267788.680                          48.000                  
  21173558.240    86702172.774                          37.750                  
  22263801.572   116997067.909                          47.500                  
  22263804.572    91166545.794                          34.000                  
  21160495.060   111199151.182                          46.250                  
  21160497.620    86648689.665                          40.500                  
  20515699.184   107810726.223                          49.000                  
  20515705.584    84008357.762                          52.250                  
  23190116.666   121864885.663                          43.000                  
  23190122.826    94959651.107                          44.250                  
  22708340.970   119333134.568                          45.000                  
  22708344.650    92986857.845                          34.000                  
  23994558.320   126092254.880                          44.500                  
  23994561.700    98253704.649                          40.000                  
 16 10  2  7 57 39.0000000  0  8G 5G16G20G21G26G27G29G31
  24429575.658   128378284.198                          42.000                  
  24429580.338   100035025.931                          38.750                  
  21173181.560   111265821.265                          48.000                  
  21173184.000    86700639.724                          38.250                  
  22263657.112   116996309.321                          47.000                  
  22263659.892    91165954.688                          34.000                  
  21160523.360   111199301.263                          46.250                  
  21160526.160    86648806.613                          40.250                  
  20515684.984   107810654.760                          49.250                  
  20515691.604    84008302.076                          52.000                  
  23189531.586   121861809.757                          42.750                  
  23189537.726    94957254.301                          44.500                  
  22708902.030   119336084.427                          44.500                  
  22708906.690    92989156.436                          34.250                  
  23995214.920   126095703.691                          44.250                  
  23995217.960    98256392.028                          40.000                  
 16 10  2  7 57 40.0000000  0  8G 5G16G20G21G26G27G29G31
  24429983.938   128380430.953                          41.750                  
  24429988.558   100036698.729                          38.750                  
  21172807.080   111263853.055                          48.000                  
  21172809.180    86699106.051                          38.000                  
  22263512.952   116995550.149                          46.500                  
  22263515.372    91165363.122                          34.000                  
  21160552.420   111199450.609                          45.500                  
  21160554.440    86648922.980                          40.500                  
  20515671.784   107810582.697                          49.500                  
  20515678.004    84008245.928                          51.750                  
  23188946.146   121858732.789                          42.250                  
  23188952.166    94954856.661                          44.500                  
  22709463.310   119339033.235                          44.500                  
  22709467.890    92991454.205                          34.000                  
  23995870.180   126099151.404                          44.250                  
  23995873.840    98259078.562                          40.250                  
 16 10  2  7 57 41.0000000  0  8G 5G16G20G21G26G27G29G31
  24430392.738   128382579.272                          42.000                  
  24430397.638   100038372.748                          38.250                  
  21172432.580   111261886.405                          48.000                  
  21172435.420    86697573.599                          37.750                  
  22263368.472   116994792.694                          46.250                  
  22263371.152    91164772.897                          34.000                  
  21160580.760   111199601.460                          45.500                  
  21160583.360    86649040.533                          40.500                  
  20515657.784   107810512.264                          49.250                  
  20515664.504    84008191.037                          52.000                  
  23188360.586   121855657.022                          42.000                  
  23188366.846    94952459.970                          44.250                  
  22710024.790   119341983.225                          44.750                  
  22710029.070    92993752.899                          34.000                  
  23996526.380   126102600.289                          44.000                  
  23996530.560    98261766.001                          40.000                  
 16 10  2  7 57 42.0000000  0  8G 5G16G20G21G26G27G29G31
  24430800.938   128384726.924                          41.000                  
  24430806.598   100040046.249                          38.500                  
  21172058.420   111259919.009                          48.000                  
  21172060.920    86696040.563                          37.500                  
  22263224.732   116994034.687                          46.500                  
  22263227.432    91164182.244                          34.250                  
  21160609.340   111199751.633                          45.750                  
  21160612.000    86649157.544                          40.250                  
  20515644.364   107810441.242                          49.750                  
  20515651.484    84008135.699                          52.000                  
  23187775.826   121852580.238                          42.250                  
  23187781.426    94950062.482                          44.000                  
  22710585.810   119344932.217                          45.000                  
  22710589.870    92996050.814                          34.250                  
  23997182.460   126106048.110                          44.000                  
  23997186.580    98264452.623                          40.500                  
 16 10  2  7 57 43.0000000  0  8G 5G16G20G21G26G27G29G31
  24431209.898   128386876.091                          41.000                  
  24431215.078   100041720.929                          38.000                  
  21171684.160   111257953.050                          47.750                  
  21171686.620    86694508.645                          37.750                  
  22263080.112   116993278.277                          46.250                  
  22263083.292    91163592.836                          34.500                  
  21160638.200   111199903.228                          46.000                  
  21160640.820    86649275.674                          40.250                  
  20515631.284   107810371.789                          49.500                  
  20515637.864    84008081.576                          52.000                  
  23187190.726   121849504.605                          42.000                  
  23187196.006    94947665.883                          44.250                  
  22711146.970   119347882.355                          44.500                  
  22711152.030    92998349.619                          33.500                  
  23997839.240   126109497.061                          44.000                  
  23997843.000    98267140.115                          40.500                  
 16 10  2  7 57 44.0000000  0  8G 5G16G20G21G26G27G29G31
  24431619.398   128389026.134                          41.250                  
  24431624.598   100043396.279                          38.250                  
  21171310.640   111255987.951                          48.000                  
  21171312.340    86692977.401                          38.000                  
  22262936.692   116992522.926                          46.750                  
  22262939.392    91163004.257                          34.250                  
  21160667.000   111200055.681                          46.250                  
  21160669.540    86649394.472                          40.500                  
  20515618.444   107810303.308                          49.500                  
  20515624.404    84008028.212                          51.750                  
  23186604.986   121846429.503                          42.000                  
  23186611.086    94945269.696                          44.000                  
  22711708.890   119350833.034                          44.750                  
  22711713.150    93000648.847                          34.250                  
  23998495.260   126112946.508                          43.250                  
  23998499.640    98269827.989                          40.500                  
 16 10  2  7 57 45.0000000  0  8G 5G16G20G21G26G27G29G31
  24432028.438   128391175.215                          41.250                  
  24432033.118   100045070.887                          38.500                  
  21170936.340   111254021.814                          47.750                  
  21170938.800    86691445.348                          37.500                  
  22262792.752   116991766.692                          47.500                  
  22262795.572    91162414.980                          34.250                  
  21160695.540   111200207.113                          46.250                  
  21160698.620    86649512.466                          40.250                  
  20515605.164   107810233.921                          49.250                  
  20515611.564    84007974.152                          52.000                  
  23186019.926   121843353.061                          42.000                  
  23186025.706    94942872.458                          44.000                  
  22712270.030   119353782.362                          44.500                  
  22712274.590    93002947.023                          33.750                  
  23999151.920   126116394.563                          43.500                  
  23999156.000    98272514.783                          40.750                  
 16 10  2  7 57 46.0000000  0  8G 5G16G20G21G26G27G29G31
  24432438.038   128393325.517                          41.000                  
  24432442.318   100046746.440                          38.500                  
  21170562.300   111252056.840                          47.500                  
  21170564.880    86689914.198                          37.500                  
  22262649.132   116991011.832                          47.000                  
  22262651.952    91161826.777                          34.000                  
  21160724.580   111200359.733                          46.500                  
  21160727.660    86649631.392                          40.000                  
  20515592.404   107810165.857                          50.000                  
  20515598.924    84007921.107                          52.000                  
  23185434.606   121840277.499                          42.000                  
  23185440.206    94940475.918                          44.000                  
  22712831.550   119356732.575                          44.750                  
  22712836.010    93005245.882                          33.250                  
  23999807.960   126119843.482                          43.000                  
  23999811.840    98275202.243                          40.500                  
 16 10  2  7 57 47.0000000  0  8G 5G16G20G21G26G27G29G31
  24432847.418   128395477.063                          41.250                  
  24432851.998   100048422.963                          38.250                  
  21170188.520   111250093.083                          46.500                  
  21170191.120    86688383.998                          37.750                  
  22262505.752   116990258.342                          47.250                  
  22262508.612    91161239.642                          34.000                  
  21160754.080   111200513.579                          46.250                  
  21160757.080    86649751.271                          40.250                  
  20515579.524   107810099.126                          49.500                  
  20515585.824    84007869.111                          51.500                  
  23184849.086   121837202.798                          42.000                  
  23184854.946    94938080.047                          43.750                  
  22713392.950   119359683.704                          44.750                  
  22713397.390    93007545.465                          33.500                  
  24000465.100   126123293.274                          43.000                  
  24000468.760    98277890.388                          41.250                  
 16 10  2  7 57 48.0000000  0  8G 5G16G20G21G26G27G29G31
  24433255.938   128397628.669                          41.000                  
  24433261.178   100050099.533                          38.000                  
  21169814.620   111248129.308                          47.000                  
  21169817.040    86686853.785                          37.500                  
  22262362.552   116989505.014                          47.750                  
  22262364.992    91160652.637                          33.500                  
  21160782.920   111200667.381                          46.250                  
  21160785.980    86649871.114                          40.000                  
  20515567.104   107810032.485                          49.750                  
  20515573.664    84007817.183                          51.000                  
  23184264.546   121834127.791                          42.000                  
  23184269.826    94935683.936                          43.500                  
  22713954.550   119362634.477                          44.500                  
  22713959.090    93009844.766                          34.000                  
  24001121.060   126126742.671                          43.000                  
  24001124.700    98280578.220                          41.500                  
 16 10  2  7 57 49.0000000  0  8G 5G16G20G21G26G27G29G31
  24433666.158   128399780.645                          41.250                  
  24433670.618   100051776.393                          37.500                  
  21169441.240   111246165.846                          47.250                  
  21169444.040    86685323.810                          38.000                  
  22262218.972   116988752.201                          48.000                  
  22262222.032    91160066.028                          33.000                  
  21160813.120   111200821.537                          46.500                  
  21160815.260    86649991.240                          39.750                  
  20515554.364   107809966.332                          49.500                  
  20515560.464    84007765.635                          51.250                  
  23183679.166   121831052.851                          42.250                  
  23183684.666    94933287.881                          44.000                  
  22714515.950   119365585.287                          45.000                  
  22714520.590    93012144.097                          34.000                  
  24001777.580   126130192.087                          43.750                  
  24001781.400    98283266.066                          41.500                  
 16 10  2  7 57 50.0000000  0  8G 5G16G20G21G26G27G29G31
  24434075.838   128401933.421                          40.750                  
  24434080.718   100053453.876                          37.500                  
  21169067.940   111244203.137                          47.750                  
  21169070.180    86683794.423                          38.000                  
  22262075.732   116988000.298                          48.250                  
  22262078.592    91159480.131                          33.250                  
  21160842.140   111200976.458                          46.500                  
  21160845.060    86650111.952                          40.000                  
  20515541.944   107809901.051                          50.000                  
  20515548.304    84007714.769                          51.250                  
  23183093.866   121827978.298                          42.750                  
  23183099.506    94930892.123                          44.500                  
  22715077.370   119368536.552                          45.000                  
  22715081.770    93014443.788                          33.500                  
  24002434.500   126133641.897                          43.750                  
  24002437.740    98285954.223                          41.250                  
 16 10  2  7 57 51.0000000  0  8G 5G16G20G21G26G27G29G31
  24434485.838   128404086.629                          41.750                  
  24434490.178   100055131.701                          37.500                  
  21168694.200   111242240.791                          47.750                  
  21168696.800    86682265.320                          38.250                  
  22261933.432   116987248.941                          48.500                  
  22261935.932    91158894.660                          33.500                  
  21160871.760   111201131.731                          46.500                  
  21160874.420    86650232.948                          40.250                  
  20515529.404   107809836.254                          50.000                  
  20515535.644    84007664.277                          51.250                  
  23182509.046   121824903.827                          42.500                  
  23182514.806    94928496.431                          44.250                  
  22715639.350   119371487.885                          45.000                  
  22715643.450    93016743.526                          34.250                  
  24003091.520   126137091.741                          44.250                  
  24003094.220    98288642.399                          41.750                  
 16 10  2  7 57 52.0000000  0  8G 5G16G20G21G26G27G29G31
  24434895.618   128406240.345                          41.750                  
  24434899.958   100056809.921                          37.000                  
  21168320.820   111240278.934                          47.750                  
  21168323.420    86680736.605                          38.000                  
  22261790.392   116986498.230                          48.250                  
  22261793.212    91158309.687                          34.000                  
  21160901.440   111201287.491                          46.500                  
  21160903.920    86650354.317                          40.500                  
  20515517.004   107809772.050                          50.250                  
  20515523.564    84007614.249                          51.250                  
  23181924.106   121821829.481                          42.750                  
  23181929.906    94926100.837                          44.500                  
  22716201.290   119374439.354                          45.000                  
  22716205.350    93019043.368                          34.000                  
  24003747.300   126140541.688                          44.500                  
  24003751.080    98291330.663                          41.250                  
 16 10  2  7 57 53.0000000  0  8G 5G16G20G21G26G27G29G31
  24435305.318   128408394.106                          42.000                  
  24435309.698   100058488.181                          37.500                  
  21167947.520   111238317.017                          47.750                  
  21167950.240    86679207.838                          38.250                  
  22261647.632   116985747.672                          48.000                  
  22261650.352    91157724.840                          34.500                  
  21160931.340   111201443.258                          46.500                  
  21160934.160    86650475.696                          40.500                  
  20515504.844   107809707.984                          50.500                  
  20515511.324    84007564.329                          51.500                  
  23181338.746   121818754.852                          42.250                  
  23181344.506    94923705.028                          44.750                  
  22716762.690   119377390.540                          45.500                  
  22716766.770    93021342.989                          34.000                  
  24004403.320   126143991.285                          44.750                  
  24004407.380    98294018.665                          40.750                  
 16 10  2  7 57 54.0000000  0  8G 5G16G20G21G26G27G29G31
  24435715.758   128410548.689                          41.750                  
  24435719.638   100060167.087                          37.750                  
  21167574.660   111236355.916                          48.000                  
  21167577.020    86677679.712                          37.750                  
  22261504.472   116984998.114                          47.750                  
  22261507.752    91157140.763                          33.500                  
  21160961.000   111201599.792                          47.000                  
  21160963.520    86650597.671                          41.000                  
  20515493.064   107809644.826                          51.000                  
  20515499.844    84007515.113                          51.000                  
  23180753.406   121815680.703                          42.000                  
  23180759.506    94921309.596                          44.500                  
  22717324.310   119380342.186                          45.750                  
  22717328.230    93023642.971                          34.500                  
  24005059.900   126147441.342                          44.750                  
  24005063.700    98296707.029                          40.500                  
 16 10  2  7 57 55.0000000  0  8G 5G16G20G21G26G27G29G31
  24436125.938   128412704.359                          41.250                  
  24436129.998   100061846.830                          38.000                  
  21167201.280   111234395.830                          48.000                  
  21167204.180    86676152.370                          38.250                  
  22261362.432   116984249.724                          47.500                  
  22261365.192    91156557.606                          34.500                  
  21160990.340   111201757.349                          46.750                  
  21160993.460    86650720.434                          40.250                  
  20515481.224   107809582.801                          50.250                  
  20515487.844    84007466.784                          51.250                  
  23180168.886   121812607.267                          42.250                  
  23180174.686    94918914.721                          44.750                  
  22717886.270   119383294.554                          46.000                  
  22717890.290    93025943.520                          33.750                  
  24005716.280   126150892.050                          44.500                  
  24005720.300    98299395.901                          41.000                  
 16 10  2  7 57 56.0000000  0  8G 5G16G20G21G26G27G29G31
  24436535.518   128414859.773                          41.500                  
  24436540.058   100063526.367                          38.000                  
  21166828.280   111232435.431                          48.250                  
  21166830.680    86674624.786                          37.750                  
  22261219.992   116983501.223                          47.500                  
  22261222.932    91155974.358                          33.750                  
  21161020.660   111201914.645                          46.750                  
  21161023.540    86650843.002                          40.000                  
  20515469.684   107809520.605                          50.500                  
  20515476.224    84007418.317                          51.750                  
  23179584.226   121809533.195                          42.500                  
  23179589.666    94916519.344                          44.500                  
  22718447.430   119386246.305                          46.250                  
  22718451.990    93028243.585                          33.250                  
  24006372.000   126154342.139                          44.000                  
  24006377.000    98302084.288                          41.000                  
 16 10  2  7 57 57.0000000  0  8G 5G16G20G21G26G27G29G31
  24436945.938   128417016.689                          42.000                  
  24436950.818   100065207.080                          38.500                  
  21166455.920   111230476.522                          48.000                  
  21166458.200    86673098.357                          38.000                  
  22261077.672   116982754.388                          47.500                  
  22261080.692    91155392.411                          33.500                  
  21161050.720   111202073.415                          46.750                  
  21161053.600    86650966.719                          40.000                  
  20515457.804   107809460.022                          50.500                  
  20515464.184    84007371.104                          51.500                  
  23178999.986   121806460.329                          42.750                  
  23179004.966    94914124.909                          44.750                  
  22719009.290   119389199.267                          46.000                  
  22719013.930    93030544.593                          33.250                  
  24007028.820   126157793.378                          43.750                  
  24007033.900    98304773.569                          41.250                  
 16 10  2  7 57 58.0000000  0  8G 5G16G20G21G26G27G29G31
  24437356.878   128419173.324                          42.250                  
  24437360.778   100066887.571                          38.250                  
  21166082.800   111228517.232                          48.250                  
  21166085.620    86671571.640                          37.500                  
  22260935.672   116982007.345                          47.000                  
  22260938.512    91154810.298                          34.000                  
  21161081.100   111202231.792                          46.750                  
  21161083.520    86651090.132                          40.500                  
  20515446.284   107809399.195                          50.500                  
  20515452.604    84007323.712                          51.500                  
  23178414.686   121803386.798                          43.000                  
  23178420.166    94911729.944                          44.750                  
  22719571.330   119392151.507                          45.750                  
  22719575.910    93032845.035                          33.750                  
  24007685.900   126161243.887                          43.750                  
  24007690.300    98307462.271                          41.000                  
 16 10  2  7 57 59.0000000  0  8G 5G16G20G21G26G27G29G31
  24437767.578   128421330.631                          42.500                  
  24437771.718   100068568.588                          38.250                  
  21165710.020   111226558.573                          48.000                  
  21165712.620    86670045.414                          37.500                  
  22260793.792   116981261.119                          47.000                  
  22260796.752    91154228.821                          34.500                  
  21161111.240   111202390.825                          46.500                  
  21161114.160    86651214.049                          40.500                  
  20515434.704   107809339.140                          51.000                  
  20515441.184    84007276.917                          52.000                  
  23177829.786   121800313.571                          43.250                  
  23177835.446    94909335.210                          45.000                  
  22720133.230   119395104.096                          46.000                  
  22720137.530    93035145.758                          33.750                  
  24008342.980   126164694.711                          43.750                  
  24008346.880    98310151.209                          40.500                  
 16 10  2  7 58  0.0000000  0  8G 5G16G20G21G26G27G29G31
  24438176.778   128423488.141                          42.250                  
  24438181.818   100070249.752                          38.500                  
  21165337.240   111224600.066                          48.000                  
  21165339.920    86668519.304                          37.500                  
  22260651.992   116980515.233                          47.500                  
  22260654.732    91153647.613                          34.500                  
  21161141.660   111202550.029                          46.750                  
  21161144.160    86651338.106                          40.500                  
  20515423.424   107809279.364                          50.750                  
  20515430.004    84007230.338                          52.000                  
  23177244.846   121797240.188                          43.000                  
  23177250.546    94906940.353                          45.000                  
  22720695.270   119398056.558                          45.500                  
  22720699.590    93037446.376                          34.000                  
  24008999.760   126168145.362                          44.250                  
  24009003.640    98312840.009                          40.500                  
 16 10  2  7 58  1.0000000  0  8G 5G16G20G21G26G27G29G31
  24438588.698   128425646.314                          42.000                  
  24438592.598   100071931.449                          37.500                  
  21164964.940   111222642.181                          48.000                  
  21164967.340    86666993.674                          37.500                  
  22260510.212   116979770.127                          47.750                  
  22260512.792    91153067.013                          33.500                  
  21161172.080   111202709.842                          47.250                  
  21161174.520    86651462.641                          40.000                  
  20515412.364   107809220.327                          50.750                  
  20515418.664    84007184.332                          51.750                  
  23176660.206   121794167.148                          42.500                  
  23176666.006    94904545.768                          44.750                  
  22721257.170   119401009.321                          45.250                  
  22721261.770    93039747.230                          34.000                  
  24009656.840   126171596.257                          44.000                  
  24009660.240    98315529.012                          40.750                  
 16 10  2  7 58  2.0000000  0  8G 5G16G20G21G26G27G29G31
  24438998.538   128427805.192                          42.250                  
  24439003.538   100073613.690                          38.000                  
  21164592.040   111220684.935                          48.000                  
  21164594.840    86665468.551                          37.500                  
  22260368.212   116979025.851                          48.000                  
  22260371.372    91152487.062                          34.000                  
  21161202.780   111202870.331                          47.000                  
  21161205.460    86651587.695                          40.000                  
  20515401.124   107809162.096                          50.500                  
  20515407.724    84007138.958                          51.750                  
  23176075.406   121791094.395                          42.000                  
  23176080.766    94902151.419                          44.750                  
  22721819.270   119403962.404                          45.000                  
  22721823.790    93042048.334                          34.000                  
  24010313.360   126175047.451                          44.500                  
  24010316.900    98318218.255                          39.750                  
 16 10  2  7 58  3.0000000  0  8G 5G16G20G21G26G27G29G31
  24439409.498   128429964.980                          42.000                  
  24439414.258   100075296.644                          38.000                  
  21164220.240   111218728.554                          47.500                  
  21164222.460    86663944.103                          38.000                  
  22260226.812   116978282.620                          48.500                  
  22260229.692    91151907.919                          34.000                  
  21161233.560   111203031.668                          47.000                  
  21161235.860    86651713.408                          40.500                  
  20515390.564   107809104.818                          50.000                  
  20515396.584    84007094.326                          51.750                  
  23175490.706   121788022.214                          42.250                  
  23175496.426    94899757.516                          44.500                  
  22722380.550   119406916.057                          45.250                  
  22722385.530    93044349.881                          32.750                  
  24010970.120   126178499.169                          45.000                  
  24010973.740    98320907.909                          39.750                  
 16 10  2  7 58  4.0000000  0  8G 5G16G20G21G26G27G29G31
  24439820.858   128432125.131                          41.250                  
  24439825.478   100076979.878                          38.000                  
  21163848.020   111216772.506                          47.250                  
  21163850.180    86662419.907                          38.250                  
  22260085.052   116977539.916                          48.000                  
  22260088.212    91151329.188                          34.000                  
  21161264.340   111203193.366                          47.000                  
  21161266.940    86651839.404                          40.750                  
  20515379.484   107809048.040                          50.000                  
  20515385.784    84007050.079                          51.750                  
  23174905.326   121784950.076                          42.250                  
  23174911.566    94897363.659                          44.500                  
  22722942.610   119409869.744                          45.500                  
  22722947.630    93046651.454                          33.750                  
  24011626.960   126181950.884                          45.250                  
  24011630.940    98323597.559                          39.750                  
 16 10  2  7 58  5.0000000  0  8G 5G16G20G21G26G27G29G31
  24440232.318   128434285.458                          41.500                  
  24440236.558   100078663.252                          38.250                  
  21163475.600   111214816.532                          47.500                  
  21163478.180    86660895.772                          38.250                  
  22259944.352   116976797.437                          48.000                  
  22259947.492    91150750.631                          34.000                  
  21161295.040   111203355.137                          47.250                  
  21161297.660    86651965.464                          40.750                  
  20515368.604   107808991.454                          50.750                  
  20515375.124    84007005.990                          52.000                  
  23174321.106   121781877.680                          42.250                  
  23174326.946    94894969.594                          44.250                  
  22723504.890   119412823.198                          45.500                  
  22723509.530    93048952.848                          33.500                  
  24012283.620   126185402.307                          45.000                  
  24012287.360    98326286.986                          40.000                  
 16 10  2  7 58  6.0000000  0  8G 5G16G20G21G26G27G29G31
  24440643.238   128436445.958                          41.500                  
  24440647.598   100080346.763                          38.750                  
  21163103.520   111212860.724                          47.750                  
  21163105.960    86659371.765                          38.000                  
  22259803.412   116976055.334                          48.000                  
  22259805.652    91150172.369                          34.000                  
  21161326.200   111203517.110                          47.250                  
  21161328.580    86652091.674                          40.500                  
  20515358.004   107808935.170                          50.500                  
  20515364.604    84006962.134                          51.750                  
  23173737.106   121778805.189                          43.000                  
  23173742.546    94892575.446                          44.500                  
  22724066.610   119415776.541                          45.000                  
  22724071.490    93051254.150                          33.500                  
  24012940.520   126188853.599                          45.250                  
  24012944.080    98328976.310                          40.000                  
 16 10  2  7 58  7.0000000  0  8G 5G16G20G21G26G27G29G31
  24441054.418   128438607.880                          41.500                  
  24441058.958   100082031.377                          38.500                  
  21162731.180   111210906.244                          47.500                  
  21162734.180    86657848.786                          37.750                  
  22259662.252   116975314.721                          48.000                  
  22259664.812    91149595.268                          34.250                  
  21161356.580   111203680.392                          47.500                  
  21161359.600    86652218.907                          40.500                  
  20515347.944   107808880.323                          50.000                  
  20515354.084    84006919.399                          51.750                  
  23173152.626   121775733.682                          43.000                  
  23173157.866    94890182.055                          44.500                  
  22724629.430   119418730.901                          45.000                  
  22724633.670    93053556.249                          33.250                  
  24013596.880   126192305.860                          44.500                  
  24013601.200    98331666.388                          40.250                  
 16 10  2  7 58  8.0000000  0  8G 5G16G20G21G26G27G29G31
  24441466.358   128440770.377                          42.000                  
  24441470.878   100083716.431                          38.750                  
  21162359.520   111208952.312                          47.500                  
  21162362.240    86656326.241                          37.500                  
  22259521.432   116974574.833                          48.000                  
  22259524.172    91149018.728                          34.000                  
  21161388.020   111203844.220                          47.500                  
  21161390.520    86652346.568                          40.500                  
  20515337.324   107808826.144                          49.750                  
  20515343.404    84006877.181                          51.750                  
  23172568.226   121772662.447                          42.500                  
  23172573.346    94887788.877                          44.250                  
  22725191.590   119421685.447                          45.000                  
  22725195.590    93055858.487                          32.750                  
  24014254.160   126195758.300                          44.500                  
  24014258.080    98334356.605                          40.000                  
 16 10  2  7 58  9.0000000  0  8G 5G16G20G21G26G27G29G31
  24441877.798   128442933.210                          41.750                  
  24441881.918   100085401.744                          38.750                  
  21161988.200   111206998.655                          48.000                  
  21161990.200    86654803.918                          37.750                  
  22259380.212   116973835.389                          48.000                  
  22259383.392    91148442.538                          33.500                  
  21161419.440   111204008.333                          47.750                  
  21161421.620    86652474.445                          40.500                  
  20515326.944   107808772.395                          50.000                  
  20515333.164    84006835.299                          51.750                  
  23171983.186   121769591.165                          42.500                  
  23171988.986    94885395.662                          44.500                  
  22725753.490   119424640.012                          45.500                  
  22725758.110    93058160.747                          33.000                  
  24014911.020   126199210.698                          43.750                  
  24014914.960    98337046.781                          40.500                  
 16 10  2  7 58 10.0000000  0  8G 5G16G20G21G26G27G29G31
  24442289.558   128445095.636                          41.750                  
  24442293.698   100087086.745                          38.750                  
  21161616.480   111205044.573                          48.000                  
  21161618.960    86653281.258                          37.750                  
  22259239.652   116973095.727                          47.750                  
  22259242.832    91147866.178                          33.250                  
  21161450.220   111204172.035                          46.750                  
  21161452.940    86652602.005                          40.500                  
  20515316.784   107808718.342                          50.250                  
  20515323.204    84006793.175                          51.750                  
  23171398.506   121766519.145                          42.500                  
  23171404.386    94883001.884                          44.250                  
  22726315.670   119427593.833                          45.500                  
  22726319.970    93060462.424                          34.000                  
  24015567.900   126202662.332                          44.000                  
  24015571.960    98339736.358                          40.500                  
 16 10  2  7 58 11.0000000  0  8G 5G16G20G21G26G27G29G31
  24442701.578   128447259.478                          41.500                  
  24442705.218   100088772.862                          38.500                  
  21161244.340   111203091.794                          47.750                  
  21161246.920    86651759.614                          38.000                  
  22259099.292   116972357.523                          47.500                  
  22259102.272    91147290.954                          33.500                  
  21161481.600   111204337.061                          47.000                  
  21161484.320    86652730.593                          40.250                  
  20515306.704   107808665.731                          50.000                  
  20515313.404    84006752.180                          51.500                  
  23170813.966   121763448.100                          42.750                  
  23170819.826    94880608.866                          44.500                  
  22726878.050   119430548.666                          45.500                  
  22726882.670    93062764.885                          33.500                  
  24016224.900   126206114.929                          43.750                  
  24016228.860    98342426.679                          40.250                  
 16 10  2  7 58 12.0000000  0  8G 5G16G20G21G26G27G29G31
  24443112.518   128449423.328                          41.250                  
  24443116.838   100090458.985                          38.500                  
  21160872.680   111201139.004                          47.750                  
  21160875.400    86650237.958                          38.250                  
  22258958.732   116971619.498                          47.250                  
  22258961.672    91146715.880                          34.000                  
  21161513.160   111204502.062                          47.000                  
  21161516.000    86652859.169                          40.500                  
  20515296.804   107808613.247                          49.750                  
  20515303.504    84006711.277                          51.500                  
  23170229.726   121760376.789                          41.750                  
  23170235.626    94878215.641                          44.500                  
  22727440.510   119433503.178                          45.250                  
  22727444.970    93065067.096                          33.250                  
  24016881.660   126209567.164                          44.250                  
  24016885.960    98345116.722                          40.500                  
 16 10  2  7 58 13.0000000  0  8G 5G16G20G21G26G27G29G31
  24443524.738   128451588.040                          41.250                  
  24443529.018   100092145.774                          39.000                  
  21160501.500   111199187.053                          47.750                  
  21160504.240    86648716.957                          37.750                  
  22258818.772   116970882.485                          47.000                  
  22258821.652    91146141.586                          34.250                  
  21161545.020   111204667.903                          46.250                  
  21161547.340    86652988.394                          40.500                  
  20515286.804   107808561.708                          50.000                  
  20515293.244    84006671.121                          52.000                  
  23169645.486   121757306.001                          42.000                  
  23169651.166    94875822.819                          44.500                  
  22728002.830   119436458.211                          45.500                  
  22728007.530    93067369.717                          33.000                  
  24017539.380   126213019.872                          44.500                  
  24017542.780    98347807.142                          40.500                  
 16 10  2  7 58 14.0000000  0  8G 5G16G20G21G26G27G29G31
  24443936.198   128453753.310                          41.500                  
  24443940.938   100093832.996                          39.000                  
  21160130.060   111197235.580                          47.000                  
  21160132.480    86647196.326                          38.000                  
  22258678.752   116970146.133                          46.500                  
  22258681.632    91145567.806                          34.500                  
  21161576.780   111204834.243                          45.750                  
  21161579.020    86653118.014                          40.500                  
  20515277.364   107808510.794                          47.750                  
  20515283.444    84006631.444                          51.500                  
  23169061.006   121754235.368                          42.500                  
  23169066.866    94873430.124                          44.500                  
  22728565.210   119439413.435                          45.000                  
  22728569.650    93069672.483                          33.250                  
  24018196.420   126216472.749                          43.750                  
  24018200.060    98350497.703                          40.250                  
 16 10  2  7 58 15.0000000  0  8G 5G16G20G21G26G27G29G31
  24444348.738   128455919.338                          41.500                  
  24444353.238   100095520.807                          38.250                  
  21159758.700   111195284.808                          46.750                  
  21159761.060    86645676.247                          37.750                  
  22258538.232   116969410.668                          46.500                  
  22258541.352    91144994.711                          34.500                  
  21161608.180   111205001.285                          46.500                  
  21161611.060    86653248.174                          40.250                  
  20515267.724   107808460.696                          48.000                  
  20515274.304    84006592.408                          51.250                  
  23168477.246   121751165.161                          42.750                  
  23168482.726    94871037.757                          44.500                  
  22729127.590   119442369.067                          45.000                  
  22729131.850    93071975.577                          33.250                  
  24018853.500   126219925.972                          43.750                  
  24018857.020    98353188.535                          40.250                  
 16 10  2  7 58 16.0000000  0  8G 5G16G20G21G26G27G29G31
  24444760.978   128458085.464                          41.750                  
  24444765.278   100097208.693                          38.250                  
  21159387.640   111193334.081                          47.000                  
  21159390.100    86644156.200                          37.750                  
  22258398.672   116968675.415                          47.000                  
  22258401.492    91144421.785                          34.500                  
  21161639.980   111205168.376                          47.000                  
  21161642.460    86653378.373                          40.500                  
  20515258.104   107808410.781                          48.750                  
  20515264.924    84006553.515                          51.500                  
  23167892.866   121748094.668                          42.500                  
  23167898.126    94868645.163                          44.250                  
  22729689.830   119445324.415                          45.000                  
  22729694.210    93074278.445                          33.000                  
  24019510.320   126223378.882                          44.250                  
  24019514.420    98355879.122                          40.500                  
 16 10  2  7 58 17.0000000  0  8G 5G16G20G21G26G27G29G31
  24445173.518   128460251.989                          42.000                  
  24445178.118   100098896.892                          38.000                  
  21159016.420   111191383.712                          47.500                  
  21159019.140    86642636.431                          37.500                  
  22258258.632   116967940.708                          47.250                  
  22258261.672    91143849.284                          34.500                  
  21161671.920   111205335.846                          47.250                  
  21161674.460    86653508.874                          40.250                  
  20515248.944   107808361.349                          49.250                  
  20515255.444    84006514.997                          51.500                  
  23167308.486   121745024.221                          42.250                  
  23167314.166    94866252.607                          44.250                  
  22730252.390   119448279.834                          44.750                  
  22730256.790    93076581.367                          33.500                  
  24020167.760   126226831.848                          44.250                  
  24020171.320    98358569.741                          40.750                  
 16 10  2  7 58 18.0000000  0  8G 5G16G20G21G26G27G29G31
  24445586.438   128462419.297                          42.750                  
  24445590.398   100100585.697                          38.750                  
  21158645.520   111189434.067                          47.500                  
  21158647.820    86641117.224                          37.500                  
  22258119.192   116967206.911                          47.500                  
  22258122.052    91143277.496                          33.750                  
  21161704.180   111205504.044                          47.750                  
  21161706.740    86653639.937                          40.250                  
  20515239.844   107808312.800                          49.000                  
  20515246.024    84006477.161                          51.500                  
  23166724.326   121741954.232                          42.250                  
  23166729.886    94863860.402                          43.750                  
  22730815.370   119451235.676                          45.000                  
  22730819.010    93078884.625                          33.000                  
  24020824.300   126230285.160                          44.500                  
  24020828.280    98361260.623                          40.500                  
 16 10  2  7 58 19.0000000  0  8G 5G16G20G21G26G27G29G31
  24445999.098   128464587.779                          42.500                  
  24446003.198   100102275.420                          38.500                  
  21158274.660   111187485.542                          47.000                  
  21158277.440    86639598.898                          37.750                  
  22257979.712   116966474.385                          47.750                  
  22257982.552    91142706.699                          34.500                  
  21161735.920   111205673.341                          47.750                  
  21161738.380    86653771.852                          40.250                  
  20515230.864   107808265.466                          49.250                  
  20515236.824    84006440.281                          51.500                  
  23166139.946   121738884.984                          43.000                  
  23166145.426    94861468.776                          44.000                  
  22731377.050   119454192.306                          45.250                  
  22731382.170    93081188.496                          33.250                  
  24021482.140   126233739.242                          45.000                  
  24021486.060    98363952.104                          41.000                  
 16 10  2  7 58 20.0000000  0  8G 5G16G20G21G26G27G29G31
  24446411.498   128466755.728                          42.250                  
  24446415.658   100103964.737                          38.000                  
  21157903.560   111185536.491                          47.500                  
  21157906.140    86638080.154                          37.500                  
  22257839.992   116965741.520                          47.500                  
  22257843.532    91142135.640                          33.500                  
  21161768.320   111205842.132                          47.500                  
  21161770.960    86653903.384                          40.000                  
  20515221.804   107808217.726                          49.250                  
  20515228.064    84006403.079                          51.250                  
  23165555.946   121735814.945                          42.500                  
  23165561.706    94859076.538                          44.000                  
  22731939.270   119457148.132                          45.000                  
  22731944.470    93083491.731                          33.000                  
  24022139.380   126237192.458                          44.750                  
  24022142.760    98366642.917                          40.250                  
 16 10  2  7 58 21.0000000  0  8G 5G16G20G21G26G27G29G31
  24446823.718   128468924.221                          41.750                  
  24446828.538   100105654.465                          38.000                  
  21157533.120   111183587.890                          47.750                  
  21157535.640    86636561.767                          37.500                  
  22257701.212   116965009.278                          48.000                  
  22257704.152    91141565.059                          33.500                  
  21161800.660   111206011.368                          47.250                  
  21161802.800    86654035.252                          40.500                  
  20515212.624   107808170.578                          49.750                  
  20515218.924    84006366.342                          51.250                  
  23164972.386   121732745.045                          42.750                  
  23164977.726    94856684.410                          44.500                  
  22732502.390   119460104.102                          45.000                  
  22732506.970    93085795.083                          34.000                  
  24022796.020   126240645.788                          44.750                  
  24022800.000    98369333.820                          40.250                  
 16 10  2  7 58 22.0000000  0  8G 5G16G20G21G26G27G29G31
  24447236.718   128471094.207                          41.750                  
  24447241.218   100107345.365                          38.250                  
  21157162.380   111181640.729                          47.750                  
  21157165.060    86635044.500                          37.500                  
  22257561.972   116964278.676                          48.000                  
  22257565.012    91140995.763                          34.000                  
  21161832.780   111206182.096                          47.000                  
  21161835.360    86654168.285                          40.500                  
  20515204.164   107808125.033                          49.750                  
  20515210.244    84006330.848                          51.500                  
  23164388.106   121729676.312                          42.750                  
  23164393.386    94854293.193                          44.500                  
  22733064.710   119463061.182                          44.250                  
  22733069.690    93088099.299                          33.250                  
  24023453.400   126244100.233                          44.750                  
  24023457.120    98372025.597                          40.250                  
 16 10  2  7 58 23.0000000  0  8G 5G16G20G21G26G27G29G31
  24447648.658   128473264.058                          41.250                  
  24447653.818   100109036.165                          37.250                  
  21156791.780   111179693.391                          47.750                  
  21156794.580    86633527.088                          37.750                  
  22257423.412   116963548.050                          48.500                  
  22257425.732    91140426.438                          34.000                  
  21161865.800   111206352.604                          47.000                  
  21161867.920    86654301.150                          40.500                  
  20515195.164   107808079.409                          50.000                  
  20515201.624    84006295.299                          51.750                  
  23163804.066   121726607.051                          42.500                  
  23163809.006    94851901.567                          45.000                  
  22733627.130   119466017.796                          44.250                  
  22733632.030    93090403.156                          32.750                  
  24024111.280   126247554.145                          44.750                  
  24024114.360    98374716.952                          40.500                  
 16 10  2  7 58 24.0000000  0  8G 5G16G20G21G26G27G29G31
  24448062.218   128475434.792                          40.750                  
  24448066.878   100110727.654                          37.750                  
  21156421.540   111177746.884                          47.750                  
  21156424.000    86632010.330                          37.750                  
  22257284.032   116962818.436                          48.500                  
  22257286.832    91139857.905                          33.750                  
  21161897.760   111206523.952                          47.000                  
  21161900.440    86654434.668                          40.500                  
  20515186.504   107808034.725                          50.000                  
  20515193.024    84006260.483                          52.000                  
  23163220.226   121723538.334                          42.500                  
  23163225.186    94849510.361                          44.500                  
  22734190.190   119468974.933                          44.750                  
  22734195.310    93092707.419                          33.000                  
  24024767.880   126251008.516                          44.750                  
  24024771.880    98377408.670                          40.000                  
 16 10  2  7 58 25.0000000  0  8G 5G16G20G21G26G27G29G31
  24448475.438   128477605.944                          41.500                  
  24448480.198   100112419.455                          37.500                  
  21156051.280   111175800.729                          47.250                  
  21156053.380    86630493.843                          38.000                  
  22257145.372   116962089.360                          48.250                  
  22257148.352    91139289.798                          34.000                  
  21161930.720   111206695.668                          47.000                  
  21161932.860    86654568.475                          40.250                  
  20515178.444   107807990.556                          49.500                  
  20515184.764    84006226.068                          52.250                  
  23162635.826   121720469.669                          42.250                  
  23162641.446    94847119.190                          44.500                  
  22734752.770   119471932.105                          44.750                  
  22734757.230    93095011.708                          32.750                  
  24025425.840   126254462.927                          45.000                  
  24025429.520    98380100.415                          40.000                  
 16 10  2  7 58 26.0000000  0  8G 5G16G20G21G26G27G29G31
  24448889.378   128479777.935                          41.000                  
  24448893.418   100114111.913                          38.000                  
  21155680.860   111173855.378                          46.500                  
  21155683.480    86628977.989                          37.750                  
  22257006.992   116961361.264                          48.000                  
  22257009.792    91138722.453                          33.500                  
  21161963.480   111206868.204                          46.750                  
  21161965.960    86654702.919                          40.250                  
  20515169.784   107807947.297                          49.500                  
  20515176.184    84006192.355                          52.000                  
  23162052.326   121717401.503                          42.500                  
  23162057.666    94844728.405                          44.500                  
  22735315.770   119474889.778                          44.750                  
  22735320.350    93097316.382                          33.250                  
  24026082.760   126257917.771                          45.000                  
  24026086.700    98382792.507                          40.250                  
 16 10  2  7 58 27.0000000  0  8G 5G16G20G21G26G27G29G31
  24449302.578   128481948.798                          40.750                  
  24449306.638   100115803.492                          38.500                  
  21155310.500   111171908.863                          46.500                  
  21155312.920    86627461.222                          37.750                  
  22256868.092   116960632.186                          47.750                  
  22256870.672    91138154.338                          34.250                  
  21161996.780   111207039.576                          47.000                  
  21161998.840    86654836.453                          40.000                  
  20515162.024   107807903.023                          49.500                  
  20515168.264    84006157.852                          51.500                  
  23161467.466   121714331.811                          42.250                  
  23161473.586    94842336.437                          44.750                  
  22735877.750   119477845.988                          44.500                  
  22735883.170    93099619.929                          32.500                  
  24026740.140   126261371.136                          44.500                  
  24026743.740    98385483.449                          40.000                  
 16 10  2  7 58 28.0000000  0  8G 5G16G20G21G26G27G29G31
  24449715.938   128484122.462                          41.000                  
  24449720.338   100117497.254                          38.250                  
  21154940.760   111169965.062                          47.000                  
  21154943.300    86625946.574                          37.750                  
  22256729.392   116959906.008                          47.000                  
  22256732.452    91137588.483                          33.250                  
  21162028.920   111207213.652                          47.500                  
  21162032.040    86654972.095                          39.750                  
  20515153.724   107807861.587                          49.250                  
  20515159.984    84006125.570                          51.500                  
  23160884.066   121711264.583                          42.000                  
  23160889.606    94839946.394                          44.500                  
  22736441.450   119480804.607                          44.500                  
  22736445.550    93101925.348                          32.250                  
  24027397.240   126264826.855                          45.000                  
  24027401.420    98388176.226                          40.000                  
 16 10  2  7 58 29.0000000  0  8G 5G16G20G21G26G27G29G31
  24450129.298   128486294.757                          40.750                  
  24450133.918   100119189.952                          38.000                  
  21154570.580   111168019.892                          47.500                  
  21154572.980    86624430.858                          38.000                  
  22256591.452   116959178.625                          47.750                  
  22256594.392    91137021.693                          33.750                  
  21162062.600   111207386.372                          47.250                  
  21162064.560    86655106.679                          40.000                  
  20515145.684   107807818.906                          49.500                  
  20515152.104    84006092.304                          51.750                  
  23160299.686   121708195.661                          42.250                  
  23160305.686    94837555.034                          44.250                  
  22737004.270   119483761.563                          44.250                  
  22737008.610    93104229.459                          32.500                  
  24028054.420   126268280.859                          44.750                  
  24028059.200    98390867.657                          40.000                  
 16 10  2  7 58 30.0000000  0  8G 5G16G20G21G26G27G29G31
  24450543.018   128488468.633                          40.750                  
  24450547.818   100120883.884                          38.750                  
  21154200.880   111166076.210                          47.500                  
  21154203.240    86622916.304                          38.000                  
  22256453.052   116958452.939                          47.500                  
  22256456.432    91136456.219                          35.000                  
  21162095.160   111207560.610                          47.500                  
  21162098.020    86655242.454                          39.750                  
  20515137.784   107807777.864                          49.500                  
  20515144.144    84006060.325                          51.500                  
  23159716.366   121705127.963                          42.500                  
  23159721.846    94835164.622                          44.250                  
  22737566.910   119486719.698                          43.500                  
  22737571.570    93106534.498                          32.500                  
  24028711.900   126271736.031                          44.750                  
  24028716.060    98393559.999                          39.750                  
 16 10  2  7 58 31.0000000  0  8G 5G16G20G21G26G27G29G31
  24450956.518   128490642.395                          41.250                  
  24450960.998   100122577.724                          38.750                  
  21153831.080   111164132.409                          47.500                  
  21153833.440    86621401.652                          38.000                  
  22256315.052   116957727.281                          47.500                  
  22256318.512    91135890.778                          34.500                  
  21162128.340   111207734.689                          47.500                  
  21162130.760    86655378.093                          40.250                  
  20515129.744   107807736.801                          49.250                  
  20515136.544    84006028.330                          51.500                  
  23159132.906   121702059.795                          42.750                  
  23159138.086    94832773.835                          44.000                  
  22738130.390   119489677.387                          44.000                  
  22738134.590    93108839.183                          32.250                  
  24029369.100   126275190.684                          44.500                  
  24029373.900    98396251.932                          40.000                  
 16 10  2  7 58 32.0000000  0  8G 5G16G20G21G26G27G29G31
  24451371.098   128492817.475                          41.250                  
  24451374.718   100124272.587                          38.750                  
  21153460.980   111162189.845                          47.250                  
  21153463.560    86619887.964                          37.500                  
  22256177.472   116957003.056                          47.500                  
  22256180.472    91135326.451                          34.250                  
  21162161.760   111207910.041                          46.500                  
  21162164.360    86655514.736                          40.500                  
  20515122.324   107807697.126                          49.750                  
  20515128.824    84005997.420                          51.250                  
  23158548.906   121698992.604                          42.000                  
  23158554.906    94830383.808                          44.500                  
  22738693.010   119492636.030                          45.500                  
  22738697.330    93111144.616                          33.000                  
  24030027.320   126278646.269                          44.250                  
  24030030.920    98398944.598                          40.500                  
 16 10  2  7 58 33.0000000  0  8G 5G16G20G21G26G27G29G31
  24451784.478   128494992.710                          41.250                  
  24451788.878   100125967.561                          38.500                  
  21153091.200   111160247.395                          47.250                  
  21153093.900    86618374.364                          37.750                  
  22256039.532   116956279.122                          47.500                  
  22256042.732    91134762.342                          33.750                  
  21162195.200   111208085.518                          46.750                  
  21162197.820    86655651.464                          40.250                  
  20515114.764   107807657.676                          49.750                  
  20515121.384    84005966.676                          51.250                  
  23157965.266   121695925.145                          42.000                  
  23157970.946    94827993.571                          45.000                  
  22739256.250   119495594.452                          45.000                  
  22739260.130    93113449.876                          32.250                  
  24030683.960   126282101.612                          44.000                  
  24030688.680    98401637.069                          40.750                  
 16 10  2  7 58 34.0000000  0  8G 5G16G20G21G26G27G29G31
  24452198.818   128497168.058                          42.250                  
  24452202.778   100127662.628                          38.250                  
  21152721.700   111158305.021                          47.500                  
  21152724.540    86616860.830                          37.750                  
  22255901.892   116955555.422                          47.500                  
  22255905.012    91134198.420                          33.500                  
  21162228.660   111208261.059                          46.750                  
  21162231.140    86655788.252                          40.500                  
  20515107.244   107807618.445                          50.000                  
  20515114.064    84005936.107                          51.250                  
  23157381.946   121692857.510                          42.250                  
  23157387.006    94825603.206                          44.750                  
  22739818.650   119498552.669                          45.000                  
  22739823.230    93115754.985                          31.750                  
  24031341.940   126285556.704                          43.750                  
  24031346.220    98404329.342                          40.500                  
 16 10  2  7 58 35.0000000  0  8G 5G16G20G21G26G27G29G31
  24452613.458   128499344.560                          42.250                  
  24452617.098   100129358.601                          38.500                  
  21152352.780   111156363.758                          47.500                  
  21152355.100    86615348.156                          38.000                  
  22255764.012   116954833.031                          47.500                  
  22255767.152    91133635.516                          33.500                  
  21162261.940   111208437.715                          47.000                  
  21162264.520    86655925.912                          40.500                  
  20515100.584   107807580.451                          50.250                  
  20515106.684    84005906.495                          51.500                  
  23156797.366   121689790.651                          41.500                  
  23156803.386    94823213.451                          45.000                  
  22740382.110   119501511.664                          45.250                  
  22740386.490    93118060.699                          32.500                  
  24031999.700   126289012.536                          43.750                  
  24032003.540    98407022.186                          40.500                  
 16 10  2  7 58 36.0000000  0  8G 5G16G20G21G26G27G29G31
  24453027.378   128501521.285                          41.750                  
  24453031.558   100131054.758                          38.250                  
  21151982.860   111154422.651                          47.750                  
  21151985.660    86613835.600                          37.750                  
  22255626.912   116954110.971                          47.250                  
  22255630.052    91133072.865                          34.000                  
  21162295.660   111208614.518                          47.000                  
  21162298.360    86656063.679                          40.250                  
  20515093.504   107807542.741                          50.000                  
  20515099.684    84005877.110                          51.500                  
  23156213.686   121686723.644                          41.500                  
  23156219.666    94820823.586                          45.000                  
  22740944.650   119504470.530                          45.500                  
  22740949.390    93120366.305                          32.500                  
  24032657.340   126292468.192                          44.000                  
  24032661.280    98409714.901                          40.500                  
 16 10  2  7 58 37.0000000  0  8G 5G16G20G21G26G27G29G31
  24453440.898   128503698.270                          41.500                  
  24453445.798   100132751.115                          38.250                  
  21151613.560   111152481.785                          47.500                  
  21151616.260    86612323.239                          38.000                  
  22255489.612   116953389.347                          47.500                  
  22255492.932    91132510.567                          34.000                  
  21162329.320   111208791.608                          47.000                  
  21162332.100    86656201.668                          40.000                  
  20515086.244   107807505.409                          50.000                  
  20515092.404    84005848.018                          52.000                  
  23155630.326   121683656.595                          41.750                  
  23155636.246    94818433.694                          44.250                  
  22741507.970   119507429.320                          45.500                  
  22741512.670    93122671.853                          32.500                  
  24033315.240   126295923.743                          43.500                  
  24033319.060    98412407.530                          40.250                  
 16 10  2  7 58 38.0000000  0  8G 5G16G20G21G26G27G29G31
  24453855.098   128505876.264                          41.000                  
  24453859.998   100134448.257                          38.000                  
  21151244.380   111150541.833                          47.750                  
  21151247.020    86610811.589                          38.250                  
  22255352.792   116952668.792                          47.500                  
  22255355.972    91131949.100                          34.000                  
  21162363.400   111208969.601                          47.000                  
  21162365.940    86656340.362                          40.000                  
  20515078.984   107807469.126                          50.250                  
  20515085.564    84005819.744                          52.000                  
  23155047.186   121680590.182                          42.250                  
  23155052.626    94816044.291                          44.250                  
  22742071.630   119510388.717                          45.000                  
  22742075.630    93124977.877                          32.250                  
  24033972.480   126299379.846                          43.250                  
  24033976.620    98415100.595                          40.250                  
 16 10  2  7 58 39.0000000  0  8G 5G16G20G21G26G27G29G31
  24454269.918   128508054.931                          41.250                  
  24454274.878   100136145.917                          38.750                  
  21150875.200   111148602.544                          47.750                  
  21150877.760    86609300.450                          37.750                  
  22255215.832   116951949.075                          47.750                  
  22255218.652    91131388.282                          33.500                  
  21162397.440   111209148.249                          46.750                  
  21162399.920    86656479.568                          40.500                  
  20515072.484   107807433.617                          50.500                  
  20515078.524    84005792.075                          51.750                  
  23154464.306   121677524.050                          42.500                  
  23154469.366    94813655.094                          44.250                  
  22742634.510   119513348.466                          44.500                  
  22742638.570    93127284.175                          32.250                  
  24034630.220   126302836.269                          43.000                  
  24034634.080    98417793.912                          39.750                  
 16 10  2  7 58 40.0000000  0  8G 5G16G20G21G26G27G29G31
  24454684.758   128510233.511                          41.250                  
  24454689.378   100137843.502                          38.500                  
  21150506.380   111146663.110                          47.750                  
  21150509.220    86607789.211                          38.000                  
  22255078.452   116951229.414                          47.750                  
  22255081.852    91130827.501                          33.000                  
  21162431.320   111209326.754                          47.000                  
  21162433.880    86656618.664                          40.500                  
  20515065.524   107807398.091                          50.000                  
  20515072.024    84005764.392                          51.500                  
  23153880.086   121674457.511                          42.750                  
  23153885.706    94811265.572                          44.500                  
  22743197.450   119516307.794                          44.750                  
  22743202.210    93129590.147                          32.500                  
  24035287.940   126306292.204                          42.750                  
  24035292.040    98420486.848                          40.000                  
 16 10  2  7 58 41.0000000  0  8G 5G16G20G21G26G27G29G31
  24455099.278   128512413.053                          41.500                  
  24455103.858   100139541.836                          38.000                  
  21150136.980   111144724.606                          48.000                  
  21150140.280    86606278.689                          38.250                  
  22254942.152   116950510.825                          47.500                  
  22254944.852    91130267.563                          33.250                  
  21162465.620   111209506.201                          46.500                  
  21162468.000    86656758.492                          40.500                  
  20515058.924   107807363.625                          50.500                  
  20515065.524    84005737.538                          51.500                  
  23153296.446   121671391.571                          42.500                  
  23153302.146    94808876.524                          44.250                  
  22743760.430   119519267.693                          44.750                  
  22743765.450    93131896.556                          32.500                  
  24035946.600   126309748.727                          43.500                  
  24035949.780    98423180.235                          40.000                  
 16 10  2  7 58 42.0000000  0  8G 5G16G20G21G26G27G29G31
  24455514.798   128514592.639                          41.750                  
  24455518.838   100141240.201                          38.000                  
  21149768.520   111142786.079                          48.000                  
  21149771.280    86604768.146                          38.000                  
  22254805.152   116949792.419                          47.500                  
  22254808.272    91129707.760                          33.500                  
  21162499.540   111209685.610                          46.750                  
  21162502.160    86656898.298                          40.250                  
  20515052.864   107807329.258                          50.500                  
  20515059.064    84005710.760                          51.500                  
  23152713.286   121668325.305                          42.500                  
  23152718.446    94806487.222                          44.750                  
  22744324.090   119522227.271                          44.750                  
  22744328.450    93134202.723                          32.500                  
  24036604.160   126313204.848                          44.000                  
  24036607.560    98425873.306                          40.250                  
 16 10  2  7 58 43.0000000  0  8G 5G16G20G21G26G27G29G31
  24455929.678   128516773.361                          42.000                  
  24455933.518   100142939.460                          37.500                  
  21149399.820   111140848.655                          47.750                  
  21149402.380    86603258.465                          37.250                  
  22254668.592   116949075.307                          47.500                  
  22254672.292    91129148.975                          33.250                  
  21162533.980   111209866.144                          47.000                  
  21162536.420    86657038.970                          40.250                  
  20515046.324   107807296.132                          50.250                  
  20515052.504    84005684.948                          52.000                  
  23152129.586   121665259.851                          42.250                  
  23152135.206    94804098.556                          45.000                  
  22744887.270   119525187.664                          44.500                  
  22744891.750    93136509.520                          32.500                  
  24037262.400   126316661.739                          44.000                  
  24037265.300    98428566.987                          40.500                  
 16 10  2  7 58 44.0000000  0  8G 5G16G20G21G26G27G29G31
  24456344.798   128518954.440                          42.250                  
  24456348.898   100144639.006                          37.750                  
  21149031.040   111138911.557                          47.000                  
  21149033.760    86601749.036                          37.500                  
  22254532.532   116948358.662                          47.500                  
  22254535.512    91128590.551                          33.750                  
  21162568.460   111210046.988                          46.250                  
  21162570.880    86657179.891                          40.500                  
  20515039.944   107807263.462                          50.250                  
  20515046.344    84005659.492                          51.250                  
  23151545.726   121662194.392                          42.500                  
  23151552.046    94801709.895                          45.000                  
  22745450.230   119528148.067                          44.500                  
  22745454.910    93138816.332                          32.250                  
  24037919.380   126320118.601                          43.500                  
  24037923.180    98431260.640                          40.250                  
 16 10  2  7 58 45.0000000  0  8G 5G16G20G21G26G27G29G31
  24456759.518   128521135.926                          42.500                  
  24456763.878   100146338.882                          37.500                  
  21148662.920   111136974.814                          47.000                  
  21148665.460    86600239.885                          37.750                  
  22254396.072   116947642.548                          47.500                  
  22254398.912    91128032.542                          33.750                  
  21162603.120   111210228.206                          46.250                  
  21162605.240    86657321.099                          40.500                  
  20515033.964   107807231.251                          50.500                  
  20515040.164    84005634.391                          51.500                  
  23150963.466   121659129.009                          42.750                  
  23150968.626    94799321.297                          44.750                  
  22746013.430   119531108.523                          44.000                  
  22746018.150    93141123.178                          32.500                  
  24038577.300   126323575.495                          44.000                  
  24038580.640    98433954.325                          40.250                  
 16 10  2  7 58 46.0000000  0  8G 5G16G20G21G26G27G29G31
  24457174.718   128523317.780                          42.000                  
  24457179.278   100148039.038                          37.500                  
  21148294.340   111135038.352                          47.750                  
  21148296.920    86598730.956                          38.000                  
  22254260.292   116946926.925                          46.750                  
  22254262.792    91127474.918                          34.000                  
  21162637.500   111210409.746                          46.500                  
  21162639.880    86657462.558                          40.500                  
  20515028.064   107807199.479                          50.750                  
  20515033.964    84005609.634                          51.500                  
  23150379.666   121656063.594                          43.000                  
  23150385.626    94796932.671                          44.500                  
  22746577.330   119534068.963                          44.250                  
  22746581.650    93143430.002                          32.250                  
  24039235.040   126327032.334                          44.500                  
  24039238.580    98436647.960                          40.250                  
 16 10  2  7 58 47.0000000  0  8G 5G16G20G21G26G27G29G31
  24457590.358   128525500.007                          42.000                  
  24457594.438   100149739.481                          38.250                  
  21147925.860   111133102.289                          47.500                  
  21147928.320    86597222.339                          37.750                  
  22254124.292   116946211.867                          47.250                  
  22254127.152    91126917.728                          33.250                  
  21162672.280   111210591.631                          46.750                  
  21162674.320    86657604.284                          40.500                  
  20515022.104   107807168.212                          50.750                  
  20515028.104    84005585.267                          51.500                  
  23149796.826   121652998.256                          43.000                  
  23149802.046    94794544.097                          44.000                  
  22747140.710   119537029.461                          44.250                  
  22747145.790    93145736.876                          32.250                  
  24039892.880   126330489.170                          44.750                  
  24039896.420    98439341.594                          40.250                  
 16 10  2  7 58 48.0000000  0  8G 5G16G20G21G26G27G29G31
  24458005.178   128527683.342                          42.000                  
  24458009.918   100151440.779                          38.500                  
  21147557.500   111131167.277                          47.750                  
  21147560.080    86595714.532                          37.750                  
  22253987.952   116945498.010                          47.250                  
  22253991.272    91126361.473                          34.000                  
  21162706.860   111210774.585                          47.250                  
  21162709.440    86657746.843                          40.250                  
  20515016.384   107807138.132                          51.250                  
  20515022.044    84005561.829                          52.000                  
  23149214.046   121649933.648                          43.250                  
  23149218.926    94792156.085                          43.750                  
  22747704.670   119539990.715                          44.500                  
  22747708.710    93148044.351                          31.750                  
  24040551.120   126333946.731                          44.500                  
  24040554.580    98442035.795                          40.500                  
 16 10  2  7 58 49.0000000  0  8G 5G16G20G21G26G27G29G31
  24458420.838   128529866.678                          41.500                  
  24458425.098   100153142.072                          38.750                  
  21147189.520   111129232.173                          47.250                  
  21147191.980    86594206.661                          37.500                  
  22253852.152   116944784.287                          47.500                  
  22253855.272    91125805.321                          33.750                  
  21162741.640   111210957.484                          47.250                  
  21162744.260    86657889.366                          40.500                  
  20515010.544   107807108.107                          51.000                  
  20515016.784    84005538.437                          51.750                  
  23148630.886   121646868.706                          42.500                  
  23148636.166    94789767.811                          44.500                  
  22748267.670   119542951.591                          44.000                  
  22748271.810    93150351.523                          32.000                  
  24041209.360   126337403.843                          45.000                  
  24041212.400    98444729.655                          40.000                  
 16 10  2  7 58 50.0000000  0  8G 5G16G20G21G26G27G29G31
  24458837.058   128532050.913                          41.500                  
  24458841.318   100154844.069                          39.000                  
  21146821.140   111127297.942                          46.750                  
  21146824.080    86592699.470                          37.500                  
  22253716.792   116944071.588                          47.750                  
  22253719.672    91125249.976                          34.000                  
  21162776.760   111211141.234                          47.250                  
  21162779.600    86658032.548                          40.500                  
  20515004.584   107807079.078                          50.750                  
  20515011.244    84005515.813                          51.750                  
  23148047.006   121643804.256                          42.000                  
  23148052.486    94787379.909                          44.500                  
  22748831.330   119545913.014                          44.250                  
  22748835.450    93152659.131                          32.000                  
  24041866.580   126340861.475                          44.750                  
  24041870.600    98447423.926                          40.250                  
 16 10  2  7 58 51.0000000  0  8G 5G16G20G21G26G27G29G31
  24459252.918   128534236.206                          41.250                  
  24459256.538   100156546.891                          38.750                  
  21146452.980   111125364.727                          47.000                  
  21146455.960    86591193.069                          38.000                  
  22253581.032   116943360.096                          48.000                  
  22253584.372    91124695.572                          34.250                  
  21162811.400   111211325.988                          47.000                  
  21162814.400    86658176.512                          40.750                  
  20514999.844   107807051.161                          51.000                  
  20515005.624    84005494.061                          52.000                  
  23147464.046   121640740.570                          42.000                  
  23147469.126    94784992.615                          45.000                  
  22749395.290   119548875.152                          44.500                  
  22749399.430    93154967.290                          31.500                  
  24042525.080   126344319.792                          44.500                  
  24042528.280    98450118.725                          40.500                  
 16 10  2  7 58 52.0000000  0  8G 5G16G20G21G26G27G29G31
  24459667.738   128536420.491                          42.000                  
  24459672.018   100158248.926                          39.000                  
  21146085.140   111123430.501                          47.000                  
  21146088.040    86589685.880                          38.250                  
  22253445.652   116942647.755                          46.750                  
  22253448.692    91124140.499                          34.000                  
  21162847.020   111211509.751                          47.000                  
  21162849.400    86658319.702                          40.500                  
  20514993.944   107807022.374                          50.250                  
  20515000.544    84005471.626                          51.750                  
  23146880.846   121637675.529                          42.250                  
  23146886.346    94782604.275                          45.000                  
  22749958.310   119551835.944                          45.000                  
  22749962.790    93157274.399                          32.000                  
  24043182.300   126347776.723                          44.750                  
  24043186.540    98452812.437                          40.000                  
 16 10  2  7 58 53.0000000  0  8G 5G16G20G21G26G27G29G31
  24460084.298   128538606.217                          42.250                  
  24460088.818   100159952.090                          38.750                  
  21145717.140   111121497.641                          47.000                  
  21145720.100    86588179.755                          38.000                  
  22253310.352   116941936.969                          46.500                  
  22253313.332    91123586.636                          34.000                  
  21162882.300   111211694.873                          46.750                  
  21162884.720    86658463.951                          40.500                  
  20514989.104   107806995.092                          50.000                  
  20514995.284    84005450.369                          52.000                  
  23146297.846   121634611.578                          42.250                  
  23146303.466    94780216.791                          44.750                  
  22750521.530   119554797.824                          44.500                  
  22750526.430    93159582.359                          31.750                  
  24043840.380   126351234.675                          45.000                  
  24043844.640    98455506.948                          40.500                  
 16 10  2  7 58 54.0000000  0  8G 5G16G20G21G26G27G29G31
  24460500.058   128540792.796                          42.250                  
  24460504.698   100161655.927                          38.500                  
  21145349.540   111119565.562                          47.000                  
  21145352.580    86586674.238                          38.000                  
  22253175.752   116941227.135                          46.500                  
  22253178.312    91123033.517                          34.000                  
  21162917.360   111211880.788                          47.000                  
  21162919.920    86658608.822                          40.250                  
  20514983.584   107806968.710                          50.750                  
  20514990.264    84005429.811                          51.750                  
  23145714.846   121631548.071                          42.000                  
  23145719.826    94777829.651                          45.000                  
  22751085.330   119557760.147                          44.500                  
  22751090.190    93161890.664                          32.000                  
  24044498.460   126354693.080                          45.000                  
  24044502.680    98458201.798                          40.750                  
 16 10  2  7 58 55.0000000  0  8G 5G16G20G21G26G27G29G31
  24460916.898   128542979.768                          42.500                  
  24460921.118   100163360.060                          38.000                  
  21144981.880   111117633.884                          47.000                  
  21144984.740    86585169.035                          38.000                  
  22253039.872   116940517.860                          47.000                  
  22253043.252    91122480.835                          34.250                  
  21162952.800   111212067.082                          47.000                  
  21162955.020    86658753.984                          40.000                  
  20514978.824   107806942.844                          50.500                  
  20514985.444    84005409.654                          52.000                  
  23145132.166   121628484.621                          42.250                  
  23145137.546    94775442.556                          45.000                  
  22751649.050   119560722.584                          45.000                  
  22751653.830    93164199.054                          31.750                  
  24045156.780   126358151.500                          44.750                  
  24045160.680    98460896.663                          40.500                  
 16 10  2  7 58 56.0000000  0  8G 5G16G20G21G26G27G29G31
  24461332.618   128545166.596                          42.750                  
  24461337.038   100165064.083                          38.250                  
  21144614.680   111115701.981                          47.000                  
  21144617.440    86583663.656                          37.500                  
  22252905.452   116939808.561                          46.750                  
  22252908.172    91121928.133                          33.000                  
  21162988.480   111212253.189                          47.000                  
  21162990.700    86658899.006                          40.500                  
  20514973.824   107806916.892                          50.000                  
  20514980.444    84005389.430                          52.000                  
  23144548.906   121625420.707                          42.500                  
  23144554.346    94773055.096                          44.250                  
  22752212.950   119563684.493                          44.500                  
  22752217.130    93166507.035                          32.000                  
  24045815.140   126361609.369                          44.500                  
  24045818.700    98463591.096                          40.500                  
 16 10  2  7 58 57.0000000  0  8G 5G16G20G21G26G27G29G31
  24461748.558   128547354.078                          42.000                  
  24461753.218   100166768.613                          38.250                  
  21144247.300   111113770.721                          46.750                  
  21144249.620    86582158.774                          37.500                  
  22252770.812   116939100.096                          46.750                  
  22252773.712    91121376.080                          33.500                  
  21163024.500   111212439.919                          47.000                  
  21163026.120    86659044.506                          40.250                  
  20514969.184   107806891.734                          49.000                  
  20514975.524    84005369.826                          52.000                  
  23143965.766   121622357.113                          42.500                  
  23143971.366    94770667.872                          44.000                  
  22752776.510   119566646.712                          44.250                  
  22752781.230    93168815.257                          31.750                  
  24046472.920   126365067.513                          44.500                  
  24046476.940    98466285.752                          40.750                  
 16 10  2  7 58 58.0000000  0  8G 5G16G20G21G26G27G29G31
  24462165.558   128549542.159                          42.500                  
  24462169.638   100168473.603                          38.000                  
  21143879.540   111111839.992                          46.750                  
  21143882.360    86580654.312                          37.500                  
  22252635.992   116938392.306                          47.000                  
  22252639.172    91120824.561                          33.250                  
  21163059.580   111212627.156                          47.250                  
  21163061.860    86659190.409                          40.500                  
  20514964.944   107806867.188                          49.250                  
  20514970.924    84005350.703                          51.750                  
  23143382.986   121619293.701                          42.500                  
  23143388.846    94768280.794                          44.000                  
  22753340.310   119569609.144                          44.500                  
  22753344.890    93171123.642                          32.250                  
  24047130.880   126368525.849                          45.000                  
  24047134.820    98468980.561                          40.500                  
 16 10  2  7 58 59.0000000  0  8G 5G16G20G21G26G27G29G31
  24462582.118   128551732.003                          42.500                  
  24462586.598   100170179.967                          38.000                  
  21143512.580   111109910.997                          47.250                  
  21143515.240    86579151.203                          37.500                  
  22252501.232   116937686.452                          47.000                  
  22252504.692    91120274.547                          33.250                  
  21163094.940   111212816.142                          47.250                  
  21163097.740    86659337.665                          40.250                  
  20514960.364   107806844.520                          49.500                  
  20514966.364    84005333.040                          51.500                  
  23142799.646   121616231.726                          42.250                  
  23142805.546    94765894.839                          44.000                  
  22753904.390   119572573.018                          44.500                  
  22753909.090    93173433.150                          31.750                  
  24047789.180   126371985.560                          45.000                  
  24047793.500    98471676.441                          40.500                  
 16 10  2  7 59  0.0000000  0  8G 5G16G20G21G26G27G29G31
  24462998.298   128553921.141                          42.500                  
  24463002.858   100171885.786                          38.250                  
  21143145.340   111107981.238                          47.000                  
  21143147.760    86577647.491                          37.500                  
  22252366.992   116936980.020                          46.500                  
  22252370.272    91119724.085                          33.750                  
  21163131.080   111213004.407                          47.000                  
  21163133.600    86659484.369                          40.500                  
  20514955.724   107806821.240                          49.250                  
  20514962.084    84005314.902                          51.750                  
  23142217.186   121613168.731                          42.000                  
  23142222.986    94763508.090                          44.000                  
  22754467.870   119575535.809                          44.250                  
  22754472.450    93175741.814                          31.500                  
  24048447.240   126375444.172                          44.750                  
  24048451.360    98474371.466                          40.750                  
 16 10  2  7 59  1.0000000  0  8G 5G16G20G21G26G27G29G31
  24463414.938   128556110.572                          42.000                  
  24463419.618   100173591.839                          38.000                  
  21142778.420   111106051.736                          47.500                  
  21142780.900    86576143.983                          38.000                  
  22252233.152   116936273.996                          46.250                  
  22252235.912    91119173.934                          33.250                  
  21163166.780   111213192.902                          46.500                  
  21163169.440    86659631.249                          40.500                  
  20514951.644   107806798.315                          49.250                  
  20514957.844    84005297.038                          51.750                  
  23141634.406   121610105.642                          42.500                  
  23141640.046    94761121.269                          43.750                  
  22755031.470   119578498.543                          44.500                  
  22755036.270    93178050.434                          31.750                  
  24049105.720   126378902.671                          45.000                  
  24049109.600    98477066.398                          41.000                  
 16 10  2  7 59  2.0000000  0  8G 5G16G20G21G26G27G29G31
  24463831.958   128558301.483                          42.000                  
  24463836.238   100175299.053                          38.000                  
  21142411.360   111104123.677                          47.500                  
  21142414.180    86574641.601                          37.750                  
  22252098.892   116935569.613                          46.000                  
  22252101.892    91118625.061                          33.500                  
  21163202.900   111213382.832                          46.250                  
  21163205.600    86659779.246                          40.500                  
  20514947.064   107806776.980                          49.500                  
  20514953.364    84005280.415                          52.250                  
  23141051.706   121607043.704                          43.000                  
  23141057.066    94758735.343                          43.750                  
  22755595.790   119581462.431                          44.500                  
  22755600.330    93180359.963                          31.750                  
  24049763.400   126382362.253                          44.500                  
  24049767.720    98479762.172                          40.500                  
 16 10  2  7 59  3.0000000  0  8G 5G16G20G21G26G27G29G31
  24464248.558   128560491.756                          42.000                  
  24464253.158   100177005.758                          38.500                  
  21142044.260   111102194.942                          47.500                  
  21142046.760    86573138.687                          37.750                  
  22251964.552   116934864.698                          46.250                  
  22251967.692    91118075.782                          33.500                  
  21163239.040   111213572.085                          46.500                  
  21163241.820    86659926.719                          40.000                  
  20514943.084   107806755.074                          49.750                  
  20514949.704    84005263.340                          52.250                  
  23140469.106   121603980.777                          43.250                  
  23140474.366    94756348.647                          44.500                  
  22756159.590   119584425.306                          44.000                  
  22756164.490    93182668.695                          32.000                  
  24050421.540   126385820.812                          44.500                  
  24050426.040    98482457.153                          40.750                  
 16 10  2  7 59  4.0000000  0  8G 5G16G20G21G26G27G29G31
  24464665.518   128562683.382                          41.750                  
  24464670.318   100178713.515                          38.250                  
  21141677.480   111100267.513                          47.000                  
  21141680.100    86571636.796                          38.000                  
  22251830.632   116934161.293                          46.750                  
  22251833.552    91117527.670                          33.500                  
  21163275.660   111213762.666                          46.750                  
  21163277.580    86660075.223                          39.750                  
  20514939.424   107806734.621                          49.000                  
  20514945.524    84005247.401                          51.750                  
  23139886.226   121600918.857                          43.000                  
  23139891.806    94753962.734                          44.750                  
  22756723.250   119587389.212                          44.000                  
  22756728.550    93184978.230                          31.250                  
  24051080.180   126389280.365                          43.750                  
  24051084.400    98485152.909                          40.250                  
 16 10  2  7 59  5.0000000  0  8G 5G16G20G21G26G27G29G31
  24465082.778   128564874.702                          41.750                  
  24465087.518   100180421.033                          38.000                  
  21141311.040   111098339.730                          47.000                  
  21141313.420    86570134.625                          38.000                  
  22251696.752   116933457.714                          47.000                  
  22251700.112    91116979.431                          33.750                  
  21163311.860   111213952.880                          47.250                  
  21163313.940    86660223.445                          40.250                  
  20514935.544   107806713.935                          48.750                  
  20514941.864    84005231.277                          51.750                  
  23139303.626   121597856.267                          43.000                  
  23139309.106    94751576.306                          45.000                  
  22757287.290   119590352.437                          44.250                  
  22757292.370    93187287.228                          32.000                  
  24051738.060   126392739.177                          43.750                  
  24051742.620    98487848.083                          40.750                  
 16 10  2  7 59  6.0000000  0  8G 5G16G20G21G26G27G29G31
  24465499.658   128567066.636                          42.250                  
  24465504.238   100182129.031                          37.750                  
  21140943.960   111096412.514                          47.250                  
  21140946.440    86568632.905                          38.250                  
  22251563.212   116932754.872                          47.500                  
  22251566.552    91116431.760                          33.500                  
  21163348.200   111214143.691                          47.500                  
  21163350.520    86660372.127                          40.500                  
  20514931.904   107806693.966                          49.250                  
  20514938.364    84005215.719                          51.500                  
  23138721.126   121594793.953                          42.500                  
  23138726.526    94749190.089                          44.500                  
  22757851.690   119593315.935                          43.750                  
  22757856.170    93189596.450                          31.500                  
  24052396.880   126396198.217                          44.000                  
  24052400.980    98490543.433                          40.750                  
 16 10  2  7 59  7.0000000  0  8G 5G16G20G21G26G27G29G31
  24465917.458   128569260.468                          42.250                  
  24465921.818   100183838.509                          37.750                  
  21140577.420   111094487.158                          47.500                  
  21140579.980    86567132.632                          38.500                  
  22251429.772   116932054.037                          48.000                  
  22251432.812    91115885.654                          33.500                  
  21163385.020   111214336.324                          47.750                  
  21163387.280    86660522.233                          40.250                  
  20514927.904   107806675.946                          49.500                  
  20514934.544    84005201.678                          51.750                  
  23138137.886   121591733.155                          42.500                  
  23138144.086    94746805.054                          45.000                  
  22758415.850   119596280.942                          44.000                  
  22758420.350    93191906.845                          31.500                  
  24053055.460   126399658.758                          44.000                  
  24053059.320    98493239.946                          40.500                  
 16 10  2  7 59  8.0000000  0  8G 5G16G20G21G26G27G29G31
  24466334.898   128571454.041                          42.500                  
  24466339.038   100185547.791                          37.750                  
  21140210.880   111092561.511                          47.250                  
  21140213.720    86565632.121                          38.500                  
  22251296.512   116931353.133                          48.000                  
  22251299.612    91115339.500                          33.500                  
  21163420.860   111214528.672                          47.750                  
  21163423.760    86660672.110                          40.500                  
  20514924.884   107806657.766                          49.500                  
  20514931.184    84005187.514                          52.000                  
  23137555.346   121588671.779                          42.500                  
  23137561.166    94744419.564                          45.000                  
  22758979.750   119599245.365                          44.500                  
  22758984.410    93194216.779                          31.250                  
  24053714.000   126403118.657                          44.500                  
  24053718.060    98495935.967                          40.750                  
 16 10  2  7 59  9.0000000  0  8G 5G16G20G21G26G27G29G31
  24466752.218   128573648.405                          42.500                  
  24466756.178   100187257.686                          38.250                  
  21139844.480   111090636.605                          46.500                  
  21139847.260    86564132.196                          38.000                  
  22251162.952   116930653.126                          48.000                  
  22251166.132    91114794.033                          33.750                  
  21163457.760   111214721.768                          47.500                  
  21163460.460    86660822.573                          41.000                  
  20514921.464   107806640.462                          49.500                  
  20514927.744    84005174.029                          52.250                  
  23136973.086   121585610.844                          42.250                  
  23136978.746    94742034.422                          45.000                  
  22759543.850   119602210.233                          44.000                  
  22759548.750    93196527.061                          31.250                  
  24054372.720   126406578.930                          44.750                  
  24054376.100    98498632.286                          40.500                  
 16 10  2  7 59 10.0000000  0  8G 5G16G20G21G26G27G29G31
  24467170.178   128575842.290                          42.750                  
  24467174.018   100188967.209                          38.250                  
  21139478.540   111088711.202                          46.500                  
  21139481.140    86562631.884                          37.750                  
  22251029.532   116929952.782                          48.000                  
  22251032.752    91114248.309                          33.500                  
  21163494.580   111214914.368                          47.500                  
  21163497.340    86660972.648                          40.500                  
  20514918.124   107806622.802                          49.500                  
  20514924.424    84005160.267                          51.500                  
  23136390.666   121582549.082                          42.500                  
  23136396.086    94739648.639                          45.000                  
  22760108.410   119605174.262                          44.250                  
  22760112.810    93198836.694                          31.000                  
  24055030.520   126410038.365                          44.500                  
  24055034.640    98501327.957                          40.500                  
 16 10  2  7 59 11.0000000  0  8G 5G16G20G21G26G27G29G31
  24467588.378   128578037.192                          42.500                  
  24467591.818   100190677.527                          38.250                  
  21139111.720   111086786.737                          47.500                  
  21139114.800    86561132.301                          38.250                  
  22250896.512   116929253.581                          48.500                  
  22250899.872    91113703.483                          33.500                  
  21163531.760   111215107.916                          47.500                  
  21163534.200    86661123.465                          40.500                  
  20514914.904   107806606.186                          49.750                  
  20514921.304    84005147.319                          51.750                  
  23135808.566   121579487.969                          42.750                  
  23135813.746    94737263.356                          45.000                  
  22760672.270   119608138.943                          43.500                  
  22760676.990    93201146.839                          31.500                  
  24055688.540   126413498.385                          44.250                  
  24055692.900    98504024.081                          40.500                  
 16 10  2  7 59 12.0000000  0  8G 5G16G20G21G26G27G29G31
  24468005.738   128580233.321                          43.000                  
  24468009.438   100192388.792                          38.500                  
  21138745.820   111084863.470                          46.250                  
  21138748.420    86559633.654                          37.750                  
  22250763.732   116928555.760                          48.250                  
  22250767.232    91113159.726                          33.500                  
  21163568.540   111215302.652                          47.000                  
  21163571.060    86661275.213                          40.000                  
  20514912.044   107806590.915                          49.000                  
  20514918.364    84005135.425                          51.500                  
  23135226.186   121576427.749                          43.000                  
  23135231.426    94734878.777                          44.500                  
  22761236.370   119611104.501                          43.750                  
  22761240.970    93203457.664                          31.750                  
  24056347.520   126416959.239                          44.000                  
  24056351.320    98506720.854                          40.500                  
 16 10  2  7 59 13.0000000  0  8G 5G16G20G21G26G27G29G31
  24468423.078   128582429.501                          42.500                  
  24468427.398   100194100.089                          38.500                  
  21138380.180   111082940.201                          46.250                  
  21138382.760    86558135.000                          37.500                  
  22250631.072   116927858.098                          47.500                  
  22250634.512    91112616.096                          34.500                  
  21163604.740   111215497.398                          46.750                  
  21163608.040    86661426.960                          40.250                  
  20514909.224   107806575.754                          48.500                  
  20514915.684    84005123.608                          51.750                  
  23134643.446   121573367.208                          43.000                  
  23134648.586    94732493.933                          44.500                  
  22761800.550   119614069.763                          43.000                  
  22761805.290    93205768.249                          31.750                  
  24057005.960   126420419.787                          44.000                  
  24057009.840    98509417.379                          40.750                  
 16 10  2  7 59 14.0000000  0  8G 5G16G20G21G26G27G29G31
  24468841.818   128584625.848                          42.000                  
  24468845.758   100195811.520                          38.500                  
  21138014.320   111081017.073                          46.500                  
  21138016.720    86556636.457                          37.500                  
  22250498.332   116927160.750                          47.500                  
  22250501.672    91112072.708                          34.000                  
  21163642.560   111215692.289                          47.000                  
  21163645.360    86661578.827                          40.000                  
  20514906.244   107806560.874                          48.500                  
  20514912.324    84005112.013                          52.500                  
  23134061.026   121570306.515                          42.500                  
  23134066.606    94730108.973                          44.500                  
  22762365.430   119617034.843                          43.500                  
  22762369.650    93208078.703                          31.000                  
  24057664.100   126423880.076                          43.750                  
  24057668.260    98512113.700                          40.500                  
 16 10  2  7 59 15.0000000  0  8G 5G16G20G21G26G27G29G31
  24469259.638   128586822.878                          41.750                  
  24469263.598   100197523.488                          38.250                  
  21137648.220   111079094.547                          46.500                  
  21137650.800    86555138.387                          38.250                  
  22250365.872   116926464.232                          47.500                  
  22250369.252    91111529.962                          34.000                  
  21163680.040   111215887.797                          46.750                  
  21163682.380    86661731.165                          40.500                  
  20514903.684   107806546.749                          49.000                  
  20514910.144    84005101.000                          51.750                  
  23133478.306   121567246.124                          42.500                  
  23133484.126    94727724.245                          44.500                  
  22762928.850   119620000.254                          43.500                  
  22762933.750    93210389.409                          30.750                  
  24058323.100   126427340.643                          44.000                  
  24058326.640    98514810.241                          40.000                  
 16 10  2  7 59 16.0000000  0  8G 5G16G20G21G26G27G29G31
  24469677.458   128589020.187                          42.000                  
  24469681.258   100199235.676                          38.000                  
  21137282.640   111077172.329                          46.750                  
  21137285.160    86553640.555                          38.500                  
  22250233.572   116925768.142                          47.500                  
  22250236.692    91110987.563                          34.000                  
  21163717.060   111216083.584                          46.000                  
  21163719.760    86661883.728                          40.500                  
  20514901.364   107806533.001                          49.250                  
  20514907.404    84005090.290                          51.500                  
  23132896.326   121564185.702                          42.750                  
  23132901.806    94725339.496                          44.500                  
  22763493.610   119622965.618                          43.000                  
  22763497.990    93212700.078                          30.750                  
  24058981.120   126430801.131                          44.000                  
  24058985.460    98517506.726                          39.750                  
 16 10  2  7 59 17.0000000  0  8G 5G16G20G21G26G27G29G31
  24470095.658   128591218.805                          42.000                  
  24470099.778   100200948.889                          38.000                  
  21136916.840   111075251.324                          47.000                  
  21136919.640    86552143.670                          38.000                  
  22250101.292   116925073.458                          46.500                  
  22250104.272    91110446.246                          34.000                  
  21163754.640   111216280.603                          45.750                  
  21163757.220    86662037.252                          40.500                  
  20514898.624   107806520.626                          49.500                  
  20514905.144    84005080.649                          51.500                  
  23132313.746   121561126.192                          42.750                  
  23132319.346    94722955.466                          44.500                  
  22764057.950   119625931.915                          43.000                  
  22764062.850    93215011.478                          31.000                  
  24059640.100   126434262.507                          43.750                  
  24059643.740    98520203.900                          39.750                  
 16 10  2  7 59 18.0000000  0  8G 5G16G20G21G26G27G29G31
  24470514.338   128593417.204                          41.500                  
  24470518.018   100202661.927                          37.500                  
  21136551.000   111073330.065                          47.000                  
  21136554.120    86550646.583                          38.250                  
  22249969.512   116924378.713                          47.000                  
  22249972.372    91109904.889                          33.750                  
  21163792.000   111216477.376                          46.000                  
  21163794.700    86662190.580                          40.500                  
  20514896.264   107806508.135                          49.500                  
  20514902.784    84005070.911                          51.500                  
  23131731.566   121558066.134                          42.750                  
  23131737.026    94720571.022                          45.000                  
  22764622.130   119628897.620                          42.500                  
  22764627.070    93217322.414                          31.250                  
  24060298.240   126437723.276                          43.750                  
  24060302.380    98522900.605                          39.750                  
 16 10  2  7 59 19.0000000  0  8G 5G16G20G21G26G27G29G31
  24470932.898   128595616.318                          41.500                  
  24470937.138   100204375.523                          37.250                  
  21136185.880   111071409.520                          47.000                  
  21136188.920    86549150.058                          38.750                  
  22249836.892   116923684.846                          47.500                  
  22249840.512    91109364.209                          34.000                  
  21163830.140   111216674.834                          47.000                  
  21163832.020    86662344.444                          40.000                  
  20514894.064   107806496.434                          49.500                  
  20514900.564    84005061.798                          51.500                  
  23131149.526   121555006.493                          42.750                  
  23131154.666    94718186.892                          45.000                  
  22765186.470   119631863.746                          43.000                  
  22765190.850    93219633.677                          30.750                  
  24060957.320   126441184.387                          44.250                  
  24060961.240    98525597.575                          39.750                  
 16 10  2  7 59 20.0000000  0  8G 5G16G20G21G26G27G29G31
  24471350.718   128597815.138                          42.000                  
  24471355.218   100206088.893                          37.250                  
  21135820.400   111069488.610                          47.250                  
  21135823.220    86547653.241                          38.500                  
  22249705.372   116922990.772                          47.750                  
  22249708.312    91108823.376                          33.500                  
  21163867.180   111216871.947                          46.750                  
  21163870.020    86662498.041                          40.250                  
  20514891.684   107806484.539                          49.500                  
  20514898.704    84005052.530                          51.500                  
  23130567.386   121551946.144                          42.750                  
  23130572.646    94715802.206                          44.500                  
  22765751.190   119634829.173                          43.500                  
  22765755.490    93221944.393                          30.500                  
  24061615.700   126444644.775                          44.000                  
  24061619.380    98528293.979                          39.750                  
 16 10  2  7 59 21.0000000  0  8G 5G16G20G21G26G27G29G31
  24471770.618   128600016.509                          42.000                  
  24471773.938   100207804.247                          37.500                  
  21135455.460   111067570.210                          47.500                  
  21135458.000    86546158.384                          38.000                  
  22249573.092   116922299.432                          47.250                  
  22249576.452    91108284.668                          33.500                  
  21163904.900   111217071.576                          47.250                  
  21163907.940    86662653.593                          40.000                  
  20514889.944   107806475.275                          49.250                  
  20514896.304    84005045.315                          51.750                  
  23129985.266   121548888.028                          42.750                  
  23129990.826    94713419.255                          45.000                  
  22766316.010   119637796.821                          44.000                  
  22766320.190    93224256.847                          31.500                  
  24062274.680   126448107.324                          44.000                  
  24062278.760    98530992.075                          40.000                  
 16 10  2  7 59 22.0000000  0  8G 5G16G20G21G26G27G29G31
  24472189.338   128602217.865                          41.750                  
  24472193.378   100209519.589                          37.500                  
  21135089.880   111065651.759                          47.500                  
  21135092.560    86544663.489                          38.000                  
  22249441.752   116921608.180                          47.500                  
  22249444.712    91107746.019                          33.500                  
  21163943.200   111217271.133                          47.250                  
  21163945.600    86662809.095                          40.250                  
  20514887.884   107806466.071                          49.000                  
  20514894.764    84005038.140                          51.750                  
  23129402.266   121545829.543                          42.500                  
  23129408.766    94711036.018                          44.500                  
  22766881.270   119640764.092                          44.500                  
  22766884.610    93226569.005                          31.000                  
  24062932.760   126451569.480                          44.000                  
  24062937.660    98533689.859                          40.500                  
 16 10  2  7 59 23.0000000  0  8G 5G16G20G21G26G27G29G31
  24472608.138   128604418.671                          42.000                  
  24472611.778   100211234.501                          38.000                  
  21134724.880   111063732.704                          47.250                  
  21134727.540    86543168.120                          38.000                  
  22249310.172   116920916.512                          48.000                  
  22249313.232    91107207.064                          34.000                  
  21163981.060   111217470.102                          48.000                  
  21163983.380    86662964.131                          40.000                  
  20514886.324   107806456.407                          49.500                  
  20514892.924    84005030.610                          51.750                  
  23128820.246   121542770.124                          42.750                  
  23128826.586    94708652.047                          45.000                  
  22767445.110   119643730.447                          44.000                  
  22767449.350    93228880.454                          31.000                  
  24063591.880   126455030.657                          43.500                  
  24063595.960    98536386.878                          40.750                  
 16 10  2  7 59 24.0000000  0  8G 5G16G20G21G26G27G29G31
  24473027.318   128606620.570                          41.500                  
  24473030.778   100212950.260                          38.250                  
  21134360.000   111061814.695                          47.500                  
  21134362.720    86541673.567                          37.750                  
  22249179.092   116920226.069                          47.750                  
  22249182.332    91106669.056                          33.750                  
  21164018.620   111217670.111                          47.500                  
  21164021.380    86663119.981                          39.250                  
  20514884.724   107806447.896                          48.500                  
  20514891.284    84005023.978                          51.750                  
  23128238.186   121539711.457                          42.750                  
  23128244.366    94706268.670                          45.000                  
  22768009.570   119646697.519                          44.000                  
  22768014.110    93231192.460                          31.000                  
  24064250.780   126458492.545                          43.500                  
  24064255.240    98539084.449                          40.500                  
 16 10  2  7 59 25.0000000  0  8G 5G16G20G21G26G27G29G31
  24473446.018   128608822.146                          42.250                  
  24473449.658   100214665.770                          37.750                  
  21133995.040   111059896.373                          48.000                  
  21133997.960    86540178.771                          38.500                  
  22249047.652   116919535.486                          47.500                  
  22249050.712    91106130.941                          33.000                  
  21164057.060   111217869.800                          48.000                  
  21164059.520    86663275.578                          40.000                  
  20514883.244   107806439.210                          48.750                  
  20514889.664    84005017.210                          51.750                  
  23127656.286   121536652.180                          42.500                  
  23127662.046    94703884.822                          45.500                  
  22768574.350   119649663.970                          44.000                  
  22768578.490    93233503.983                          31.500                  
  24064909.940   126461953.764                          43.250                  
  24064913.760    98541781.494                          40.500                  
 16 10  2  7 59 26.0000000  0  8G 5G16G20G21G26G27G29G31
  24473865.198   128611025.299                          42.000                  
  24473869.238   100216382.514                          38.250                  
  21133630.220   111057979.528                          48.250                  
  21133633.000    86538685.124                          38.000                  
  22248916.472   116918846.564                          47.500                  
  22248919.552    91105594.119                          33.250                  
  21164095.500   111218070.994                          47.750                  
  21164097.820    86663432.351                          40.000                  
  20514881.644   107806432.136                          49.000                  
  20514888.304    84005011.698                          52.000                  
  23127074.586   121533594.065                          43.000                  
  23127079.926    94701501.891                          45.000                  
  22769138.530   119652631.591                          44.000                  
  22769143.490    93235816.415                          31.750                  
  24065568.540   126465416.105                          43.750                  
  24065572.620    98544479.416                          41.000                  
 16 10  2  7 59 27.0000000  0  8G 5G16G20G21G26G27G29G31
  24474284.798   128613228.798                          41.500                  
  24474288.258   100218099.535                          38.000                  
  21133265.320   111056063.038                          47.500                  
  21133268.140    86537191.756                          38.250                  
  22248785.292   116918158.149                          47.000                  
  22248788.912    91105057.690                          32.500                  
  21164133.540   111218272.506                          47.000                  
  21164136.060    86663589.379                          39.500                  
  20514880.764   107806425.518                          49.250                  
  20514886.984    84005006.536                          51.750                  
  23126492.806   121530535.976                          43.500                  
  23126498.246    94699118.973                          44.750                  
  22769703.410   119655599.257                          44.000                  
  22769708.090    93238128.886                          31.500                  
  24066227.480   126468878.429                          43.500                  
  24066231.420    98547177.317                          40.750                  
 16 10  2  7 59 28.0000000  0  8G 5G16G20G21G26G27G29G31
  24474703.678   128615432.716                          42.000                  
  24474707.738   100219816.869                          38.000                  
  21132900.740   111054146.913                          47.500                  
  21132903.760    86535698.674                          38.000                  
  22248654.712   116917470.296                          47.250                  
  22248657.972    91104521.699                          33.250                  
  21164172.080   111218474.384                          46.750                  
  21164174.480    86663746.685                          40.000                  
  20514879.504   107806419.411                          49.250                  
  20514885.844    84005001.778                          51.750                  
  23125911.246   121527477.968                          43.750                  
  23125916.046    94696736.108                          44.750                  
  22770267.930   119658566.973                          44.000                  
  22770272.510    93240441.379                          31.250                  
  24066886.560   126472340.759                          44.000                  
  24066890.300    98549875.233                          40.750                  
 16 10  2  7 59 29.0000000  0  8G 5G16G20G21G26G27G29G31
  24475122.938   128617636.898                          41.750                  
  24475127.478   100221534.420                          38.000                  
  21132536.560   111052231.021                          47.750                  
  21132539.220    86534205.770                          38.500                  
  22248523.552   116916782.851                          47.250                  
  22248527.232    91103986.031                          32.750                  
  21164210.900   111218676.495                          47.250                  
  21164212.940    86663904.182                          39.750                  
  20514878.264   107806413.660                          49.250                  
  20514884.484    84004997.294                          52.000                  
  23125329.446   121524419.879                          43.750                  
  23125334.146    94694353.181                          44.750                  
  22770833.050   119661534.612                          43.750                  
  22770837.450    93242753.830                          31.250                  
  24067545.280   126475802.976                          44.000                  
  24067548.840    98552573.058                          41.250                  
 16 10  2  7 59 30.0000000  0  8G 5G16G20G21G26G27G29G31
  24475543.058   128619841.751                          41.500                  
  24475547.178   100223252.487                          38.000                  
  21132172.120   111050315.732                          46.750                  
  21132174.800    86532713.334                          37.750                  
  22248392.892   116916096.162                          47.500                  
  22248396.132    91103450.953                          33.000                  
  21164249.040   111218879.229                          47.250                  
  21164251.540    86664062.152                          39.750                  
  20514877.884   107806408.641                          49.250                  
  20514883.704    84004993.384                          52.000                  
  23124747.086   121521362.077                          43.500                  
  23124752.506    94691970.474                          44.500                  
  22771397.450   119664502.527                          43.000                  
  22771402.270    93245066.489                          31.250                  
  24068204.180   126479265.406                          44.500                  
  24068207.960    98555271.051                          41.500                  
 16 10  2  7 59 31.0000000  0  8G 5G16G20G21G26G27G29G31
  24475962.478   128622047.497                          42.000                  
  24475966.918   100224971.238                          37.500                  
  21131807.780   111048401.317                          47.000                  
  21131810.340    86531221.586                          38.250                  
  22248262.352   116915410.551                          47.250                  
  22248265.792    91102916.709                          33.000                  
  21164287.780   111219082.841                          47.250                  
  21164290.260    86664220.807                          40.500                  
  20514876.784   107806404.610                          49.250                  
  20514882.944    84004990.243                          52.000                  
  23124165.086   121518304.855                          43.000                  
  23124170.326    94689588.219                          44.500                  
  22771962.410   119667471.055                          43.500                  
  22771967.470    93247379.623                          30.750                  
  24068862.880   126482728.388                          44.750                  
  24068866.960    98557969.476                          41.250                  
 16 10  2  7 59 32.0000000  0  8G 5G16G20G21G26G27G29G31
  24476382.138   128624253.797                          42.000                  
  24476386.198   100226690.429                          38.000                  
  21131443.240   111046487.409                          47.000                  
  21131446.160    86529730.230                          38.000                  
  22248132.072   116914725.633                          47.500                  
  22248135.712    91102383.002                          33.250                  
  21164326.740   111219286.954                          47.250                  
  21164328.800    86664379.858                          40.000                  
  20514875.924   107806401.224                          49.000                  
  20514882.324    84004987.602                          52.000                  
  23123583.326   121515247.832                          42.750                  
  23123589.026    94687206.117                          44.500                  
  22772527.990   119670439.743                          43.750                  
  22772531.930    93249692.884                          30.750                  
  24069522.300   126486191.488                          44.500                  
  24069525.740    98560667.992                          40.750                  
 16 10  2  7 59 33.0000000  0  8G 5G16G20G21G26G27G29G31
  24476802.338   128626460.027                          42.000                  
  24476805.918   100228409.563                          38.250                  
  21131079.300   111044573.420                          47.000                  
  21131081.840    86528238.806                          37.750                  
  22248002.052   116914040.784                          47.500                  
  22248005.332    91101849.354                          33.750                  
  21164365.520   111219490.960                          47.000                  
  21164368.180    86664538.826                          40.000                  
  20514875.164   107806397.866                          49.000                  
  20514881.424    84004984.991                          51.750                  
  23123001.226   121512190.416                          42.500                  
  23123007.066    94684823.707                          45.000                  
  22773092.490   119673408.020                          44.250                  
  22773096.830    93252005.822                          31.500                  
  24070181.080   126489654.162                          45.000                  
  24070184.800    98563366.181                          40.500                  
 16 10  2  7 59 34.0000000  0  8G 5G16G20G21G26G27G29G31
  24477222.818   128628666.808                          42.500                  
  24477226.398   100230129.130                          38.250                  
  21130714.860   111042659.928                          47.000                  
  21130717.800    86526747.777                          38.000                  
  22247871.572   116913356.628                          47.750                  
  22247875.152    91101316.245                          33.750                  
  21164404.660   111219695.502                          47.000                  
  21164407.120    86664698.207                          40.000                  
  20514874.464   107806395.151                          49.000                  
  20514881.204    84004982.877                          52.000                  
  23122420.006   121509133.168                          43.000                  
  23122425.526    94682441.437                          45.500                  
  22773657.250   119676376.498                          44.000                  
  22773661.950    93254318.923                          31.000                  
  24070839.640   126493117.012                          44.750                  
  24070843.240    98566064.506                          40.000                  
 16 10  2  7 59 35.0000000  0  8G 5G16G20G21G26G27G29G31
  24477642.038   128630874.180                          42.500                  
  24477646.318   100231849.161                          38.250                  
  21130351.100   111040747.019                          47.250                  
  21130353.600    86525257.198                          38.250                  
  22247741.852   116912673.190                          47.500                  
  22247745.152    91100783.694                          33.750                  
  21164443.660   111219900.577                          47.500                  
  21164446.200    86664858.006                          40.000                  
  20514874.504   107806393.123                          49.000                  
  20514880.684    84004981.296                          52.000                  
  23121838.186   121506076.214                          43.500                  
  23121843.386    94680059.402                          46.000                  
  22774222.490   119679345.238                          44.250                  
  22774226.750    93256632.223                          31.000                  
  24071498.760   126496580.047                          44.750                  
  24071502.720    98568762.977                          40.000                  
 16 10  2  7 59 36.0000000  0  8G 5G16G20G21G26G27G29G31
  24478062.578   128633081.828                          42.500                  
  24478066.518   100233569.416                          38.000                  
  21129987.380   111038834.325                          47.000                  
  21129989.880    86523766.788                          38.250                  
  22247611.872   116911990.180                          47.750                  
  22247614.792    91100251.478                          33.500                  
  21164482.780   111220105.909                          47.000                  
  21164485.040    86665018.003                          40.500                  
  20514874.024   107806391.468                          48.750                  
  20514880.704    84004979.998                          52.000                  
  23121256.766   121503019.157                          43.000                  
  23121261.846    94677677.286                          45.500                  
  22774787.250   119682313.905                          43.500                  
  22774791.810    93258945.470                          30.750                  
  24072158.220   126500042.939                          44.250                  
  24072161.440    98571461.334                          40.500                  
 16 10  2  7 59 37.0000000  0  8G 5G16G20G21G26G27G29G31
  24478482.218   128635290.830                          42.500                  
  24478486.458   100235290.718                          38.000                  
  21129623.220   111036922.909                          47.000                  
  21129625.980    86522277.374                          38.500                  
  22247482.352   116911308.623                          47.750                  
  22247485.052    91099720.399                          33.000                  
  21164522.040   111220312.495                          47.250                  
  21164524.500    86665178.975                          40.500                  
  20514873.984   107806391.194                          48.500                  
  20514880.524    84004979.785                          52.500                  
  23120674.886   121499963.089                          42.750                  
  23120680.626    94675295.940                          45.500                  
  22775352.230   119685283.502                          43.500                  
  22775356.630    93261259.444                          30.250                  
  24072817.120   126503506.772                          44.250                  
  24072820.960    98574160.429                          40.250                  
 16 10  2  7 59 38.0000000  0  8G 5G16G20G21G26G27G29G31
  24478902.978   128637500.236                          42.250                  
  24478907.278   100237012.333                          38.250                  
  21129259.980   111035011.952                          47.250                  
  21129262.360    86520788.321                          38.000                  
  22247352.392   116910627.662                          48.000                  
  22247355.352    91099189.776                          33.250                  
  21164561.120   111220519.533                          47.250                  
  21164563.520    86665340.307                          40.250                  
  20514873.904   107806391.491                          48.750                  
  20514880.744    84004980.016                          52.250                  
  23120093.146   121496907.146                          42.750                  
  23120098.526    94672914.692                          45.500                  
  22775917.610   119688253.243                          43.500                  
  22775921.590    93263573.530                          31.000                  
  24073476.100   126506970.699                          44.500                  
  24073479.780    98576859.597                          40.250                  
 16 10  2  7 59 39.0000000  0  8G 5G16G20G21G26G27G29G31
  24479323.378   128639709.844                          42.250                  
  24479327.438   100238734.114                          38.500                  
  21128896.060   111033101.103                          47.500                  
  21128898.580    86519299.343                          37.750                  
  22247222.952   116909947.022                          47.750                  
  22247225.772    91098659.407                          34.000                  
  21164600.920   111220726.689                          47.500                  
  21164603.320    86665501.732                          40.000                  
  20514873.864   107806392.048                          49.000                  
  20514880.464    84004980.454                          52.250                  
  23119511.766   121493851.017                          42.500                  
  23119516.986    94670533.287                          45.000                  
  22776482.810   119691222.819                          43.500                  
  22776487.030    93265887.481                          31.000                  
  24074135.480   126510434.380                          44.500                  
  24074139.240    98579558.569                          40.500                  
 16 10  2  7 59 40.0000000  0  8G 5G16G20G21G26G27G29G31
  24479743.378   128641919.850                          42.250                  
  24479747.938   100240456.198                          38.250                  
  21128532.220   111031190.613                          48.000                  
  21128535.440    86517810.651                          38.000                  
  22247093.392   116909266.900                          47.250                  
  22247096.732    91098129.442                          34.000                  
  21164640.240   111220934.211                          47.750                  
  21164642.840    86665663.431                          40.250                  
  20514874.144   107806393.076                          48.500                  
  20514880.544    84004981.253                          52.250                  
  23118930.146   121490794.909                          42.750                  
  23118936.046    94668151.904                          44.750                  
  22777047.570   119694192.390                          43.500                  
  22777052.230    93268201.432                          30.000                  
  24074794.260   126513898.042                          44.500                  
  24074798.160    98582257.529                          40.500                  
 16 10  2  7 59 41.0000000  0  8G 5G16G20G21G26G27G29G31
  24480164.738   128644130.753                          42.250                  
  24480168.918   100242178.981                          38.000                  
  21128169.100   111029280.976                          48.250                  
  21128171.760    86516322.625                          38.250                  
  22246964.312   116908587.810                          47.500                  
  22246967.472    91097600.281                          33.750                  
  21164679.640   111221142.575                          47.500                  
  21164682.140    86665825.791                          40.000                  
  20514874.804   107806395.078                          48.750                  
  20514881.004    84004982.815                          52.000                  
  23118348.246   121487739.393                          42.500                  
  23118354.486    94665770.986                          44.000                  
  22777612.790   119697162.541                          43.500                  
  22777617.310    93270515.832                          30.500                  
  24075453.520   126517362.233                          44.500                  
  24075457.380    98584956.900                          40.500                  
 16 10  2  7 59 42.0000000  0  8G 5G16G20G21G26G27G29G31
  24480585.618   128646341.557                          42.500                  
  24480589.018   100243901.683                          38.250                  
  21127805.380   111027371.227                          48.000                  
  21127808.320    86514834.508                          38.000                  
  22246835.132   116907908.780                          47.500                  
  22246838.192    91097071.167                          33.500                  
  21164719.780   111221350.793                          47.250                  
  21164722.140    86665988.045                          40.250                  
  20514874.984   107806397.083                          48.750                  
  20514881.544    84004984.375                          52.250                  
  23117766.906   121484683.403                          43.000                  
  23117772.326    94663389.697                          44.250                  
  22778177.750   119700132.243                          43.750                  
  22778182.670    93272829.881                          31.500                  
  24076112.640   126520825.926                          44.500                  
  24076116.540    98587655.874                          40.500                  
 16 10  2  7 59 43.0000000  0  8G 5G16G20G21G26G27G29G31
  24481006.158   128648553.549                          42.500                  
  24481010.258   100245625.309                          38.250                  
  21127442.520   111025462.646                          47.500                  
  21127444.760    86513347.301                          37.750                  
  22246705.732   116907231.081                          47.750                  
  22246709.072    91096543.091                          33.250                  
  21164759.300   111221560.204                          47.250                  
  21164761.680    86666151.224                          40.000                  
  20514875.724   107806400.383                          48.500                  
  20514882.024    84004986.949                          51.750                  
  23117186.066   121481628.262                          43.250                  
  23117191.686    94661009.066                          44.500                  
  22778743.210   119703102.791                          44.000                  
  22778747.850    93275144.592                          31.750                  
  24076771.620   126524290.437                          45.000                  
  24076775.640    98590355.485                          40.750                  
 16 10  2  7 59 44.0000000  0  8G 5G16G20G21G26G27G29G31
  24481427.258   128650765.477                          42.500                  
  24481430.978   100247348.885                          38.750                  
  21127079.260   111023553.949                          47.500                  
  21127082.000    86511860.001                          38.000                  
  22246577.232   116906553.459                          47.250                  
  22246580.152    91096015.077                          33.500                  
  21164799.160   111221769.509                          47.000                  
  21164801.680    86666314.315                          40.250                  
  20514876.244   107806403.701                          48.000                  
  20514882.664    84004989.533                          51.750                  
  23116604.646   121478572.756                          43.000                  
  23116610.146    94658628.146                          44.750                  
  22779308.190   119706072.903                          44.000                  
  22779312.650    93277458.959                          31.500                  
  24077431.200   126527754.457                          45.000                  
  24077435.140    98593054.714                          40.500                  
 16 10  2  7 59 45.0000000  0  8G 5G16G20G21G26G27G29G31
  24481848.698   128652977.981                          42.250                  
  24481852.198   100249072.914                          38.250                  
  21126716.240   111021645.756                          47.250                  
  21126718.940    86510373.095                          37.500                  
  22246448.332   116905876.514                          47.250                  
  22246451.352    91095487.586                          33.500                  
  21164838.920   111221979.285                          46.750                  
  21164841.680    86666477.780                          40.000                  
  20514876.764   107806407.666                          48.000                  
  20514883.604    84004992.624                          52.000                  
  23116022.946   121475517.433                          42.500                  
  23116028.766    94656247.367                          44.500                  
  22779873.670   119709043.228                          44.000                  
  22779878.170    93279773.499                          31.000                  
  24078090.380   126531218.658                          45.000                  
  24078094.840    98595754.094                          40.500                  
 16 10  2  7 59 46.0000000  0  8G 5G16G20G21G26G27G29G31
  24482269.438   128655191.360                          41.500                  
  24482273.198   100250797.629                          38.500                  
  21126353.580   111019738.430                          47.500                  
  21126355.480    86508886.869                          38.250                  
  22246319.992   116905200.598                          47.500                  
  22246323.052    91094960.899                          32.750                  
  21164879.000   111222189.938                          47.000                  
  21164881.400    86666641.926                          40.250                  
  20514877.944   107806412.590                          48.500                  
  20514884.384    84004996.465                          52.000                  
  23115441.606   121472462.647                          42.250                  
  23115447.506    94653867.010                          44.500                  
  22780439.570   119712014.086                          44.000                  
  22780443.290    93282088.452                          30.500                  
  24078749.460   126534683.318                          45.000                  
  24078753.900    98598453.831                          40.750                  
 16 10  2  7 59 47.0000000  0  8G 5G16G20G21G26G27G29G31
  24482691.318   128657405.057                          41.500                  
  24482694.898   100252522.580                          38.500                  
  21125990.060   111017831.396                          47.500                  
  21125992.940    86507400.873                          38.250                  
  22246191.432   116904525.176                          47.750                  
  22246194.572    91094434.598                          33.000                  
  21164919.100   111222400.923                          47.250                  
  21164921.780    86666806.323                          40.250                  
  20514878.944   107806417.979                          48.500                  
  20514885.364    84005000.658                          52.500                  
  23114860.406   121469407.856                          41.250                  
  23114866.246    94651486.651                          45.000                  
  22781004.390   119714984.939                          44.000                  
  22781008.830    93284403.398                          31.250                  
  24079408.960   126538147.968                          45.000                  
  24079413.480    98601153.563                          40.750                  
 16 10  2  7 59 48.0000000  0  8G 5G16G20G21G26G27G29G31
  24483111.978   128659618.496                          41.500                  
  24483116.018   100254247.333                          38.000                  
  21125627.660   111015924.047                          47.500                  
  21125630.200    86505914.629                          38.500                  
  22246062.672   116903849.597                          47.750                  
  22246065.572    91093908.168                          33.500                  
  21164959.480   111222611.552                          47.000                  
  21164961.860    86666970.456                          40.500                  
  20514880.344   107806423.148                          48.500                  
  20514886.804    84005004.688                          51.750                  
  23114278.206   121466352.423                          41.500                  
  23114284.566    94649105.803                          45.000                  
  22781569.790   119717955.158                          44.000                  
  22781574.070    93286717.851                          30.750                  
  24080067.920   126541611.925                          44.000                  
  24080072.980    98603852.758                          41.000                  
 16 10  2  7 59 49.0000000  0  8G 5G16G20G21G26G27G29G31
  24483534.218   128661833.757                          41.500                  
  24483537.778   100255973.502                          38.250                  
  21125264.520   111014018.479                          48.000                  
  21125267.460    86504429.771                          38.500                  
  22245934.172   116903175.961                          47.750                  
  22245937.472    91093383.264                          33.750                  
  21164999.640   111222823.958                          47.500                  
  21165002.440    86667135.967                          40.000                  
  20514881.504   107806430.202                          48.500                  
  20514888.124    84005010.189                          52.000                  
  23113697.146   121463298.478                          41.500                  
  23113703.346    94646726.109                          45.500                  
  22782135.150   119720926.815                          44.250                  
  22782139.450    93289033.425                          31.000                  
  24080727.420   126545077.295                          44.000                  
  24080732.200    98606553.044                          41.250                  
 16 10  2  7 59 50.0000000  0  8G 5G16G20G21G26G27G29G31
  24483955.218   128664049.190                          42.250                  
  24483959.118   100257699.814                          38.000                  
  21124902.200   111012113.074                          47.750                  
  21124904.640    86502945.036                          38.750                  
  22245806.832   116902502.660                          48.000                  
  22245809.412    91092858.614                          33.750                  
  21165040.580   111223036.514                          47.750                  
  21165042.620    86667301.595                          40.250                  
  20514882.684   107806437.552                          48.750                  
  20514888.964    84005015.912                          52.000                  
  23113116.426   121460244.369                          41.750                  
  23113122.226    94644346.292                          45.250                  
  22782701.150   119723898.328                          44.500                  
  22782704.870    93291348.888                          30.750                  
  24081386.640   126548542.473                          43.750                  
  24081391.520    98609253.173                          41.000                  
 16 10  2  7 59 51.0000000  0  8G 5G16G20G21G26G27G29G31
  24484377.598   128666264.939                          42.500                  
  24484381.278   100259426.367                          38.250                  
  21124539.600   111010207.937                          47.500                  
  21124542.420    86501460.515                          37.750                  
  22245678.452   116901829.832                          48.000                  
  22245681.052    91092334.326                          34.500                  
  21165080.520   111223249.356                          47.750                  
  21165083.260    86667467.446                          40.000                  
  20514884.124   107806445.303                          48.000                  
  20514890.804    84005021.954                          52.250                  
  23112534.966   121457190.240                          41.500                  
  23112541.106    94641966.460                          45.000                  
  22783266.170   119726869.819                          44.250                  
  22783270.210    93293664.339                          31.000                  
  24082046.480   126552007.559                          43.750                  
  24082050.680    98611953.224                          40.750                  
 16 10  2  7 59 52.0000000  0  8G 5G16G20G21G26G27G29G31
  24484798.918   128668481.256                          42.250                  
  24484802.818   100261153.375                          38.500                  
  21124176.980   111008303.363                          47.500                  
  21124180.100    86499976.429                          38.250                  
  22245549.812   116901157.723                          47.750                  
  22245553.152    91091810.605                          34.000                  
  21165121.680   111223462.752                          47.500                  
  21165124.080    86667633.721                          40.000                  
  20514885.484   107806453.737                          48.000                  
  20514892.244    84005028.534                          51.750                  
  23111953.946   121454136.328                          41.750                  
  23111959.906    94639586.795                          45.000                  
  22783831.230   119729841.549                          44.500                  
  22783835.750    93295979.969                          30.750                  
  24082706.040   126555472.845                          44.000                  
  24082710.460    98614653.438                          40.500                  
 16 10  2  7 59 53.0000000  0  8G 5G16G20G21G26G27G29G31
  24485220.578   128670697.766                          42.500                  
  24485224.498   100262880.525                          38.500                  
  21123814.540   111006398.909                          47.500                  
  21123817.500    86498492.439                          37.500                  
  22245422.352   116900485.914                          48.000                  
  22245425.492    91091287.119                          33.750                  
  21165161.940   111223676.254                          48.000                  
  21165164.660    86667800.088                          40.000                  
  20514887.204   107806462.434                          47.750                  
  20514894.164    84005035.307                          52.000                  
  23111373.606   121451082.260                          42.250                  
  23111378.706    94637207.001                          44.750                  
  22784397.308   119732813.085                          44.500                  
  22784401.388    93298295.454                          31.000                  
  24083365.360   126558937.900                          44.250                  
  24083369.580    98617353.477                          40.750                  
 16 10  2  7 59 54.0000000  0  8G 5G16G20G21G26G27G29G31
  24485643.158   128672915.465                          42.250                  
  24485646.858   100264608.599                          39.000                  
  21123452.440   111004495.603                          47.000                  
  21123455.140    86497009.342                          38.000                  
  22245295.292   116899815.419                          48.000                  
  22245297.752    91090764.653                          33.500                  
  21165203.000   111223890.914                          48.000                  
  21165205.340    86667967.360                          40.500                  
  20514889.564   107806472.398                          47.750                  
  20514895.744    84005043.066                          52.000                  
  23110791.846   121448029.037                          42.250                  
  23110797.806    94634827.862                          45.000                  
  22784962.788   119735785.444                          44.500                  
  22784966.828    93300611.582                          30.500                  
  24084024.180   126562403.717                          44.000                  
  24084029.120    98620054.116                          40.750                  
 16 10  2  7 59 55.0000000  0  8G 5G16G20G21G26G27G29G31
  24486064.498   128675133.253                          42.000                  
  24486068.478   100266336.744                          39.000                  
  21123090.500   111002592.343                          47.000                  
  21123093.100    86495526.284                          38.000                  
  22245167.132   116899145.171                          48.000                  
  22245170.272    91090242.384                          33.500                  
  21165243.580   111224105.617                          47.500                  
  21165246.420    86668134.656                          40.500                  
  20514891.484   107806482.532                          48.000                  
  20514897.924    84005050.965                          52.000                  
  23110210.966   121444975.535                          42.250                  
  23110216.326    94632448.504                          45.250                  
  22785528.008   119738757.524                          44.250                  
  22785532.488    93302927.486                          30.750                  
  24084684.240   126565869.266                          44.000                  
  24084688.760    98622754.537                          41.000                  
 16 10  2  7 59 56.0000000  0  8G 5G16G20G21G26G27G29G31
  24486486.518   128677351.908                          42.000                  
  24486491.018   100268065.564                          39.250                  
  21122728.600   111000689.946                          47.000                  
  21122731.100    86494043.899                          37.750                  
  22245040.232   116898475.934                          47.750                  
  22245043.232    91089720.901                          34.000                  
  21165284.680   111224321.162                          47.500                  
  21165286.840    86668302.612                          40.250                  
  20514893.424   107806493.636                          48.000                  
  20514899.984    84005059.620                          52.000                  
  23109629.946   121441922.565                          42.000                  
  23109635.266    94630069.566                          44.750                  
  22786093.608   119741730.161                          44.000                  
  22786098.068    93305243.829                          31.250                  
  24085343.660   126569335.280                          44.500                  
  24085348.220    98625455.325                          40.750                  
 16 10  2  7 59 57.0000000  0  8G 5G16G20G21G26G27G29G31
  24486908.678   128679570.381                          41.250                  
  24486913.038   100269794.240                          39.000                  
  21122366.000   110998787.316                          47.250                  
  21122368.880    86492561.332                          38.000                  
  22244912.892   116897806.655                          48.000                  
  22244916.172    91089199.381                          33.750                  
  21165325.940   111224536.487                          47.750                  
  21165328.040    86668470.400                          40.250                  
  20514895.384   107806504.629                          48.250                  
  20514902.244    84005068.184                          52.000                  
  23109048.226   121438869.068                          42.250                  
  23109054.486    94627690.220                          45.000                  
  22786659.328   119744702.241                          43.750                  
  22786663.988    93307559.731                          30.000                  
  24086003.280   126572800.697                          44.250                  
  24086007.320    98628155.644                          40.500                  
 16 10  2  7 59 58.0000000  0  8G 5G16G20G21G26G27G29G31
  24487330.818   128681789.804                          41.500                  
  24487335.298   100271523.660                          38.250                  
  21122004.560   110996885.621                          47.750                  
  21122007.100    86491079.492                          37.750                  
  22244785.672   116897138.464                          47.750                  
  22244788.872    91088678.719                          33.750                  
  21165366.740   111224752.703                          47.750                  
  21165369.580    86668638.878                          40.500                  
  20514897.804   107806516.687                          48.000                  
  20514904.184    84005077.576                          52.000                  
  23108467.306   121435816.169                          42.000                  
  23108473.386    94625311.347                          45.500                  
  22787224.868   119747674.917                          44.000                  
  22787229.608    93309876.106                          31.000                  
  24086663.040   126576266.666                          45.000                  
  24086667.220    98630856.399                          40.500                  
 16 10  2  7 59 59.0000000  0  8G 5G16G20G21G26G27G29G31
  24487753.798   128684009.552                          41.750                  
  24487757.658   100273253.334                          38.500                  
  21121642.560   110994984.178                          47.750                  
  21121645.300    86489597.844                          37.750                  
  22244658.552   116896470.715                          47.250                  
  22244661.332    91088158.395                          34.000                  
  21165408.200   111224969.216                          47.750                  
  21165410.380    86668807.593                          40.500                  
  20514899.864   107806529.128                          48.750                  
  20514907.004    84005087.272                          52.000                  
  23107887.066   121432763.264                          42.500                  
  23107892.506    94622932.469                          45.500                  
  22787790.988   119750647.580                          44.000                  
  22787795.528    93312192.463                          31.000                  
  24087322.000   126579732.570                          45.250                  
  24087326.420    98633557.105                          40.250                  
 16 10  2  8  0  0.0000000  0  8G 5G16G20G21G26G27G29G31
  24488176.018   128686230.335                          41.750                  
  24488180.038   100274983.817                          38.250                  
  21121280.920   110993083.758                          47.500                  
  21121283.720    86488116.995                          38.250                  
  22244531.812   116895804.161                          47.500                  
  22244534.832    91087639.002                          33.500                  
  21165449.580   111225186.719                          47.500                  
  21165452.000    86668977.076                          40.500                  
  20514902.764   107806542.713                          48.750                  
  20514909.224    84005097.853                          52.000                  
  23107306.626   121429711.031                          43.000                  
  23107311.786    94620554.112                          45.500                  
  22788356.728   119753620.919                          43.750                  
  22788360.908    93314509.348                          31.500                  
  24087982.320   126583199.109                          44.750                  
  24087986.260    98636258.303                          40.500                  
 16 10  2  8  0  1.0000000  0  8G 5G16G20G21G26G27G29G31
  24488598.418   128688450.890                          41.750                  
  24488602.618   100276714.123                          37.500                  
  21120919.440   110991183.075                          48.000                  
  21120921.900    86486635.947                          38.250                  
  22244405.212   116895137.547                          47.500                  
  22244408.172    91087119.564                          33.500                  
  21165491.120   111225403.973                          48.000                  
  21165493.620    86669146.360                          40.250                  
  20514905.264   107806556.176                          48.750                  
  20514911.864    84005108.350                          52.000                  
  23106725.166   121426658.266                          43.000                  
  23106730.746    94618175.333                          45.000                  
  22788922.608   119756593.679                          43.750                  
  22788927.008    93316825.781                          31.500                  
  24088641.180   126586665.039                          44.750                  
  24088645.640    98638959.029                          40.000                  
 16 10  2  8  0  2.0000000  0  8G 5G16G20G21G26G27G29G31
  24489020.978   128690672.905                          41.250                  
  24489025.618   100278445.582                          38.250                  
  21120558.160   110989283.810                          48.000                  
  21120560.460    86485155.999                          38.000                  
  22244278.232   116894472.475                          47.250                  
  22244281.412    91086601.318                          34.000                  
  21165532.480   111225622.619                          47.500                  
  21165535.000    86669316.730                          40.500                  
  20514908.104   107806571.135                          49.000                  
  20514914.564    84005120.004                          51.750                  
  23106144.686   121423606.585                          43.000                  
  23106150.226    94615797.396                          44.500                  
  22789488.228   119759567.543                          43.750                  
  22789492.508    93319143.079                          31.000                  
  24089300.680   126590131.998                          44.250                  
  24089305.080    98641660.558                          40.000                  
 16 10  2  8  0  3.0000000  0  8G 5G16G20G21G26G27G29G31
  24489444.238   128692894.503                          41.000                  
  24489448.798   100280176.699                          38.500                  
  21120196.620   110987384.104                          48.000                  
  21120199.060    86483675.713                          38.250                  
  22244151.532   116893807.171                          47.000                  
  22244154.552    91086082.900                          33.750                  
  21165574.240   111225840.816                          47.750                  
  21165576.900    86669486.756                          40.500                  
  20514910.804   107806585.825                          48.750                  
  20514917.604    84005131.455                          51.750                  
  23105563.586   121420554.156                          42.500                  
  23105569.886    94613418.864                          44.500                  
  22790053.748   119762540.653                          43.750                  
  22790058.308    93321459.790                          31.250                  
  24089960.300   126593598.165                          44.000                  
  24089964.660    98644361.469                          40.000                  
 16 10  2  8  0  4.0000000  0  8G 5G16G20G21G26G27G29G31
  24489866.898   128695117.485                          41.000                  
  24489871.498   100281908.893                          38.250                  
  21119835.000   110985485.773                          48.000                  
  21119838.020    86482196.489                          38.000                  
  22244024.952   116893143.402                          47.500                  
  22244028.212    91085565.678                          34.000                  
  21165615.980   111226060.403                          47.250                  
  21165618.440    86669657.864                          40.000                  
  20514914.104   107806601.982                          48.750                  
  20514920.484    84005144.043                          51.750                  
  23104982.506   121417502.772                          41.500                  
  23104988.786    94611041.158                          45.000                  
  22790619.668   119765514.814                          43.500                  
  22790624.188    93323777.314                          30.250                  
  24090620.540   126597065.337                          44.250                  
  24090624.720    98647063.162                          40.000                  
 16 10  2  8  0  5.0000000  0  8G 5G16G20G21G26G27G29G31
  24490289.538   128697340.268                          40.750                  
  24490294.758   100283640.928                          38.500                  
  21119474.220   110983587.168                          47.500                  
  21119476.600    86480717.055                          38.250                  
  22243899.252   116892479.565                          47.500                  
  22243901.992    91085048.402                          34.000                  
  21165657.400   111226279.712                          47.000                  
  21165659.940    86669828.754                          40.500                  
  20514917.224   107806618.007                          48.000                  
  20514923.524    84005156.530                          51.750                  
  23104401.746   121414450.852                          41.000                  
  23104407.926    94608663.037                          45.250                  
  22791185.608   119768488.407                          43.250                  
  22791190.168    93326094.398                          31.750                  
  24091280.220   126600531.903                          43.750                  
  24091284.320    98649764.384                          40.000                  
 16 10  2  8  0  6.0000000  0  8G 5G16G20G21G26G27G29G31
  24490712.878   128699563.345                          41.250                  
  24490717.718   100285373.188                          38.250                  
  21119112.880   110981688.826                          47.250                  
  21119115.460    86479237.825                          38.250                  
  22243772.672   116891816.154                          47.750                  
  22243775.572    91084531.456                          33.500                  
  21165699.640   111226499.272                          47.250                  
  21165701.600    86669999.840                          40.250                  
  20514920.284   107806634.413                          48.250                  
  20514927.064    84005169.314                          52.000                  
  23103821.066   121411398.825                          41.500                  
  23103827.606    94606284.838                          44.500                  
  22791751.408   119771461.958                          44.000                  
  22791756.188    93328411.445                          30.750                  
  24091939.000   126603998.374                          44.000                  
  24091944.020    98652465.532                          40.000                  
 16 10  2  8  0  7.0000000  0  8G 5G16G20G21G26G27G29G31
  24491136.458   128701787.888                          41.500                  
  24491140.838   100287106.590                          38.750                  
  21118752.000   110979791.942                          47.500                  
  21118754.360    86477759.738                          38.750                  
  22243646.872   116891154.335                          47.750                  
  22243649.672    91084015.757                          33.750                  
  21165741.280   111226720.270                          47.250                  
  21165743.800    86670172.051                          40.000                  
  20514923.704   107806652.383                          48.500                  
  20514930.384    84005183.312                          52.000                  
  23103240.446   121408347.980                          42.000                  
  23103246.326    94603907.564                          44.750                  
  22792317.528   119774436.590                          43.000                  
  22792321.968    93330729.347                          31.250                  
  24092599.480   126607465.883                          43.500                  
  24092603.880    98655167.487                          40.000                  
 16 10  2  8  0  8.0000000  0  8G 5G16G20G21G26G27G29G31
  24491560.018   128704013.012                          42.000                  
  24491564.358   100288840.444                          38.750                  
  21118390.680   110977895.628                          47.500                  
  21118393.460    86476282.089                          39.000                  
  22243521.472   116890493.304                          47.750                  
  22243523.832    91083500.666                          33.500                  
  21165783.420   111226941.851                          47.250                  
  21165786.040    86670344.711                          40.250                  
  20514926.864   107806671.085                          48.750                  
  20514933.624    84005197.884                          52.250                  
  23102660.746   121405297.408                          42.250                  
  23102666.166    94601530.505                          45.000                  
  22792883.448   119777411.549                          43.000                  
  22792887.928    93333047.496                          31.000                  
  24093258.960   126610933.657                          43.750                  
  24093263.620    98657869.653                          40.500                  
 16 10  2  8  0  9.0000000  0  8G 5G16G20G21G26G27G29G31
  24491983.318   128706237.611                          41.250                  
  24491987.658   100290573.902                          38.500                  
  21118029.740   110975998.731                          47.500                  
  21118032.260    86474803.993                          38.500                  
  22243395.072   116889831.837                          47.000                  
  22243397.872    91082985.239                          33.000                  
  21165825.820   111227162.836                          46.750                  
  21165828.100    86670516.903                          40.000                  
  20514930.804   107806689.291                          49.250                  
  20514937.484    84005212.075                          52.250                  
  23102080.106   121402245.925                          42.500                  
  23102084.966    94599152.722                          45.000                  
  22793449.588   119780385.526                          43.000                  
  22793454.088    93335364.878                          30.500                  
  24093918.960   126614400.446                          43.750                  
  24093923.340    98660571.041                          40.500                  
 16 10  2  8  0 10.0000000  0  8G 5G16G20G21G26G27G29G31
  24492406.558   128708463.481                          41.250                  
  24492411.638   100292308.346                          38.500                  
  21117668.720   110974103.093                          47.500                  
  21117672.120    86473326.866                          39.000                  
  22243269.532   116889171.823                          46.750                  
  22243272.772    91082470.948                          33.250                  
  21165868.020   111227385.077                          47.000                  
  21165870.680    86670690.078                          40.000                  
  20514934.504   107806708.908                          49.000                  
  20514940.564    84005227.361                          52.250                  
  23101499.006   121399195.387                          42.500                  
  23101505.146    94596775.676                          44.750                  
  22794015.328   119783360.475                          43.000                  
  22794019.848    93337683.014                          30.250                  
  24094579.180   126617868.154                          43.750                  
  24094583.500    98663273.139                          40.500                  
 16 10  2  8  0 11.0000000  0  8G 5G16G20G21G26G27G29G31
  24492830.738   128710689.191                          41.750                  
  24492834.558   100294042.667                          38.750                  
  21117308.480   110972207.215                          47.750                  
  21117311.440    86471849.565                          38.750                  
  22243143.792   116888511.756                          46.500                  
  22243147.172    91081956.604                          33.750                  
  21165910.080   111227607.073                          47.250                  
  21165913.060    86670863.064                          39.750                  
  20514937.884   107806728.405                          48.750                  
  20514944.564    84005242.546                          51.750                  
  23100918.346   121396144.300                          42.250                  
  23100924.326    94594398.205                          44.250                  
  22794581.548   119786334.894                          43.000                  
  22794585.928    93340000.737                          29.750                  
  24095238.640   126621335.269                          44.500                  
  24095243.420    98665974.787                          40.500                  
 16 10  2  8  0 12.0000000  0  8G 5G16G20G21G26G27G29G31
  24493254.258   128712916.046                          41.250                  
  24493258.658   100295777.879                          38.750                  
  21116947.740   110970312.475                          48.000                  
  21116950.540    86470373.140                          38.250                  
  22243018.672   116887852.982                          46.750                  
  22243021.532    91081443.278                          33.000                  
  21165952.700   111227830.199                          47.500                  
  21165955.120    86671036.926                          40.000                  
  20514941.984   107806749.154                          49.500                  
  20514948.724    84005258.717                          51.500                  
  23100337.906   121393094.044                          42.250                  
  23100343.866    94592021.376                          44.500                  
  22795147.928   119789310.082                          42.750                  
  22795152.048    93342319.065                          30.250                  
  24095899.020   126624803.138                          45.000                  
  24095903.040    98668677.010                          40.750                  
 16 10  2  8  0 13.0000000  0  8G 5G16G20G21G26G27G29G31
  24493678.458   128715143.091                          41.250                  
  24493682.098   100297513.231                          38.250                  
  21116587.360   110968417.883                          48.250                  
  21116590.000    86468896.830                          38.250                  
  22242893.272   116887194.532                          47.000                  
  22242896.152    91080930.198                          33.500                  
  21165994.880   111228053.480                          47.250                  
  21165997.380    86671210.912                          39.750                  
  20514946.164   107806770.174                          49.750                  
  20514952.804    84005275.100                          52.000                  
  23099757.486   121390043.625                          42.500                  
  23099763.906    94589644.426                          44.500                  
  22795713.908   119792285.144                          43.250                  
  22795718.228    93344637.296                          30.500                  
  24096559.280   126628270.776                          45.000                  
  24096562.840    98671379.066                          40.750                  
 16 10  2  8  0 14.0000000  0  8G 5G16G20G21G26G27G29G31
  24494102.138   128717370.711                          41.500                  
  24494106.118   100299249.032                          38.500                  
  21116227.100   110966523.834                          48.500                  
  21116229.500    86467420.950                          38.250                  
  22242768.112   116886536.811                          46.750                  
  22242771.472    91080417.686                          33.500                  
  21166037.640   111228277.298                          47.250                  
  21166040.180    86671385.313                          40.000                  
  20514950.464   107806791.878                          49.750                  
  20514956.764    84005292.008                          52.250                  
  23099176.826   121386993.437                          42.000                  
  23099182.986    94587267.654                          44.500                  
  22796280.328   119795260.430                          43.250                  
  22796284.488    93346955.698                          31.000                  
  24097219.180   126631738.618                          45.750                  
  24097222.720    98674081.287                          41.000                  
 16 10  2  8  0 15.0000000  0  8G 5G16G20G21G26G27G29G31
  24494526.118   128719598.531                          41.500                  
  24494530.258   100300984.996                          38.250                  
  21115866.640   110964629.972                          48.250                  
  21115869.180    86465945.219                          38.500                  
  22242643.112   116885879.464                          47.250                  
  22242646.332    91079905.466                          33.500                  
  21166080.540   111228501.315                          47.500                  
  21166082.740    86671559.873                          40.500                  
  20514954.644   107806813.880                          50.500                  
  20514961.144    84005309.157                          51.750                  
  23098596.526   121383943.151                          42.500                  
  23098602.406    94584890.814                          45.000                  
  22796846.908   119798235.586                          43.750                  
  22796850.488    93349273.992                          31.000                  
  24097878.460   126635206.282                          44.750                  
  24097882.700    98676783.362                          41.000                  
 16 10  2  8  0 16.0000000  0  8G 5G16G20G21G26G27G29G31
  24494950.358   128721827.422                          41.750                  
  24494954.798   100302721.801                          38.250                  
  21115506.200   110962737.129                          48.500                  
  21115508.820    86464470.273                          38.250                  
  22242518.232   116885223.302                          47.250                  
  22242521.392    91079394.177                          33.500                  
  21166123.000   111228726.314                          47.750                  
  21166125.700    86671735.196                          40.250                  
  20514958.864   107806837.032                          50.000                  
  20514965.484    84005327.199                          52.250                  
  23098016.166   121380893.541                          42.250                  
  23098022.186    94582514.499                          45.250                  
  22797413.168   119801211.429                          44.250                  
  22797417.388    93351592.832                          31.000                  
  24098538.500   126638674.606                          44.000                  
  24098542.580    98679485.952                          41.000                  
 16 10  2  8  0 17.0000000  0  8G 5G16G20G21G26G27G29G31
  24495374.378   128724056.427                          41.500                  
  24495378.658   100304458.692                          38.250                  
  21115146.460   110960844.368                          48.250                  
  21115149.020    86462995.394                          38.000                  
  22242393.592   116884567.390                          47.000                  
  22242396.592    91078883.070                          33.500                  
  21166165.840   111228951.400                          47.500                  
  21166168.260    86671910.590                          40.000                  
  20514963.264   107806860.374                          49.750                  
  20514970.024    84005345.388                          52.000                  
  23097436.346   121377843.739                          42.250                  
  23097441.946    94580138.028                          45.250                  
  22797979.088   119804187.051                          43.500                  
  22797983.188    93353911.498                          31.750                  
  24099198.160   126642142.643                          44.000                  
  24099202.560    98682188.319                          40.500                  
 16 10  2  8  0 18.0000000  0  8G 5G16G20G21G26G27G29G31
  24495798.438   128726286.619                          41.500                  
  24495802.718   100306196.506                          38.250                  
  21114786.260   110958952.820                          47.750                  
  21114788.860    86461521.459                          38.000                  
  22242268.752   116883912.856                          47.000                  
  22242271.932    91078373.046                          33.500                  
  21166208.920   111229177.688                          47.750                  
  21166211.060    86672086.919                          40.000                  
  20514967.784   107806885.070                          49.500                  
  20514974.764    84005364.632                          52.250                  
  23096856.086   121374794.810                          42.250                  
  23096861.946    94577762.241                          45.000                  
  22798545.308   119807163.534                          43.250                  
  22798549.648    93356230.846                          30.750                  
  24099858.380   126645611.520                          43.750                  
  24099862.980    98684891.340                          40.500                  
 16 10  2  8  0 19.0000000  0  8G 5G16G20G21G26G27G29G31
  24496223.518   128728516.707                          41.500                  
  24496227.458   100307934.234                          38.250                  
  21114426.220   110957061.028                          47.750                  
  21114429.040    86460047.340                          38.000                  
  22242144.692   116883258.271                          47.000                  
  22242147.192    91077862.982                          34.000                  
  21166251.880   111229403.722                          47.500                  
  21166254.440    86672263.048                          40.000                  
  20514972.724   107806909.640                          49.500                  
  20514979.164    84005383.773                          52.000                  
  23096275.426   121371745.321                          42.000                  
  23096281.386    94575386.019                          45.000                  
  22799111.888   119810139.492                          43.250                  
  22799116.068    93358549.771                          31.000                  
  24100518.400   126649079.775                          44.250                  
  24100522.760    98687593.879                          40.750                  
 16 10  2  8  0 20.0000000  0  8G 5G16G20G21G26G27G29G31
  24496647.858   128730748.089                          41.500                  
  24496651.898   100309672.972                          38.250                  
  21114066.440   110955170.592                          47.500                  
  21114069.120    86458574.269                          38.750                  
  22242020.352   116882605.199                          47.500                  
  22242023.032    91077354.092                          33.750                  
  21166294.880   111229631.116                          47.250                  
  21166297.680    86672440.236                          40.250                  
  20514977.444   107806935.684                          49.750                  
  20514984.024    84005404.067                          52.000                  
  23095695.506   121368696.885                          42.250                  
  23095701.286    94573010.621                          44.750                  
  22799677.808   119813116.473                          43.500                  
  22799682.428    93360869.500                          31.500                  
  24101178.400   126652549.032                          43.750                  
  24101183.140    98690297.197                          40.750                  
 16 10  2  8  0 21.0000000  0  8G 5G16G20G21G26G27G29G31
  24497072.238   128732978.931                          41.500                  
  24497076.498   100311411.288                          37.500                  
  21113706.680   110953279.563                          47.500                  
  21113709.240    86457100.741                          38.750                  
  22241895.672   116881951.740                          47.500                  
  22241898.772    91076844.906                          34.000                  
  21166338.280   111229857.912                          47.500                  
  21166340.740    86672616.965                          40.500                  
  20514982.144   107806961.268                          50.000                  
  20514989.164    84005424.009                          52.000                  
  23095114.986   121365647.546                          42.000                  
  23095121.286    94570634.515                          44.750                  
  22800244.428   119816092.546                          43.500                  
  22800248.868    93363188.518                          31.250                  
  24101838.440   126656017.334                          43.500                  
  24101843.380    98692999.762                          41.000                  
 16 10  2  8  0 22.0000000  0  8G 5G16G20G21G26G27G29G31
  24497497.098   128735211.081                          41.750                  
  24497501.258   100313150.625                          38.000                  
  21113346.880   110951389.778                          47.000                  
  21113350.020    86455628.180                          39.250                  
  22241771.392   116881299.659                          47.750                  
  22241774.812    91076336.796                          33.500                  
  21166381.500   111230085.942                          48.000                  
  21166384.140    86672794.646                          40.750                  
  20514987.324   107806988.203                          49.500                  
  20514993.844    84005444.993                          52.000                  
  23094535.066   121362599.155                          42.000                  
  23094541.046    94568259.145                          44.500                  
  22800810.708   119819069.556                          43.750                  
  22800815.528    93365508.259                          31.000                  
  24102499.420   126659486.527                          43.250                  
  24102503.440    98695703.018                          40.750                  
 16 10  2  8  0 23.0000000  0  8G 5G16G20G21G26G27G29G31
  24497921.798   128737443.047                          42.000                  
  24497925.758   100314889.818                          38.000                  
  21112987.020   110949499.815                          47.000                  
  21112990.400    86454155.489                          39.000                  
  22241647.752   116880647.606                          47.500                  
  22241650.452    91075828.701                          34.000                  
  21166425.480   111230313.771                          48.000                  
  21166427.500    86672972.175                          41.000                  
  20514992.444   107807015.117                          49.000                  
  20514999.064    84005465.962                          52.500                  
  23093955.166   121359550.272                          42.500                  
  23093960.506    94565883.401                          44.500                  
  22801377.568   119822046.050                          43.750                  
  22801381.648    93367827.607                          31.500                  
  24103159.380   126662955.174                          43.500                  
  24103163.360    98698405.849                          40.750                  
 16 10  2  8  0 24.0000000  0  8G 5G16G20G21G26G27G29G31
  24498346.558   128739676.279                          41.750                  
  24498350.818   100316629.999                          38.250                  
  21112627.640   110947611.069                          47.250                  
  21112630.660    86452683.733                          38.750                  
  22241523.472   116879996.941                          47.750                  
  22241526.532    91075321.687                          33.500                  
  21166468.640   111230542.830                          48.000                  
  21166470.880    86673150.667                          40.750                  
  20514998.244   107807043.342                          49.250                  
  20515004.644    84005487.952                          52.500                  
  23093375.106   121356502.276                          42.000                  
  23093380.506    94563508.338                          44.500                  
  22801943.828   119825023.463                          44.000                  
  22801948.248    93370147.666                          31.750                  
  24103819.820   126666424.661                          43.000                  
  24103823.760    98701109.335                          40.750                  
 16 10  2  8  0 25.0000000  0  8G 5G16G20G21G26G27G29G31
  24498771.418   128741908.834                          41.750                  
  24498775.818   100318369.656                          38.250                  
  21112268.200   110945721.605                          47.750                  
  21112271.300    86451211.425                          38.500                  
  22241399.852   116879345.724                          47.750                  
  22241402.852    91074814.252                          34.000                  
  21166512.400   111230771.167                          47.500                  
  21166514.860    86673328.589                          40.000                  
  20515003.404   107807070.991                          49.250                  
  20515009.644    84005509.492                          52.500                  
  23092795.366   121353453.291                          42.750                  
  23092800.726    94561132.512                          44.500                  
  22802510.508   119827999.803                          43.500                  
  22802514.568    93372466.883                          30.000                  
  24104479.320   126669893.042                          43.500                  
  24104483.740    98703811.962                          40.750                  
 16 10  2  8  0 26.0000000  0  8G 5G16G20G21G26G27G29G31
  24499196.278   128744143.411                          41.500                  
  24499200.878   100320110.883                          38.250                  
  21111908.760   110943834.157                          47.750                  
  21111911.820    86449740.688                          38.500                  
  22241276.552   116878696.690                          47.500                  
  22241279.232    91074308.509                          33.500                  
  21166556.120   111231001.492                          47.750                  
  21166558.560    86673508.064                          40.250                  
  20515008.804   107807100.745                          49.750                  
  20515015.444    84005532.677                          52.000                  
  23092214.986   121350405.988                          43.250                  
  23092220.526    94558757.982                          44.500                  
  22803076.928   119830977.847                          43.500                  
  22803081.468    93374787.431                          30.750                  
  24105139.640   126673363.100                          44.000                  
  24105144.000    98706515.903                          40.750                  
 16 10  2  8  0 27.0000000  0  8G 5G16G20G21G26G27G29G31
  24499621.278   128746377.316                          41.250                  
  24499625.878   100321851.584                          38.500                  
  21111549.580   110941945.978                          48.000                  
  21111552.500    86448269.376                          38.500                  
  22241152.692   116878047.115                          47.750                  
  22241155.532    91073802.345                          33.500                  
  21166599.720   111231231.095                          48.000                  
  21166602.020    86673686.977                          39.750                  
  20515014.804   107807129.918                          50.250                  
  20515021.264    84005555.410                          52.500                  
  23091634.766   121347357.626                          43.000                  
  23091640.666    94556382.629                          44.750                  
  22803643.988   119833954.853                          43.500                  
  22803648.168    93377107.178                          31.000                  
  24105799.680   126676832.051                          44.000                  
  24105804.260    98709218.984                          41.000                  
 16 10  2  8  0 28.0000000  0  8G 5G16G20G21G26G27G29G31
  24500047.038   128748612.906                          41.750                  
  24500051.358   100323593.592                          38.500                  
  21111190.920   110940059.488                          48.250                  
  21111193.680    86446799.386                          38.500                  
  22241029.192   116877399.419                          48.250                  
  22241032.132    91073297.642                          33.250                  
  21166643.620   111231462.383                          48.250                  
  21166645.900    86673867.201                          40.250                  
  20515020.164   107807160.905                          49.750                  
  20515026.924    84005579.557                          52.250                  
  23091054.866   121344310.664                          42.000                  
  23091060.526    94554008.361                          45.000                  
  22804210.588   119836933.226                          43.500                  
  22804214.708    93379427.990                          31.000                  
  24106460.100   126680302.343                          44.000                  
  24106464.220    98711923.113                          40.750                  
 16 10  2  8  0 29.0000000  0  8G 5G16G20G21G26G27G29G31
  24500471.518   128750847.712                          42.000                  
  24500476.178   100325334.997                          38.500                  
  21110831.440   110938172.150                          48.250                  
  21110834.580    86445328.737                          38.250                  
  22240906.072   116876751.013                          48.000                  
  22240908.792    91072792.391                          33.000                  
  21166687.840   111231692.821                          48.000                  
  21166690.020    86674046.764                          40.250                  
  20515026.044   107807191.150                          50.000                  
  20515032.704    84005603.129                          52.000                  
  23090474.326   121341262.526                          41.500                  
  23090480.826    94551633.182                          45.000                  
  22804777.468   119839910.443                          43.500                  
  22804781.628    93381747.893                          31.500                  
  24107120.480   126683771.397                          43.750                  
  24107124.640    98714626.274                          40.500                  
 16 10  2  8  0 30.0000000  0  8G 5G16G20G21G26G27G29G31
  24500898.158   128753083.367                          42.000                  
  24500901.998   100327077.066                          38.000                  
  21110472.540   110936285.661                          48.500                  
  21110475.320    86443858.744                          38.750                  
  22240783.112   116876103.661                          47.750                  
  22240785.832    91072287.961                          33.250                  
  21166731.660   111231924.119                          47.500                  
  21166734.260    86674226.991                          40.500                  
  20515032.344   107807222.389                          49.750                  
  20515038.624    84005627.475                          52.000                  
  23089894.786   121338214.947                          41.500                  
  23089900.766    94549258.457                          45.000                  
  22805343.828   119842888.185                          43.500                  
  22805348.408    93384068.214                          30.750                  
  24107780.220   126687240.952                          43.500                  
  24107785.220    98717329.826                          40.750                  
 16 10  2  8  0 31.0000000  0  8G 5G16G20G21G26G27G29G31
  24501323.758   128755319.902                          41.750                  
  24501327.518   100328819.818                          38.500                  
  21110113.900   110934400.033                          48.500                  
  21110116.900    86442389.425                          38.750                  
  22240659.852   116875457.286                          47.500                  
  22240662.552    91071784.288                          33.750                  
  21166776.140   111232156.223                          47.000                  
  21166778.060    86674407.854                          40.250                  
  20515038.164   107807254.573                          50.000                  
  20515044.944    84005652.548                          52.000                  
  23089315.346   121335167.906                          41.750                  
  23089320.586    94546884.150                          45.000                  
  22805910.408   119845866.463                          43.500                  
  22805914.708    93386388.950                          31.500                  
  24108440.400   126690710.976                          43.500                  
  24108445.740    98720033.734                          40.500                  
 16 10  2  8  0 32.0000000  0  8G 5G16G20G21G26G27G29G31
  24501749.198   128757556.939                          41.500                  
  24501753.178   100330562.970                          38.500                  
  21109755.440   110932514.858                          48.000                  
  21109757.720    86440920.453                          38.750                  
  22240537.012   116874811.600                          47.250                  
  22240539.872    91071281.156                          33.250                  
  21166820.120   111232388.795                          47.250                  
  21166822.200    86674589.079                          40.250                  
  20515044.284   107807287.380                          49.750                  
  20515051.104    84005678.116                          52.000                  
  23088735.566   121332121.008                          42.000                  
  23088741.346    94544509.952                          45.000                  
  22806477.328   119848844.870                          43.250                  
  22806481.728    93388709.785                          31.500                  
  24109100.740   126694181.102                          43.500                  
  24109105.700    98722737.722                          40.250                  
 16 10  2  8  0 33.0000000  0  8G 5G16G20G21G26G27G29G31
  24502175.378   128759794.883                          42.000                  
  24502179.198   100332306.825                          38.000                  
  21109396.460   110930630.594                          48.000                  
  21109399.540    86439452.202                          38.750                  
  22240413.652   116874166.975                          47.250                  
  22240416.892    91070778.853                          33.500                  
  21166864.200   111232622.263                          47.250                  
  21166866.780    86674771.004                          40.000                  
  20515051.064   107807321.175                          50.000                  
  20515057.584    84005704.450                          52.500                  
  23088155.246   121329074.711                          42.000                  
  23088160.966    94542136.218                          45.250                  
  22807044.388   119851823.850                          43.500                  
  22807048.488    93391031.064                          31.500                  
  24109761.380   126697651.748                          43.500                  
  24109765.780    98725442.124                          40.000                  
 16 10  2  8  0 34.0000000  0  8G 5G16G20G21G26G27G29G31
  24502600.778   128762031.951                          41.750                  
  24502604.978   100334049.997                          38.500                  
  21109038.080   110928745.400                          47.000                  
  21109040.400    86437983.215                          39.000                  
  22240291.892   116873521.597                          47.500                  
  22240294.712    91070275.961                          33.750                  
  21166908.720   111232854.799                          47.500                  
  21166911.220    86674952.199                          40.500                  
  20515057.184   107807354.193                          49.500                  
  20515063.804    84005730.173                          52.500                  
  23087575.946   121326027.166                          41.750                  
  23087581.706    94539761.500                          45.000                  
  22807611.348   119854801.613                          43.750                  
  22807615.228    93393351.403                          31.750                  
  24110421.460   126701121.135                          44.000                  
  24110426.100    98728145.541                          40.000                  
 16 10  2  8  0 35.0000000  0  8G 5G16G20G21G26G27G29G31
  24503026.718   128764271.051                          41.500                  
  24503031.238   100335794.754                          38.750                  
  21108679.380   110926862.205                          47.500                  
  21108682.160    86436515.795                          38.750                  
  22240168.992   116872878.404                          46.750                  
  22240171.872    91069774.774                          33.250                  
  21166953.200   111233089.341                          47.250                  
  21166955.760    86675134.961                          40.500                  
  20515063.684   107807389.346                          49.500                  
  20515070.444    84005757.566                          52.250                  
  23086996.246   121322981.327                          41.500                  
  23087001.886    94537388.114                          45.500                  
  22808178.208   119857781.029                          43.000                  
  22808182.168    93395673.013                          31.750                  
  24111083.040   126704592.170                          44.000                  
  24111086.840    98730850.245                          40.250                  
 16 10  2  8  0 36.0000000  0  8G 5G16G20G21G26G27G29G31
  24503452.818   128766509.933                          42.000                  
  24503456.958   100337539.335                          38.750                  
  21108321.180   110924978.756                          48.000                  
  21108323.620    86435048.168                          38.250                  
  22240046.472   116872235.119                          47.250                  
  22240049.932    91069273.515                          33.250                  
  21166997.720   111233323.608                          47.000                  
  21167000.040    86675317.503                          40.250                  
  20515070.644   107807424.340                          49.750                  
  20515077.264    84005784.831                          52.500                  
  23086416.006   121319934.927                          40.750                  
  23086422.086    94535014.293                          45.500                  
  22808744.928   119860759.899                          43.250                  
  22808749.168    93397994.210                          31.000                  
  24111742.240   126708062.530                          43.750                  
  24111747.040    98733554.428                          39.750                  
 16 10  2  8  0 37.0000000  0  8G 5G16G20G21G26G27G29G31
  24503878.758   128768749.445                          41.000                  
  24503883.038   100339284.409                          39.000                  
  21107962.780   110923095.924                          47.500                  
  21107965.440    86433581.026                          38.500                  
  22239924.172   116871592.618                          47.000                  
  22239927.432    91068772.868                          33.500                  
  21167042.720   111233558.477                          47.250                  
  21167044.900    86675500.519                          40.000                  
  20515077.184   107807460.079                          50.000                  
  20515083.584    84005812.684                          52.250                  
  23085836.586   121316888.809                          41.250                  
  23085842.786    94532640.690                          45.750                  
  22809312.008   119863739.062                          43.750                  
  22809316.308    93400315.641                          31.500                  
  24112402.780   126711533.168                          43.500                  
  24112407.440    98736258.825                          39.500                  
 16 10  2  8  0 38.0000000  0  8G 5G16G20G21G26G27G29G31
  24504305.258   128770989.327                          41.000                  
  24504309.578   100341029.764                          39.000                  
  21107604.440   110921213.402                          47.000                  
  21107607.500    86432114.126                          38.500                  
  22239802.212   116870950.655                          47.250                  
  22239805.552    91068272.633                          33.250                  
  21167087.100   111233793.684                          47.500                  
  21167089.920    86675683.802                          40.000                  
  20515084.384   107807496.286                          49.250                  
  20515090.804    84005840.895                          52.000                  
  23085256.826   121313842.725                          41.750                  
  23085262.966    94530267.126                          45.500                  
  22809878.148   119866718.229                          43.750                  
  22809883.048    93402637.069                          31.000                  
  24113063.000   126715003.767                          43.750                  
  24113067.620    98738963.198                          40.500                  
 16 10  2  8  0 39.0000000  0  8G 5G16G20G21G26G27G29G31
  24504731.358   128773230.096                          41.000                  
  24504736.318   100342775.817                          38.750                  
  21107246.260   110919331.768                          47.500                  
  21107249.200    86430647.920                          38.250                  
  22239680.032   116870309.695                          47.000                  
  22239683.272    91067773.185                          33.500                  
  21167132.120   111234029.733                          47.500                  
  21167134.720    86675867.734                          39.750                  
  20515091.524   107807533.466                          49.500                  
  20515097.624    84005869.860                          51.750                  
  23084677.726   121310797.193                          42.000                  
  23084683.226    94527893.997                          45.250                  
  22810445.788   119869697.926                          43.750                  
  22810450.228    93404958.913                          31.000                  
  24113724.000   126718474.870                          43.500                  
  24113728.380    98741667.958                          40.500                  
 16 10  2  8  0 40.0000000  0  8G 5G16G20G21G26G27G29G31
  24505157.598   128775471.321                          40.750                  
  24505162.858   100344522.221                          39.000                  
  21106888.700   110917450.560                          47.500                  
  21106891.260    86429182.035                          38.750                  
  22239558.072   116869669.364                          47.000                  
  22239561.332    91067274.225                          33.500                  
  21167177.140   111234266.201                          47.750                  
  21167179.280    86676051.995                          39.750                  
  20515098.384   107807571.194                          49.500                  
  20515105.084    84005899.261                          51.750                  
  23084098.006   121307751.766                          41.750                  
  23084103.666    94525520.941                          45.000                  
  22811012.608   119872677.744                          43.250                  
  22811016.868    93407280.849                          31.250                  
  24114384.020   126721946.026                          43.750                  
  24114388.860    98744372.747                          40.750                  
 16 10  2  8  0 41.0000000  0  8G 5G16G20G21G26G27G29G31
  24505584.158   128777712.549                          41.500                  
  24505588.758   100346268.626                          38.500                  
  21106530.360   110915569.302                          47.250                  
  21106533.240    86427716.124                          38.500                  
  22239436.312   116869029.151                          47.000                  
  22239439.532    91066775.360                          33.500                  
  21167222.260   111234502.628                          48.250                  
  21167224.520    86676236.222                          39.500                  
  20515105.624   107807609.025                          49.250                  
  20515112.304    84005928.738                          51.750                  
  23083518.868   121304706.003                          42.000                  
  23083524.628    94523147.623                          45.000                  
  22811579.468   119875657.209                          43.500                  
  22811583.848    93409602.515                          31.750                  
  24115045.480   126725416.788                          43.500                  
  24115049.580    98747077.228                          40.750                  
 16 10  2  8  0 42.0000000  0  8G 5G16G20G21G26G27G29G31
  24506011.278   128779954.526                          41.500                  
  24506015.478   100348015.623                          38.750                  
  21106172.540   110913688.782                          47.500                  
  21106175.560    86426250.782                          38.500                  
  22239314.812   116868389.852                          47.500                  
  22239317.972    91066277.201                          34.000                  
  21167267.520   111234739.793                          47.500                  
  21167270.060    86676421.030                          40.000                  
  20515112.824   107807647.694                          49.250                  
  20515119.764    84005958.872                          52.000                  
  23082939.048   121301660.670                          42.000                  
  23082944.808    94520774.634                          45.250                  
  22812146.348   119878637.096                          43.750                  
  22812150.948    93411924.496                          31.000                  
  24115705.620   126728887.910                          44.000                  
  24115709.900    98749781.994                          40.750                  
 16 10  2  8  0 43.0000000  0  8G 5G16G20G21G26G27G29G31
  24506437.738   128782197.041                          41.250                  
  24506442.018   100349763.038                          38.500                  
  21105815.040   110911808.791                          47.250                  
  21105818.160    86424785.860                          38.250                  
  22239193.272   116867751.260                          47.000                  
  22239196.532    91065779.601                          33.500                  
  21167312.680   111234977.473                          47.500                  
  21167315.000    86676606.231                          40.000                  
  20515120.484   107807687.010                          49.500                  
  20515127.024    84005989.509                          52.000                  
  23082359.088   121298615.548                          41.500                  
  23082365.488    94518401.802                          45.000                  
  22812713.368   119881617.176                          43.750                  
  22812718.108    93414246.630                          32.250                  
  24116366.300   126732359.181                          43.750                  
  24116370.300    98752486.881                          40.750                  
 16 10  2  8  0 44.0000000  0  8G 5G16G20G21G26G27G29G31
  24506864.738   128784440.500                          41.500                  
  24506868.938   100351511.191                          38.750                  
  21105457.220   110909929.677                          47.750                  
  21105460.280    86423321.615                          38.750                  
  22239072.112   116867113.727                          47.250                  
  22239074.912    91065282.826                          33.000                  
  21167357.940   111235216.023                          47.500                  
  21167360.240    86676792.116                          40.000                  
  20515128.024   107807727.337                          49.750                  
  20515134.804    84006020.935                          52.000                  
  23081779.808   121295570.988                          41.750                  
  23081786.208    94516029.413                          44.750                  
  22813281.168   119884597.793                          43.500                  
  22813284.848    93416569.183                          31.250                  
  24117026.420   126735830.941                          43.250                  
  24117031.100    98755192.145                          40.500                  
 16 10  2  8  0 45.0000000  0  8G 5G16G20G21G26G27G29G31
  24507291.798   128786683.830                          41.250                  
  24507296.018   100353259.241                          38.000                  
  21105099.780   110908050.445                          48.000                  
  21105102.540    86421857.278                          38.500                  
  22238950.872   116866476.199                          47.250                  
  22238953.652    91064786.047                          33.500                  
  21167403.260   111235454.402                          47.750                  
  21167405.720    86676977.863                          39.750                  
  20515135.784   107807767.633                          49.750                  
  20515142.524    84006052.336                          51.750                  
  23081200.188   121292525.966                          41.500                  
  23081206.768    94513656.664                          45.000                  
  22813848.048   119887577.976                          43.000                  
  22813852.448    93418891.403                          32.000                  
  24117686.820   126739302.229                          43.000                  
  24117691.200    98757897.044                          40.500                  
 16 10  2  8  0 46.0000000  0  8G 5G16G20G21G26G27G29G31
  24507718.978   128788927.993                          41.000                  
  24507723.038   100355007.943                          38.750                  
  21104742.340   110906171.980                          48.000                  
  21104745.140    86420393.535                          38.500                  
  22238829.472   116865839.654                          47.500                  
  22238832.272    91064290.038                          33.500                  
  21167448.840   111235693.593                          47.500                  
  21167451.380    86677164.244                          40.000                  
  20515143.524   107807808.856                          49.500                  
  20515150.364    84006084.456                          51.750                  
  23080621.728   121289481.421                          41.750                  
  23080627.028    94511284.296                          45.250                  
  22814415.648   119890558.614                          43.250                  
  22814419.208    93421213.974                          31.500                  
  24118347.700   126742773.907                          43.500                  
  24118352.240    98760602.244                          41.000                  
 16 10  2  8  0 47.0000000  0  8G 5G16G20G21G26G27G29G31
  24508145.918   128791172.166                          41.000                  
  24508150.078   100356756.652                          38.500                  
  21104384.980   110904293.483                          47.000                  
  21104387.820    86418929.778                          39.000                  
  22238708.092   116865203.272                          47.500                  
  22238711.432    91063794.152                          33.250                  
  21167494.680   111235932.760                          47.250                  
  21167497.020    86677350.608                          40.500                  
  20515151.444   107807850.184                          49.000                  
  20515158.244    84006116.660                          51.750                  
  23080042.168   121286436.557                          42.000                  
  23080047.868    94508911.678                          44.750                  
  22814983.048   119893538.936                          43.500                  
  22814986.728    93423536.299                          31.750                  
  24119008.300   126746245.239                          43.000                  
  24119013.140    98763307.178                          41.250                  
 16 10  2  8  0 48.0000000  0  8G 5G16G20G21G26G27G29G31
  24508573.078   128793417.598                          41.000                  
  24508577.098   100358506.347                          38.750                  
  21104027.540   110902416.306                          46.750                  
  21104030.320    86417467.042                          39.000                  
  22238587.412   116864568.327                          47.500                  
  22238590.932    91063299.389                          33.250                  
  21167540.060   111236173.193                          47.500                  
  21167542.520    86677537.957                          40.750                  
  20515160.164   107807892.907                          48.750                  
  20515166.324    84006149.949                          51.750                  
  23079462.848   121283392.675                          42.000                  
  23079468.508    94506539.818                          45.250                  
  22815550.068   119896520.223                          43.500                  
  22815553.968    93425859.382                          31.500                  
  24119669.380   126749717.441                          43.500                  
  24119673.140    98766012.778                          41.000                  
 16 10  2  8  0 49.0000000  0  8G 5G16G20G21G26G27G29G31
  24509000.718   128795663.540                          41.000                  
  24509004.518   100360256.432                          39.000                  
  21103670.540   110900539.522                          46.750                  
  21103673.040    86416004.616                          38.750                  
  22238467.132   116863933.987                          47.500                  
  22238470.052    91062805.100                          33.750                  
  21167586.040   111236414.021                          47.250                  
  21167588.680    86677725.617                          40.500                  
  20515167.964   107807936.162                          48.500                  
  20515174.404    84006183.656                          51.750                  
  23078883.548   121280348.879                          42.250                  
  23078889.448    94504168.030                          45.250                  
  22816117.148   119899501.576                          43.250                  
  22816121.408    93428182.509                          31.750                  
  24120330.400   126753189.695                          43.250                  
  24120334.300    98768718.424                          40.750                  
 16 10  2  8  0 50.0000000  0  8G 5G16G20G21G26G27G29G31
  24509428.318   128797909.705                          41.000                  
  24509432.018   100362006.682                          39.500                  
  21103313.140   110898662.957                          46.500                  
  21103316.480    86414542.355                          39.000                  
  22238345.812   116863300.009                          47.500                  
  22238348.872    91062311.089                          33.500                  
  21167632.320   111236655.067                          47.000                  
  21167634.200    86677913.440                          40.250                  
  20515176.404   107807979.770                          48.500                  
  20515182.844    84006217.636                          51.250                  
  23078304.168   121277305.016                          42.500                  
  23078309.968    94501796.186                          45.500                  
  22816684.628   119902482.797                          43.750                  
  22816688.528    93430505.539                          31.500                  
  24120991.060   126756661.805                          43.750                  
  24120995.240    98771423.958                          40.500                  
 16 10  2  8  0 51.0000000  0  8G 5G16G20G21G26G27G29G31
  24509855.838   128800156.319                          40.750                  
  24509859.558   100363757.280                          39.250                  
  21102956.420   110896786.857                          46.000                  
  21102959.180    86413080.461                          39.000                  
  22238225.872   116862666.701                          47.500                  
  22238228.872    91061817.611                          33.500                  
  21167677.700   111236896.538                          47.500                  
  21167680.160    86678101.602                          40.250                  
  20515184.464   107808023.936                          48.500                  
  20515191.424    84006252.047                          51.250                  
  23077725.068   121274261.260                          42.500                  
  23077730.708    94499424.428                          45.250                  
  22817252.108   119905464.199                          44.000                  
  22817256.068    93432828.714                          31.250                  
  24121651.700   126760133.999                          43.250                  
  24121655.980    98774129.559                          40.750                  
 16 10  2  8  0 52.0000000  0  8G 5G16G20G21G26G27G29G31
  24510283.138   128802403.822                          41.250                  
  24510287.218   100365508.577                          39.000                  
  21102599.360   110894911.600                          46.750                  
  21102602.440    86411619.218                          38.750                  
  22238105.192   116862034.383                          47.750                  
  22238108.432    91061324.898                          33.750                  
  21167723.820   111237138.864                          47.750                  
  21167726.200    86678290.427                          40.500                  
  20515193.144   107808069.064                          48.750                  
  20515200.004    84006287.216                          51.500                  
  23077145.768   121271218.063                          42.500                  
  23077151.548    94497053.110                          45.250                  
  22817819.288   119908446.124                          44.000                  
  22817823.268    93435152.292                          30.750                  
  24122312.680   126763606.649                          43.500                  
  24122316.700    98776835.515                          40.500                  
 16 10  2  8  0 53.0000000  0  8G 5G16G20G21G26G27G29G31
  24510710.538   128804651.414                          41.500                  
  24510714.678   100367259.953                          38.500                  
  21102242.580   110893036.404                          47.000                  
  21102245.680    86410158.026                          38.500                  
  22237985.072   116861402.323                          47.500                  
  22237988.632    91060832.388                          33.750                  
  21167770.140   111237381.247                          47.250                  
  21167772.500    86678479.297                          40.000                  
  20515201.864   107808114.410                          48.750                  
  20515208.284    84006322.548                          51.500                  
  23076566.368   121268174.615                          41.750                  
  23076572.368    94494681.596                          45.000                  
  22818386.688   119911427.773                          44.250                  
  22818390.788    93437475.653                          30.750                  
  24122973.640   126767079.022                          44.000                  
  24122977.820    98779541.254                          40.250                  
 16 10  2  8  0 54.0000000  0  8G 5G16G20G21G26G27G29G31
  24511138.458   128806899.392                          42.000                  
  24511142.938   100369011.633                          38.750                  
  21101885.780   110891161.572                          47.750                  
  21101888.900    86408697.118                          38.500                  
  22237865.092   116860770.781                          47.750                  
  22237868.072    91060340.277                          33.750                  
  21167816.120   111237623.962                          47.000                  
  21167818.640    86678668.423                          40.000                  
  20515210.704   107808160.223                          49.000                  
  20515217.184    84006358.249                          52.000                  
  23075987.508   121265131.200                          41.500                  
  23075993.528    94492310.114                          44.750                  
  22818953.488   119914409.444                          44.000                  
  22818958.328    93439799.034                          31.500                  
  24123634.500   126770551.365                          43.500                  
  24123638.760    98782246.978                          40.250                  
 16 10  2  8  0 55.0000000  0  8G 5G16G20G21G26G27G29G31
  24511566.238   128809148.134                          41.250                  
  24511570.838   100370763.906                          38.250                  
  21101529.120   110889287.495                          47.500                  
  21101532.100    86407236.805                          38.500                  
  22237744.772   116860140.172                          48.000                  
  22237747.752    91059848.893                          33.500                  
  21167862.720   111237867.448                          47.000                  
  21167865.000    86678858.157                          40.000                  
  20515219.744   107808206.909                          49.500                  
  20515226.364    84006394.625                          51.750                  
  23075408.108   121262088.259                          41.500                  
  23075414.008    94489938.989                          44.500                  
  22819521.548   119917391.563                          44.250                  
  22819525.688    93442122.762                          31.000                  
  24124295.100   126774024.095                          44.000                  
  24124299.220    98784952.999                          39.750                  
 16 10  2  8  0 56.0000000  0  8G 5G16G20G21G26G27G29G31
  24511994.578   128811397.397                          41.250                  
  24511998.738   100372516.572                          38.500                  
  21101172.660   110887413.878                          47.000                  
  21101175.640    86405776.839                          38.250                  
  22237624.952   116859510.193                          48.000                  
  22237628.012    91059357.992                          33.500                  
  21167909.080   111238111.369                          47.000                  
  21167911.220    86679048.225                          40.250                  
  20515228.464   107808254.183                          49.500                  
  20515235.404    84006431.458                          52.000                  
  23074829.248   121259045.441                          42.000                  
  23074835.348    94487567.954                          44.500                  
  22820088.688   119920373.812                          44.500                  
  22820093.428    93444446.590                          30.750                  
  24124955.800   126777496.893                          44.500                  
  24124959.880    98787659.079                          40.000                  
 16 10  2  8  0 57.0000000  0  8G 5G16G20G21G26G27G29G31
  24512422.678   128813647.509                          41.000                  
  24512426.898   100374269.900                          38.750                  
  21100816.160   110885541.076                          47.500                  
  21100819.080    86404317.514                          38.500                  
  22237505.252   116858881.218                          47.750                  
  22237508.212    91058867.875                          33.000                  
  21167955.900   111238356.109                          47.250                  
  21167958.260    86679238.932                          40.500                  
  20515237.404   107808302.390                          49.250                  
  20515244.144    84006469.024                          52.000                  
  23074251.068   121256003.135                          42.250                  
  23074256.588    94485197.322                          45.000                  
  22820655.948   119923356.586                          44.000                  
  22820660.608    93446770.831                          31.500                  
  24125616.780   126780970.149                          44.500                  
  24125620.960    98790365.512                          40.000                  
 16 10  2  8  0 58.0000000  0  8G 5G16G20G21G26G27G29G31
  24512850.558   128815897.300                          40.750                  
  24512855.258   100376022.983                          38.500                  
  21100459.740   110883667.937                          47.250                  
  21100463.080    86402857.919                          38.500                  
  22237385.572   116858252.064                          48.000                  
  22237388.852    91058377.630                          33.000                  
  21168002.340   111238600.497                          47.250                  
  21168004.500    86679429.362                          40.750                  
  20515246.904   107808350.371                          48.750                  
  20515253.304    84006506.416                          52.250                  
  23073671.888   121252960.194                          42.500                  
  23073677.308    94482826.195                          45.250                  
  22821224.168   119926338.695                          44.000                  
  22821228.208    93449094.550                          31.500                  
  24126277.400   126784442.694                          45.000                  
  24126281.720    98793071.402                          39.750                  
 16 10  2  8  0 59.0000000  0  8G 5G16G20G21G26G27G29G31
  24513278.898   128818148.473                          40.500                  
  24513283.718   100377777.136                          38.500                  
  21100103.620   110881796.201                          47.750                  
  21100106.600    86401399.426                          38.500                  
  22237265.732   116857624.486                          48.250                  
  22237269.272    91057888.610                          33.750                  
  21168049.080   111238846.262                          47.000                  
  21168051.080    86679620.863                          40.750                  
  20515256.144   107808399.892                          48.750                  
  20515262.724    84006545.006                          51.750                  
  23073092.368   121249918.319                          42.000                  
  23073098.888    94480455.897                          45.750                  
  22821791.288   119929321.855                          44.500                  
  22821796.188    93451419.085                          31.000                  
  24126938.280   126787916.257                          45.000                  
  24126942.800    98795778.074                          40.250                  
 16 10  2  8  1  0.0000000  0  8G 5G16G20G21G26G27G29G31
  24513707.858   128820399.812                          40.500                  
  24513711.918   100379531.426                          39.000                  
  21099747.340   110879924.565                          48.250                  
  21099750.240    86399941.010                          38.500                  
  22237146.512   116856997.190                          47.750                  
  22237149.692    91057399.810                          33.500                  
  21168096.040   111239092.132                          47.000                  
  21168098.040    86679812.456                          40.500                  
  20515265.504   107808449.621                          48.500                  
  20515272.404    84006583.753                          52.000                  
  23072513.548   121246876.229                          41.750                  
  23072519.868    94478085.441                          45.750                  
  22822358.448   119932304.802                          43.250                  
  22822363.688    93453743.467                          31.250                  
  24127598.960   126791389.554                          45.000                  
  24127603.620    98798484.540                          40.000                  
 16 10  2  8  1  1.0000000  0  8G 5G16G20G21G26G27G29G31
  24514136.178   128822651.492                          40.000                  
  24514140.698   100381285.982                          39.000                  
  21099391.640   110878053.246                          48.000                  
  21099394.280    86398482.842                          38.500                  
  22237027.172   116856370.388                          47.750                  
  22237030.532    91056911.387                          33.500                  
  21168142.560   111239338.304                          46.500                  
  21168144.880    86680004.276                          40.500                  
  20515275.184   107808499.817                          48.250                  
  20515281.824    84006622.863                          52.000                  
  23071934.808   121243834.179                          42.000                  
  23071940.828    94475715.024                          45.750                  
  22822926.428   119935287.768                          42.500                  
  22822931.408    93456067.856                          31.500                  
  24128260.240   126794862.817                          44.750                  
  24128264.500    98801190.981                          40.250                  
 16 10  2  8  1  2.0000000  0  8G 5G16G20G21G26G27G29G31
  24514564.278   128824903.719                          40.000                  
  24514568.818   100383040.962                          39.500                  
  21099035.440   110876182.433                          48.250                  
  21099038.200    86397025.061                          38.500                  
  22236908.112   116855744.240                          47.500                  
  22236911.492    91056423.483                          33.500                  
  21168189.480   111239584.973                          46.750                  
  21168191.640    86680196.492                          40.500                  
  20515284.964   107808550.607                          48.750                  
  20515291.624    84006662.442                          52.250                  
  23071356.468   121240792.312                          42.000                  
  23071362.228    94473344.743                          45.750                  
  22823494.248   119938270.886                          42.750                  
  22823499.068    93458392.364                          31.500                  
  24128921.140   126798336.204                          44.250                  
  24128925.380    98803897.522                          40.500                  
 16 10  2  8  1  3.0000000  0  8G 5G16G20G21G26G27G29G31
  24514993.138   128827156.536                          40.250                  
  24514997.898   100384796.404                          38.500                  
  21098679.680   110874312.223                          48.500                  
  21098682.340    86395567.760                          38.500                  
  22236789.472   116855118.875                          47.250                  
  22236792.612    91055936.182                          34.000                  
  21168236.580   111239832.227                          47.250                  
  21168238.780    86680389.156                          40.250                  
  20515294.904   107808602.135                          49.000                  
  20515301.244    84006702.588                          52.000                  
  23070777.428   121237750.695                          42.500                  
  23070782.988    94470974.659                          45.500                  
  22824061.848   119941254.293                          42.500                  
  22824066.868    93460717.091                          31.000                  
  24129582.200   126801809.798                          44.000                  
  24129585.860    98806604.210                          40.750                  
 16 10  2  8  1  4.0000000  0  8G 5G16G20G21G26G27G29G31
  24515421.838   128829409.854                          40.000                  
  24515427.138   100386552.226                          38.500                  
  21098323.760   110872442.448                          48.250                  
  21098326.500    86394110.785                          38.250                  
  22236670.832   116854494.146                          47.250                  
  22236673.752    91055449.384                          33.000                  
  21168283.780   111240079.926                          47.000                  
  21168285.760    86680582.170                          40.250                  
  20515304.964   107808654.239                          49.000                  
  20515311.264    84006743.194                          52.000                  
  23070198.948   121234709.248                          43.000                  
  23070204.288    94468604.705                          45.500                  
  22824629.848   119944237.821                          42.500                  
  22824634.488    93463041.911                          31.250                  
  24130242.660   126805283.492                          44.000                  
  24130247.620    98809310.985                          40.500                  
