     2.10           OBSERVATION DATA    M (MIXED)           RINEX VERSION / TYPE
RTKCONV-QT 2.4.3 b15                    20161002 105341 UTC PGM / RUN BY / DATE 
log: /home/max/rtklib_logs/base_201610020814_inner.rtcm3    COMMENT             
format: RTCM 3, station ID: 662                             COMMENT             
                                                            MARKER NAME         
                                                            MARKER NUMBER       
                                                            OBSERVER / AGENCY   
                    TRIMBLE NETR5                           REC # / TYPE / VERS 
                    ADVNULLANTENNA                          ANT # / TYPE        
  3902523.9440   520395.9221  5001289.0548                  APPROX POSITION XYZ 
        0.0000        0.0000        0.0000                  ANTENNA: DELTA H/E/N
     1     1                                                WAVELENGTH FACT L1/2
    10    C1    L1    D1    S1    P1    P2    L2    D2    S2# / TYPES OF OBSERV 
          C2                                                # / TYPES OF OBSERV 
  2016    10     2     8    14   52.0000000     GPS         TIME OF FIRST OBS   
  2016    10     2     8    23    5.0000000     GPS         TIME OF LAST OBS    
                                                            END OF HEADER       
 16 10  2  8 14 52.0000000  0  8G16G18G20G21G26G27G29G31
  20836823.602   109498246.9761                         50.000                  
  20836825.902    85323308.9281                         40.000                  
  23194557.046   121888220.0201                         44.750                  
  23194560.146    94977833.4151                         27.000                  
  22181914.854   116566749.4741                         47.500                  
  22181917.994    90831232.9121                         32.000                  
  21237910.940   111605975.2941                         44.750                  
  21237913.000    86965694.6271                         40.250                  
  20563516.624   108062009.4121                         48.750                  
  20563522.804    84204162.8181                         51.500                  
  22603085.910   118780018.3771                         46.000                  
  22603091.570    92555858.8241                         47.250                  
  23304787.466   122467485.0841                         44.750                  
  23304792.846    95429208.6011                         29.500                  
  24683194.176   129711060.5861                         41.000                  
  24683197.816   101073554.2131                         38.750                  
 16 10  2  8 14 53.0000000  0  8G16G18G20G21G26G27G29G31
  20836549.462   109496805.522                          49.750                  
  20836551.802    85322185.718                          40.000                  
  23194048.226   121885549.761                          44.750                  
  23194051.986    94975752.694                          25.750                  
  22181901.934   116566681.678                          47.500                  
  22181905.374    90831180.088                          32.000                  
  21238030.960   111606607.449                          44.750                  
  21238033.600    86966187.217                          40.250                  
  20563623.224   108062570.440                          48.750                  
  20563629.584    84204599.984                          51.750                  
  22602536.870   118777135.210                          46.250                  
  22602542.810    92553612.198                          47.500                  
  23305378.886   122470591.958                          44.250                  
  23305383.966    95431629.542                          29.000                  
  24683866.576   129714593.841                          41.000                  
  24683870.436   101076307.393                          38.000                  
 16 10  2  8 14 54.0000000  0  8G16G18G20G21G26G27G29G31
  20836274.962   109495365.004                          50.000                  
  20836277.562    85321063.240                          39.500                  
  23193540.306   121882880.171                          44.500                  
  23193543.866    94973672.496                          25.250                  
  22181889.034   116566614.963                          47.500                  
  22181892.714    90831128.102                          32.000                  
  21238151.800   111607240.478                          45.000                  
  21238153.900    86966680.485                          40.500                  
  20563730.204   108063132.468                          49.000                  
  20563736.364    84205037.931                          51.750                  
  22601988.450   118774252.657                          46.000                  
  22601994.350    92551366.057                          47.000                  
  23305970.526   122473699.387                          44.000                  
  23305974.926    95434050.909                          29.000                  
  24684538.796   129718127.537                          40.750                  
  24684542.656   101079060.920                          38.000                  
 16 10  2  8 14 55.0000000  0  8G16G18G20G21G26G27G29G31
  20836000.502   109493924.152                          50.250                  
  20836003.322    85319940.494                          39.750                  
  23193032.646   121880209.959                          44.750                  
  23193035.786    94971591.815                          27.000                  
  22181876.694   116566548.035                          47.500                  
  22181879.814    90831075.951                          31.750                  
  21238272.020   111607873.066                          45.500                  
  21238274.720    86967173.406                          40.500                  
  20563837.144   108063694.258                          49.000                  
  20563843.324    84205475.687                          51.750                  
  22601439.950   118771369.416                          46.000                  
  22601445.430    92549119.378                          47.000                  
  23306561.506   122476806.080                          44.000                  
  23306566.626    95436471.694                          28.750                  
  24685210.396   129721660.387                          40.750                  
  24685214.916   101081813.790                          37.750                  
 16 10  2  8 14 56.0000000  0  8G16G18G20G21G26G27G29G31
  20835726.682   109492484.312                          49.250                  
  20835729.342    85318818.545                          39.500                  
  23192524.586   121877540.522                          45.000                  
  23192528.126    94969511.743                          25.500                  
  22181863.974   116566482.271                          47.500                  
  22181867.434    90831024.702                          32.500                  
  21238392.280   111608506.553                          45.250                  
  21238395.040    86967667.030                          40.000                  
  20563944.544   108064257.112                          49.250                  
  20563950.224    84205914.268                          51.500                  
  22600891.190   118768486.872                          45.750                  
  22600897.410    92546873.243                          47.250                  
  23307153.366   122479913.345                          44.250                  
  23307157.626    95438892.945                          29.750                  
  24685882.336   129725193.710                          39.750                  
  24685887.456   101084567.027                          38.250                  
 16 10  2  8 14 57.0000000  0  8G16G18G20G21G26G27G29G31
  20835452.922   109491045.113                          49.500                  
  20835455.522    85317697.087                          39.500                  
  23192016.886   121874871.405                          44.500                  
  23192019.826    94967431.918                          26.000                  
  22181851.794   116566417.248                          47.750                  
  22181854.834    90830974.036                          32.000                  
  21238513.020   111609140.570                          45.250                  
  21238515.440    86968161.072                          40.000                  
  20564051.644   108064820.656                          49.500                  
  20564057.544    84206353.398                          51.500                  
  22600342.870   118765604.603                          45.500                  
  22600348.690    92544627.317                          47.500                  
  23307744.206   122483020.829                          44.750                  
  23307749.226    95441314.361                          29.000                  
  24686554.836   129728727.161                          39.750                  
  24686559.896   101087320.370                          38.500                  
 16 10  2  8 14 58.0000000  0  8G16G18G20G21G26G27G29G31
  20835178.762   109489606.786                          49.500                  
  20835181.622    85316576.317                          39.500                  
  23191508.946   121872202.982                          44.500                  
  23191512.446    94965352.623                          26.500                  
  22181839.334   116566353.296                          47.500                  
  22181842.654    90830924.208                          31.750                  
  21238633.800   111609775.431                          45.500                  
  21238636.200    86968655.769                          40.000                  
  20564159.044   108065385.223                          49.500                  
  20564165.104    84206793.324                          51.000                  
  22599794.030   118762722.910                          45.500                  
  22599800.090    92542381.844                          47.250                  
  23308335.586   122486128.836                          45.000                  
  23308340.286    95443736.180                          29.000                  
  24687227.656   129732260.991                          39.250                  
  24687231.916   101090074.006                          38.750                  
 16 10  2  8 14 59.0000000  0  8G16G18G20G21G26G27G29G31
  20834905.362   109488167.778                          49.250                  
  20834907.782    85315455.008                          39.500                  
  23191001.046   121869533.550                          44.500                  
  23191004.506    94963272.546                          26.500                  
  22181827.174   116566288.746                          48.000                  
  22181830.134    90830873.910                          32.250                  
  21238754.720   111610409.451                          46.000                  
  21238757.120    86969149.812                          40.000                  
  20564266.164   108065949.107                          49.750                  
  20564272.984    84207232.708                          51.000                  
  22599245.430   118759840.152                          46.250                  
  22599251.650    92540135.542                          47.000                  
  23308926.786   122489235.681                          44.750                  
  23308931.426    95446157.094                          29.500                  
  24687899.436   129735793.610                          39.500                  
  24687904.096   101092826.693                          39.000                  
 16 10  2  8 15  0.0000000  0  8G16G18G20G21G26G27G29G31
  20834631.922   109486730.694                          49.500                  
  20834634.802    85314335.209                          39.750                  
  23190493.426   121866865.808                          44.250                  
  23190496.886    94961193.786                          26.000                  
  22181815.194   116566226.272                          47.750                  
  22181818.314    90830825.226                          32.750                  
  21238875.300   111611045.332                          46.500                  
  21238878.040    86969645.297                          40.000                  
  20564373.524   108066515.030                          50.000                  
  20564379.804    84207673.691                          51.250                  
  22598697.870   118756958.998                          46.250                  
  22598703.270    92537890.492                          46.500                  
  23309518.586   122492344.082                          45.000                  
  23309523.246    95448579.218                          29.500                  
  24688572.476   129739327.664                          39.250                  
  24688576.636   101095580.491                          38.500                  
 16 10  2  8 15  1.0000000  0  8G16G18G20G21G26G27G29G31
  20834358.582   109485292.922                          49.500                  
  20834360.802    85313214.867                          39.500                  
  23189985.306   121864197.091                          44.000                  
  23189989.026    94959114.266                          26.500                  
  22181803.494   116566163.235                          48.000                  
  22181806.434    90830776.113                          31.750                  
  21238996.460   111611680.395                          46.750                  
  21238998.920    86970140.158                          40.000                  
  20564481.224   108067080.298                          50.000                  
  20564487.984    84208114.153                          51.000                  
  22598148.590   118754076.834                          46.000                  
  22598154.690    92535644.653                          46.500                  
  23310110.666   122495451.353                          44.750                  
  23310114.906    95451000.471                          28.500                  
  24689244.656   129742860.495                          39.750                  
  24689248.916   101098333.339                          38.250                  
 16 10  2  8 15  2.0000000  0  8G16G18G20G21G26G27G29G31
  20834085.082   109483856.757                          49.250                  
  20834087.462    85312095.773                          39.250                  
  23189477.446   121861529.687                          43.250                  
  23189481.686    94957035.772                          26.250                  
  22181791.694   116566101.935                          48.250                  
  22181795.154    90830728.344                          32.250                  
  21239118.020   111612316.995                          47.250                  
  21239120.180    86970636.210                          40.250                  
  20564589.124   108067647.251                          50.500                  
  20564595.044    84208555.935                          51.000                  
  22597600.650   118751195.903                          45.750                  
  22597606.790    92533399.769                          46.500                  
  23310701.726   122498559.827                          45.000                  
  23310705.866    95453422.658                          29.000                  
  24689917.536   129746394.375                          40.250                  
  24689920.976   101101086.997                          38.500                  
 16 10  2  8 15  3.0000000  0  8G16G18G20G21G26G27G29G31
  20833811.842   109482419.983                          49.500                  
  20833814.022    85310976.209                          39.500                  
  23188969.746   121858861.469                          43.250                  
  23188974.146    94954956.645                          25.750                  
  22181779.654   116566040.191                          48.000                  
  22181783.194    90830680.230                          32.250                  
  21239238.820   111612952.907                          46.500                  
  21239241.160    86971131.728                          40.500                  
  20564697.264   108068213.717                          50.500                  
  20564703.384    84208997.343                          51.500                  
  22597052.390   118748314.078                          46.250                  
  22597058.410    92531154.187                          47.000                  
  23311293.086   122501667.313                          45.000                  
  23311297.706    95455844.068                          29.000                  
  24690589.776   129749927.191                          40.000                  
  24690593.396   101103839.832                          38.250                  
 16 10  2  8 15  4.0000000  0  8G16G18G20G21G26G27G29G31
  20833538.402   109480984.739                          49.000                  
  20833540.842    85309857.835                          40.000                  
  23188462.286   121856194.476                          43.000                  
  23188466.406    94952878.478                          26.000                  
  22181768.634   116565980.094                          48.000                  
  22181771.754    90830633.404                          32.500                  
  21239360.220   111613590.209                          47.000                  
  21239362.420    86971628.327                          40.250                  
  20564805.204   108068781.716                          50.750                  
  20564811.524    84209439.937                          51.500                  
  22596503.990   118745433.407                          46.000                  
  22596509.970    92528909.502                          47.000                  
  23311884.146   122504775.875                          45.000                  
  23311888.546    95458266.326                          29.000                  
  24691262.536   129753460.984                          40.500                  
  24691266.076   101106593.425                          37.750                  
 16 10  2  8 15  5.0000000  0  8G16G18G20G21G26G27G29G31
  20833265.682   109479549.499                          49.000                  
  20833267.942    85308739.468                          39.500                  
  23187955.146   121853527.272                          43.750                  
  23187958.866    94950800.146                          26.000                  
  22181757.174   116565920.153                          47.750                  
  22181760.654    90830586.690                          33.250                  
  21239481.140   111614227.460                          47.000                  
  21239483.740    86972124.886                          40.500                  
  20564913.284   108069349.843                          50.500                  
  20564919.244    84209882.638                          51.500                  
  22595955.710   118742552.433                          46.000                  
  22595961.970    92526664.588                          47.250                  
  23312476.146   122507884.062                          45.000                  
  23312480.506    95460688.300                          29.250                  
  24691935.056   129756994.260                          40.750                  
  24691938.296   101109346.625                          37.250                  
 16 10  2  8 15  6.0000000  0  8G16G18G20G21G26G27G29G31
  20832992.502   109478115.032                          48.750                  
  20832994.762    85307621.704                          39.750                  
  23187448.066   121850860.512                          44.250                  
  23187451.266    94948722.154                          26.500                  
  22181745.954   116565861.068                          47.750                  
  22181749.254    90830540.652                          32.500                  
  21239602.940   111614865.348                          46.750                  
  21239604.620    86972621.938                          40.250                  
  20565021.624   108069918.782                          50.750                  
  20565027.744    84210325.967                          51.500                  
  22595407.910   118739671.852                          46.250                  
  22595413.810    92524419.977                          47.000                  
  23313067.346   122510992.587                          44.500                  
  23313071.826    95463110.529                          28.500                  
  24692607.376   129760527.793                          41.000                  
  24692610.856   101112100.032                          37.500                  
 16 10  2  8 15  7.0000000  0  8G16G18G20G21G26G27G29G31
  20832719.462   109476680.400                          49.250                  
  20832721.562    85306503.808                          39.500                  
  23186940.346   121848193.358                          44.500                  
  23186943.826    94946643.848                          26.000                  
  22181734.754   116565802.014                          47.500                  
  22181737.974    90830494.636                          32.750                  
  21239724.480   111615503.020                          47.000                  
  21239726.460    86973118.823                          40.000                  
  20565129.984   108070487.658                          50.750                  
  20565136.264    84210769.247                          51.500                  
  22594859.750   118736790.805                          46.500                  
  22594865.770    92522175.013                          47.250                  
  23313658.906   122514100.554                          45.000                  
  23313663.126    95465532.318                          28.750                  
  24693279.076   129764060.677                          40.500                  
  24693283.096   101114852.945                          37.500                  
 16 10  2  8 15  8.0000000  0  8G16G18G20G21G26G27G29G31
  20832447.142   109475247.682                          49.250                  
  20832449.222    85305387.407                          39.500                  
  23186433.026   121845527.852                          44.500                  
  23186436.586    94944566.820                          25.750                  
  22181723.754   116565744.981                          47.500                  
  22181726.794    90830450.201                          32.500                  
  21239845.740   111616142.493                          46.750                  
  21239848.040    86973617.117                          40.000                  
  20565238.324   108071058.494                          50.750                  
  20565244.724    84211214.052                          51.250                  
  22594312.070   118733911.305                          46.500                  
  22594317.670    92519931.254                          47.250                  
  23314250.326   122517210.014                          45.000                  
  23314254.926    95467955.275                          30.000                  
  24693952.076   129767594.899                          40.000                  
  24693955.616   101117606.894                          37.750                  
 16 10  2  8 15  9.0000000  0  8G16G18G20G21G26G27G29G31
  20832174.342   109473814.929                          49.500                  
  20832176.802    85304270.970                          39.250                  
  23185925.006   121842862.033                          44.250                  
  23185929.306    94942489.564                          26.000                  
  22181712.694   116565688.025                          47.750                  
  22181716.274    90830405.817                          32.250                  
  21239967.440   111616781.807                          47.000                  
  21239969.760    86974115.282                          40.000                  
  20565346.864   108071629.369                          50.250                  
  20565353.364    84211658.889                          51.500                  
  22593763.630   118731031.428                          46.500                  
  22593769.690    92517687.193                          47.000                  
  23314842.046   122520319.008                          44.500                  
  23314846.586    95470377.864                          30.000                  
  24694624.316   129771128.624                          39.750                  
  24694628.016   101120360.444                          38.250                  
 16 10  2  8 15 10.0000000  0  8G16G18G20G21G26G27G29G31
  20831901.682   109472382.288                          50.000                  
  20831904.022    85303154.628                          39.500                  
  23185417.946   121840196.067                          43.750                  
  23185421.846    94940412.184                          25.250                  
  22181702.194   116565631.354                          47.750                  
  22181705.114    90830361.654                          32.250                  
  21240089.560   111617421.185                          47.250                  
  21240091.480    86974613.494                          40.000                  
  20565455.484   108072200.439                          50.250                  
  20565462.524    84212103.880                          51.750                  
  22593214.670   118728151.350                          46.250                  
  22593221.450    92515442.977                          46.750                  
  23315433.906   122523427.716                          44.750                  
  23315438.266    95472800.226                          29.500                  
  24695296.996   129774661.934                          40.500                  
  24695300.316   101123113.662                          38.250                  
 16 10  2  8 15 11.0000000  0  8G16G18G20G21G26G27G29G31
  20831629.542   109470951.412                          49.500                  
  20831631.662    85302039.660                          39.750                  
  23184910.966   121837531.601                          43.750                  
  23184914.526    94938335.985                          25.500                  
  22181691.614   116565576.565                          47.750                  
  22181694.594    90830318.964                          31.750                  
  21240210.760   111618062.202                          47.500                  
  21240213.360    86975112.992                          40.000                  
  20565564.924   108072773.349                          50.500                  
  20565570.684    84212550.303                          51.500                  
  22592667.570   118725272.679                          46.500                  
  22592673.630    92513199.856                          46.750                  
  23316025.766   122526537.783                          44.500                  
  23316030.366    95475223.661                          29.250                  
  24695969.356   129778196.468                          40.000                  
  24695973.056   101125867.840                          38.000                  
 16 10  2  8 15 12.0000000  0  8G16G18G20G21G26G27G29G31
  20831356.842   109469519.573                          49.500                  
  20831359.342    85300923.939                          39.500                  
  23184404.346   121834865.897                          43.500                  
  23184407.246    94936258.813                          25.500                  
  22181681.034   116565520.959                          47.750                  
  22181684.254    90830275.634                          32.000                  
  21240332.940   111618702.163                          47.500                  
  21240335.240    86975611.663                          40.500                  
  20565673.924   108073345.351                          50.500                  
  20565679.944    84212996.017                          51.250                  
  22592119.830   118722392.725                          46.250                  
  22592125.310    92510955.734                          47.000                  
  23316616.906   122529646.486                          44.500                  
  23316621.866    95477646.021                          30.250                  
  24696641.696   129781729.528                          40.250                  
  24696645.516   101128620.876                          38.250                  
 16 10  2  8 15 13.0000000  0  8G16G18G20G21G26G27G29G31
  20831084.462   109468089.018                          49.500                  
  20831087.102    85299809.229                          39.750                  
  23183896.746   121832201.216                          43.500                  
  23183900.026    94934182.432                          25.250                  
  22181670.794   116565466.767                          47.500                  
  22181673.774    90830233.406                          32.500                  
  21240454.720   111619343.306                          47.500                  
  21240457.360    86976111.255                          40.000                  
  20565783.064   108073918.723                          50.500                  
  20565789.124    84213442.796                          51.750                  
  22591571.850   118719513.714                          46.250                  
  22591577.930    92508712.349                          47.250                  
  23317208.766   122532756.056                          43.750                  
  23317213.306    95480069.064                          29.500                  
  24697313.796   129785263.366                          40.000                  
  24697317.536   101131374.522                          38.000                  
 16 10  2  8 15 14.0000000  0  8G16G18G20G21G26G27G29G31
  20830812.442   109466658.902                          49.750                  
  20830814.822    85298694.847                          39.750                  
  23183390.186   121829536.687                          43.500                  
  23183393.506    94932106.178                          26.000                  
  22181660.574   116565413.115                          47.750                  
  22181664.014    90830191.602                          32.250                  
  21240576.600   111619984.796                          47.500                  
  21240579.020    86976611.116                          40.000                  
  20565891.904   108074492.568                          50.500                  
  20565898.444    84213889.952                          51.500                  
  22591024.110   118716634.777                          46.000                  
  22591029.810    92506469.020                          47.250                  
  23317801.306   122535865.637                          44.500                  
  23317805.066    95482492.106                          30.000                  
  24697986.796   129788797.099                          40.000                  
  24697990.076   101134128.082                          38.250                  
 16 10  2  8 15 15.0000000  0  8G16G18G20G21G26G27G29G31
  20830540.422   109465229.430                          49.500                  
  20830542.702    85297580.977                          39.750                  
  23182882.886   121826872.555                          43.750                  
  23182886.046    94930030.239                          25.500                  
  22181650.974   116565360.268                          47.750                  
  22181653.874    90830150.414                          32.000                  
  21240699.200   111620626.804                          47.500                  
  21240701.520    86977111.383                          40.250                  
  20566001.004   108075067.140                          50.750                  
  20566007.704    84214337.675                          51.750                  
  22590476.590   118713756.166                          46.250                  
  22590481.890    92504225.946                          47.250                  
  23318392.066   122538975.427                          44.750                  
  23318396.946    95484915.322                          29.750                  
  24698658.976   129792330.968                          40.500                  
  24698662.516   101136881.741                          38.000                  
 16 10  2  8 15 16.0000000  0  8G16G18G20G21G26G27G29G31
  20830268.462   109463800.886                          49.500                  
  20830270.842    85296467.825                          39.500                  
  23182375.686   121824209.080                          43.250                  
  23182378.666    94927954.797                          25.250                  
  22181640.714   116565308.485                          47.750                  
  22181644.074    90830110.072                          32.000                  
  21240821.460   111621269.684                          47.750                  
  21240823.620    86977612.325                          39.500                  
  20566110.344   108075642.737                          51.000                  
  20566117.124    84214786.190                          51.500                  
  22589928.290   118710878.133                          46.000                  
  22589934.610    92501983.323                          47.000                  
  23318984.246   122542085.770                          44.250                  
  23318988.966    95487338.959                          30.250                  
  24699332.356   129795865.269                          40.750                  
  24699335.456   101139635.739                          38.250                  
 16 10  2  8 15 17.0000000  0  8G16G18G20G21G26G27G29G31
  20829996.742   109462372.399                          48.750                  
  20829999.162    85295354.717                          39.750                  
  23181869.146   121821545.373                          43.250                  
  23181872.206    94925879.176                          26.000                  
  22181630.614   116565256.875                          48.000                  
  22181634.114    90830069.860                          32.500                  
  21240943.720   111621912.477                          47.250                  
  21240945.900    86978113.207                          39.750                  
  20566220.424   108076218.405                          50.750                  
  20566226.604    84215234.761                          51.500                  
  22589380.330   118707999.805                          46.000                  
  22589386.750    92499740.475                          47.250                  
  23319575.726   122545195.739                          44.500                  
  23319580.326    95489762.310                          29.500                  
  24700004.596   129799399.088                          40.750                  
  24700007.376   101142389.367                          38.250                  
 16 10  2  8 15 18.0000000  0  8G16G18G20G21G26G27G29G31
  20829724.802   109460944.120                          49.000                  
  20829727.242    85294241.768                          39.500                  
  23181361.886   121818881.669                          43.500                  
  23181365.246    94923803.568                          24.250                  
  22181621.354   116565205.631                          47.750                  
  22181624.334    90830029.930                          32.000                  
  21241066.080   111622555.407                          47.250                  
  21241068.520    86978614.187                          39.750                  
  20566330.144   108076794.412                          50.750                  
  20566336.264    84215683.597                          51.500                  
  22588833.030   118705121.383                          46.000                  
  22588838.930    92497497.550                          47.500                  
  23320167.886   122548305.506                          44.500                  
  23320172.366    95492185.497                          30.000                  
  24700676.356   129802932.584                          40.500                  
  24700679.876   101145142.740                          38.000                  
 16 10  2  8 15 19.0000000  0  8G16G18G20G21G26G27G29G31
  20829453.222   109459517.535                          49.000                  
  20829455.742    85293130.141                          40.250                  
  23180855.706   121816219.342                          43.750                  
  23180858.206    94921729.034                          26.750                  
  22181611.894   116565156.197                          47.750                  
  22181614.594    90829991.414                          32.500                  
  21241188.920   111623199.961                          46.500                  
  21241190.660    86979116.437                          39.500                  
  20566439.744   108077372.167                          51.000                  
  20566445.964    84216133.800                          51.500                  
  22588285.650   118702244.299                          46.250                  
  22588291.310    92495255.662                          47.250                  
  23320759.906   122551416.556                          44.500                  
  23320764.546    95494609.695                          29.000                  
  24701348.656   129806467.268                          40.750                  
  24701352.716   101147897.046                          38.000                  
 16 10  2  8 15 20.0000000  0  8G16G18G20G21G26G27G29G31
  20829181.822   109458090.270                          49.000                  
  20829184.842    85292017.989                          40.000                  
  23180348.746   121813556.072                          43.500                  
  23180351.706    94919653.758                          25.000                  
  22181602.054   116565106.214                          47.750                  
  22181605.394    90829952.462                          32.250                  
  21241310.980   111623843.681                          46.750                  
  21241313.660    86979618.037                          40.000                  
  20566549.304   108077949.290                          51.000                  
  20566555.744    84216583.500                          51.500                  
  22587737.830   118699366.187                          46.250                  
  22587743.850    92493012.982                          47.500                  
  23321352.226   122554526.509                          45.000                  
  23321356.206    95497033.025                          29.500                  
  24702021.656   129810000.741                          40.250                  
  24702025.476   101150650.393                          39.000                  
 16 10  2  8 15 21.0000000  0  8G16G18G20G21G26G27G29G31
  20828910.142   109456663.494                          48.750                  
  20828912.662    85290906.215                          40.000                  
  23179842.466   121810893.082                          44.000                  
  23179844.806    94917578.706                          26.500                  
  22181592.714   116565056.884                          47.750                  
  22181596.174    90829914.023                          32.250                  
  21241433.680   111624487.833                          46.500                  
  21241436.040    86980119.976                          39.750                  
  20566659.764   108078527.024                          50.750                  
  20566666.124    84217033.682                          51.500                  
  22587190.350   118696488.251                          46.000                  
  22587196.350    92490770.428                          47.750                  
  23321944.106   122557636.552                          44.750                  
  23321948.026    95499456.437                          29.500                  
  24702693.496   129813534.227                          40.250                  
  24702697.476   101153403.754                          39.000                  
 16 10  2  8 15 22.0000000  0  8G16G18G20G21G26G27G29G31
  20828639.262   109455238.207                          49.000                  
  20828641.542    85289795.604                          40.250                  
  23179335.186   121808231.270                          44.250                  
  23179338.346    94915504.556                          27.500                  
  22181583.294   116565009.142                          47.750                  
  22181586.574    90829876.822                          33.000                  
  21241556.680   111625133.351                          46.500                  
  21241558.920    86980622.975                          40.250                  
  20566770.024   108079106.265                          51.250                  
  20566776.224    84217485.033                          51.500                  
  22586642.570   118693611.468                          46.000                  
  22586648.770    92488528.779                          47.750                  
  23322535.166   122560747.638                          44.500                  
  23322540.126    95501880.666                          29.500                  
  24703366.776   129817068.659                          40.750                  
  24703370.296   101156157.853                          39.250                  
 16 10  2  8 15 23.0000000  0  8G16G18G20G21G26G27G29G31
  20828367.722   109453813.076                          49.500                  
  20828370.602    85288685.114                          40.000                  
  23178829.146   121805569.356                          43.750                  
  23178831.466    94913430.335                          26.000                  
  22181574.654   116564961.734                          47.750                  
  22181577.654    90829839.878                          32.500                  
  21241679.760   111625778.956                          47.000                  
  21241681.960    86981126.041                          40.250                  
  20566879.924   108079685.757                          51.500                  
  20566886.304    84217936.589                          51.500                  
  22586094.850   118690734.470                          46.250                  
  22586101.450    92486286.967                          47.500                  
  23323127.386   122563858.488                          44.750                  
  23323131.786    95504304.703                          30.000                  
  24704039.496   129820602.720                          41.250                  
  24704043.016   101158911.669                          39.250                  
 16 10  2  8 15 24.0000000  0  8G16G18G20G21G26G27G29G31
  20828096.462   109452389.206                          49.250                  
  20828099.082    85287575.605                          39.750                  
  23178322.246   121802908.455                          44.000                  
  23178325.286    94911356.908                          26.250                  
  22181565.874   116564915.679                          48.000                  
  22181569.074    90829803.997                          31.750                  
  21241802.340   111626425.704                          47.250                  
  21241805.040    86981630.001                          40.000                  
  20566990.724   108080266.577                          51.000                  
  20566996.664    84218389.174                          51.750                  
  22585547.530   118687858.400                          46.250                  
  22585554.050    92484045.879                          47.750                  
  23323719.206   122566970.184                          44.500                  
  23323724.006    95506729.409                          30.000                  
  24704712.236   129824137.528                          41.000                  
  24704715.616   101161666.065                          39.500                  
 16 10  2  8 15 25.0000000  0  8G16G18G20G21G26G27G29G31
  20827825.862   109450964.403                          49.500                  
  20827828.142    85286465.369                          40.000                  
  23177816.226   121800246.331                          44.000                  
  23177818.846    94909282.529                          26.000                  
  22181557.214   116564868.844                          48.000                  
  22181560.314    90829767.506                          32.250                  
  21241925.280   111627071.411                          47.750                  
  21241927.580    86982133.151                          39.750                  
  20567100.644   108080846.520                          51.250                  
  20567107.164    84218841.088                          51.750                  
  22585000.610   118684981.063                          46.500                  
  22585006.490    92481803.800                          48.000                  
  23324312.046   122570080.513                          44.500                  
  23324315.946    95509153.040                          29.750                  
  24705384.776   129827670.885                          41.250                  
  24705388.176   101164419.320                          39.500                  
 16 10  2  8 15 26.0000000  0  8G16G18G20G21G26G27G29G31
  20827554.842   109449540.950                          49.500                  
  20827557.322    85285356.183                          40.000                  
  23177309.646   121797585.338                          44.000                  
  23177312.726    94907209.025                          26.500                  
  22181548.594   116564823.503                          47.750                  
  22181551.674    90829732.174                          31.500                  
  21242048.760   111627718.406                          47.250                  
  21242050.760    86982637.299                          40.000                  
  20567211.344   108081427.930                          51.500                  
  20567217.684    84219294.134                          51.750                  
  22584453.130   118682104.767                          46.500                  
  22584459.070    92479562.531                          47.500                  
  23324903.846   122573191.822                          45.250                  
  23324907.826    95511577.429                          29.250                  
  24706056.556   129831205.093                          40.750                  
  24706061.016   101167173.246                          39.250                  
 16 10  2  8 15 27.0000000  0  8G16G18G20G21G26G27G29G31
  20827284.262   109448117.934                          49.500                  
  20827286.302    85284247.335                          40.000                  
  23176802.826   121794924.496                          43.500                  
  23176805.706    94905135.639                          26.500                  
  22181539.954   116564778.751                          48.000                  
  22181543.074    90829697.306                          32.250                  
  21242171.660   111628365.708                          47.250                  
  21242174.000    86983141.694                          40.000                  
  20567322.324   108082009.825                          50.500                  
  20567328.664    84219747.551                          51.250                  
  22583905.370   118679228.536                          46.250                  
  22583912.010    92477321.312                          47.500                  
  23325495.426   122576303.132                          45.500                  
  23325500.186    95514001.826                          28.750                  
  24706728.756   129834739.199                          39.750                  
  24706733.316   101169927.085                          39.500                  
 16 10  2  8 15 28.0000000  0  8G16G18G20G21G26G27G29G31
  20827013.742   109446694.618                          49.500                  
  20827015.542    85283138.264                          40.000                  
  23176297.286   121792263.088                          43.750                  
  23176299.566    94903061.821                          26.250                  
  22181531.114   116564733.813                          48.000                  
  22181534.714    90829662.296                          32.250                  
  21242294.900   111629012.631                          47.000                  
  21242297.260    86983645.787                          40.500                  
  20567433.204   108082591.468                          50.250                  
  20567439.744    84220200.779                          51.500                  
  22583358.450   118676351.698                          46.500                  
  22583364.390    92475079.622                          47.500                  
  23326087.026   122579413.737                          45.000                  
  23326092.186    95516425.674                          29.000                  
  24707401.456   129838272.467                          39.250                  
  24707405.476   101172680.260                          39.250                  
 16 10  2  8 15 29.0000000  0  8G16G18G20G21G26G27G29G31
  20826743.062   109445273.735                          49.250                  
  20826745.342    85282031.081                          39.750                  
  23175790.886   121789603.817                          44.000                  
  23175793.926    94900989.668                          26.000                  
  22181523.414   116564691.415                          48.250                  
  22181526.094    90829629.254                          32.750                  
  21242418.380   111629661.857                          47.500                  
  21242420.740    86984151.685                          40.500                  
  20567544.124   108083175.628                          50.250                  
  20567550.184    84220655.973                          51.000                  
  22582810.950   118673476.926                          46.250                  
  22582817.250    92472839.542                          47.500                  
  23326679.566   122582526.337                          45.250                  
  23326684.086    95518851.068                          29.000                  
  24708075.096   129841807.663                          40.000                  
  24708078.536   101175434.950                          39.000                  
 16 10  2  8 15 30.0000000  0  8G16G18G20G21G26G27G29G31
  20826472.822   109443852.382                          49.250                  
  20826474.642    85280923.533                          39.750                  
  23175284.306   121786943.847                          44.000                  
  23175287.346    94898916.956                          25.750                  
  22181515.314   116564648.705                          48.000                  
  22181518.394    90829595.974                          32.250                  
  21242541.480   111630310.554                          47.500                  
  21242544.260    86984657.165                          40.750                  
  20567655.184   108083759.389                          50.250                  
  20567661.424    84221110.850                          51.500                  
  22582263.730   118670601.357                          46.250                  
  22582269.910    92470598.839                          47.750                  
  23327272.206   122585638.064                          45.000                  
  23327276.686    95521275.793                          29.250                  
  24708746.616   129845341.874                          39.000                  
  24708751.116   101178188.883                          39.000                  
 16 10  2  8 15 31.0000000  0  8G16G18G20G21G26G27G29G31
  20826201.802   109442431.095                          49.500                  
  20826204.502    85279816.036                          39.250                  
  23174778.466   121784283.690                          44.000                  
  23174781.566    94896844.102                          26.500                  
  22181507.374   116564606.223                          48.000                  
  22181510.194    90829562.869                          32.000                  
  21242665.240   111630959.223                          48.000                  
  21242667.220    86985162.621                          40.500                  
  20567766.224   108084343.326                          50.500                  
  20567772.924    84221565.864                          51.000                  
  22581717.270   118667725.537                          46.000                  
  22581722.770    92468357.940                          47.500                  
  23327863.826   122588749.473                          44.500                  
  23327868.466    95523700.270                          30.750                  
  24709418.616   129848875.665                          39.250                  
  24709423.256   101180942.490                          39.000                  
 16 10  2  8 15 32.0000000  0  8G16G18G20G21G26G27G29G31
  20825931.882   109441010.370                          49.750                  
  20825934.122    85278708.980                          39.500                  
  23174272.166   121781623.783                          44.000                  
  23174275.406    94894771.451                          26.000                  
  22181499.354   116564564.375                          47.500                  
  22181502.414    90829530.258                          32.000                  
  21242788.600   111631608.304                          48.000                  
  21242790.800    86985668.399                          40.750                  
  20567878.044   108084927.804                          50.750                  
  20567884.304    84222021.297                          51.000                  
  22581169.410   118664849.892                          46.000                  
  22581175.410    92466117.182                          47.000                  
  23328456.246   122591860.961                          44.250                  
  23328460.566    95526124.804                          31.000                  
  24710090.896   129852409.429                          39.750                  
  24710095.676   101183696.067                          39.000                  
 16 10  2  8 15 33.0000000  0  8G16G18G20G21G26G27G29G31
  20825661.242   109439590.961                          50.000                  
  20825663.922    85277602.945                          39.500                  
  23173766.206   121778964.961                          44.000                  
  23173769.446    94892699.638                          26.000                  
  22181491.214   116564523.998                          48.000                  
  22181494.654    90829498.797                          32.250                  
  21242912.640   111632258.612                          48.000                  
  21242914.740    86986175.128                          40.000                  
  20567989.444   108085513.699                          50.500                  
  20567995.604    84222477.842                          51.000                  
  22580622.410   118661975.243                          46.000                  
  22580628.510    92463877.198                          46.750                  
  23329048.526   122594973.369                          44.000                  
  23329052.826    95528550.061                          30.000                  
  24710764.316   129855944.019                          40.500                  
  24710768.316   101186450.276                          38.250                  
 16 10  2  8 15 34.0000000  0  8G16G18G20G21G26G27G29G31
  20825391.442   109438171.681                          49.750                  
  20825393.762    85276497.010                          39.500                  
  23173260.786   121776305.992                          43.750                  
  23173263.586    94890627.720                          26.500                  
  22181484.094   116564483.912                          47.500                  
  22181486.554    90829467.560                          32.500                  
  21243036.100   111632908.972                          47.750                  
  21243038.780    86986681.900                          40.000                  
  20568100.684   108086099.835                          50.250                  
  20568107.204    84222934.570                          51.250                  
  22580075.510   118659100.408                          46.250                  
  22580081.250    92461637.062                          46.500                  
  23329640.606   122598085.532                          44.000                  
  23329645.086    95530975.121                          29.500                  
  24711436.876   129859478.193                          40.500                  
  24711440.796   101189204.174                          38.000                  
 16 10  2  8 15 35.0000000  0  8G16G18G20G21G26G27G29G31
  20825121.282   109436753.281                          49.500                  
  20825123.962    85275391.768                          39.250                  
  23172754.206   121773647.638                          44.000                  
  23172757.466    94888556.277                          25.750                  
  22181476.334   116564444.807                          47.500                  
  22181479.514    90829437.090                          32.750                  
  21243160.300   111633560.111                          47.250                  
  21243162.500    86987189.279                          40.000                  
  20568212.224   108086686.890                          50.500                  
  20568218.964    84223392.018                          51.500                  
  22579528.410   118656226.066                          46.250                  
  22579534.230    92459397.317                          46.500                  
  23330232.846   122601198.140                          44.000                  
  23330237.426    95533400.521                          30.750                  
  24712108.756   129863012.751                          40.250                  
  24712113.416   101191958.377                          37.500                  
 16 10  2  8 15 36.0000000  0  8G16G18G20G21G26G27G29G31
  20824851.802   109435335.247                          49.750                  
  20824854.082    85274286.804                          39.500                  
  23172248.746   121770989.412                          44.250                  
  23172251.566    94886484.937                          25.000                  
  22181468.654   116564406.230                          47.500                  
  22181472.234    90829407.028                          32.000                  
  21243284.100   111634211.514                          47.250                  
  21243286.620    86987696.872                          40.750                  
  20568324.064   108087274.406                          50.500                  
  20568330.644    84223849.816                          51.750                  
  22578981.630   118653351.809                          46.500                  
  22578987.610    92457157.636                          46.750                  
  23330825.006   122604310.697                          44.000                  
  23330829.406    95535825.893                          29.750                  
  24712781.796   129866547.180                          40.250                  
  24712785.896   101194712.475                          37.500                  
 16 10  2  8 15 37.0000000  0  8G16G18G20G21G26G27G29G31
  20824581.982   109433917.422                          49.000                  
  20824584.422    85273182.008                          40.000                  
  23171743.106   121768331.097                          43.500                  
  23171745.786    94884413.529                          26.000                  
  22181461.634   116564367.955                          47.250                  
  22181464.594    90829377.203                          32.000                  
  21243407.940   111634863.034                          47.000                  
  21243410.400    86988204.546                          40.500                  
  20568435.804   108087862.163                          50.500                  
  20568442.544    84224307.815                          51.750                  
  22578434.750   118650477.399                          46.500                  
  22578440.490    92454917.834                          47.000                  
  23331417.826   122607423.029                          44.500                  
  23331422.306    95538251.080                          29.750                  
  24713454.236   129870081.260                          39.750                  
  24713458.236   101197466.312                          37.000                  
 16 10  2  8 15 38.0000000  0  8G16G18G20G21G26G27G29G31
  20824312.222   109432500.307                          49.000                  
  20824314.482    85272077.762                          39.250                  
  23171236.806   121765673.242                          43.500                  
  23171240.266    94882342.469                          25.500                  
  22181454.434   116564330.544                          47.750                  
  22181457.754    90829348.058                          32.750                  
  21243532.200   111635515.152                          47.000                  
  21243534.780    86988712.690                          40.750                  
  20568548.404   108088450.730                          50.500                  
  20568554.664    84224766.432                          52.000                  
  22577887.410   118647603.349                          46.250                  
  22577893.350    92452678.321                          47.250                  
  23332010.166   122610535.681                          44.250                  
  23332014.266    95540676.523                          29.750                  
  24714126.636   129873615.560                          39.750                  
  24714130.896   101200220.312                          37.000                  
 16 10  2  8 15 39.0000000  0  8G16G18G20G21G26G27G29G31
  20824042.642   109431083.610                          49.250                  
  20824045.122    85270973.843                          39.500                  
  23170731.146   121763015.566                          43.500                  
  23170734.506    94880271.556                          27.000                  
  22181447.734   116564293.696                          47.750                  
  22181450.754    90829319.345                          32.000                  
  21243656.160   111636167.612                          47.000                  
  21243658.780    86989221.100                          40.750                  
  20568660.484   108089039.793                          50.000                  
  20568666.784    84225225.448                          51.500                  
  22577340.810   118644729.420                          46.500                  
  22577346.770    92450438.896                          46.500                  
  23332602.186   122613648.346                          43.750                  
  23332606.546    95543101.973                          30.000                  
  24714799.596   129877149.753                          40.000                  
  24714803.596   101202974.230                          36.750                  
 16 10  2  8 15 40.0000000  0  8G16G18G20G21G26G27G29G31
  20823773.662   109429667.486                          50.000                  
  20823775.982    85269870.367                          40.000                  
  23170225.426   121760358.176                          43.750                  
  23170228.566    94878200.861                          27.500                  
  22181440.994   116564257.559                          47.750                  
  22181443.754    90829291.181                          32.250                  
  21243780.720   111636820.513                          47.000                  
  21243783.200    86989729.854                          40.750                  
  20568772.544   108089629.479                          50.250                  
  20568778.804    84225684.944                          51.250                  
  22576794.110   118641855.680                          46.500                  
  22576799.830    92448199.622                          46.500                  
  23333194.546   122616761.138                          43.750                  
  23333199.026    95545527.518                          30.000                  
  24715471.656   129880683.971                          40.000                  
  24715475.996   101205728.165                          37.000                  
 16 10  2  8 15 41.0000000  0  8G16G18G20G21G26G27G29G31
  20823504.022   109428252.767                          50.000                  
  20823506.342    85268767.989                          40.000                  
  23169720.026   121757701.913                          43.750                  
  23169723.626    94876131.050                          25.750                  
  22181433.834   116564222.913                          47.500                  
  22181437.494    90829264.190                          31.750                  
  21243905.200   111637474.713                          46.250                  
  21243907.340    86990239.618                          40.500                  
  20568884.804   108090220.610                          49.750                  
  20568891.304    84226145.559                          51.500                  
  22576247.170   118638982.997                          46.250                  
  22576253.070    92445961.170                          46.500                  
  23333787.126   122619874.930                          44.250                  
  23333791.626    95547953.848                          30.250                  
  24716145.096   129884219.071                          40.250                  
  24716148.696   101208482.788                          37.500                  
 16 10  2  8 15 42.0000000  0  8G16G18G20G21G26G27G29G31
  20823235.082   109426838.587                          49.250                  
  20823237.122    85267666.030                          39.750                  
  23169214.126   121755045.968                          43.500                  
  23169217.826    94874061.482                          26.750                  
  22181427.714   116564188.992                          47.500                  
  22181430.814    90829237.758                          31.750                  
  21244029.640   111638129.401                          45.500                  
  21244031.660    86990749.765                          40.000                  
  20568997.184   108090812.411                          49.500                  
  20569003.784    84226606.709                          51.500                  
  22575700.730   118636110.550                          46.250                  
  22575706.490    92443722.891                          46.750                  
  23334379.486   122622988.877                          44.500                  
  23334383.746    95550380.299                          30.000                  
  24716817.756   129887754.228                          39.750                  
  24716820.976   101211237.454                          37.500                  
 16 10  2  8 15 43.0000000  0  8G16G18G20G21G26G27G29G31
  20822965.662   109425423.530                          49.000                  
  20822968.062    85266563.390                          39.500                  
  23168708.446   121752388.838                          43.250                  
  23168712.066    94871990.995                          26.500                  
  22181421.154   116564154.277                          47.750                  
  22181423.834    90829210.709                          32.000                  
  21244154.100   111638783.088                          45.250                  
  21244156.500    86991259.133                          40.250                  
  20569109.844   108091403.385                          49.000                  
  20569116.704    84227067.204                          51.250                  
  22575153.930   118633236.881                          46.750                  
  22575159.690    92441483.669                          47.000                  
  23334971.846   122626101.509                          44.500                  
  23334976.446    95552805.721                          29.750                  
  24717489.756   129891287.992                          39.750                  
  24717493.616   101213991.028                          37.500                  
 16 10  2  8 15 44.0000000  0  8G16G18G20G21G26G27G29G31
  20822697.182   109424010.343                          48.500                  
  20822698.962    85265462.204                          40.250                  
  23168203.406   121749733.345                          43.500                  
  23168206.466    94869921.782                          25.000                  
  22181414.654   116564121.606                          48.000                  
  22181417.654    90829185.254                          32.250                  
  21244278.820   111639438.540                          45.000                  
  21244280.920    86991769.874                          40.500                  
  20569222.784   108091996.276                          49.000                  
  20569229.184    84227529.197                          51.750                  
  22574607.270   118630364.720                          47.000                  
  22574613.150    92439245.615                          47.000                  
  23335564.026   122629215.585                          44.500                  
  23335568.606    95555232.282                          30.000                  
  24718162.456   129894823.054                          39.750                  
  24718166.156   101216745.614                          37.500                  
 16 10  2  8 15 45.0000000  0  8G16G18G20G21G26G27G29G31
  20822427.822   109422596.760                          49.000                  
  20822430.022    85264360.706                          40.000                  
  23167698.286   121747077.172                          43.750                  
  23167701.306    94867852.041                          26.000                  
  22181408.234   116564088.655                          48.000                  
  22181411.734    90829159.573                          33.000                  
  21244403.520   111640093.486                          45.500                  
  21244405.720    86992280.221                          40.000                  
  20569335.724   108092588.858                          48.750                  
  20569341.904    84227990.947                          51.500                  
  22574060.550   118627491.863                          47.000                  
  22574066.290    92437007.029                          47.500                  
  23336157.106   122632328.865                          44.750                  
  23336161.786    95557658.213                          30.500                  
  24718835.756   129898357.173                          39.500                  
  24718838.716   101219499.473                          37.000                  
 16 10  2  8 15 46.0000000  0  8G16G18G20G21G26G27G29G31
  20822158.942   109421183.980                          49.250                  
  20822161.242    85263259.841                          39.500                  
  23167192.726   121744421.561                          43.750                  
  23167196.426    94865782.731                          27.000                  
  22181402.214   116564056.625                          48.000                  
  22181405.614    90829134.619                          32.250                  
  21244528.020   111640749.165                          45.000                  
  21244530.700    86992791.141                          40.000                  
  20569448.544   108093182.311                          48.500                  
  20569454.984    84228453.383                          51.750                  
  22573513.990   118624619.442                          46.750                  
  22573519.990    92434768.784                          47.250                  
  23336749.666   122635442.518                          44.750                  
  23336753.806    95560084.434                          30.000                  
  24719508.776   129901891.618                          40.000                  
  24719511.436   101222253.590                          37.500                  
 16 10  2  8 15 47.0000000  0  8G16G18G20G21G26G27G29G31
  20821890.482   109419772.007                          49.500                  
  20821892.642    85262159.598                          39.250                  
  23166687.986   121741766.486                          43.750                  
  23166691.026    94863713.844                          27.000                  
  22181396.374   116564025.552                          47.250                  
  22181399.374    90829110.398                          32.500                  
  21244653.320   111641405.516                          45.000                  
  21244655.500    86993302.578                          40.000                  
  20569561.044   108093776.632                          48.500                  
  20569568.184    84228916.490                          52.000                  
  22572966.890   118621747.495                          46.500                  
  22572973.390    92432530.902                          47.250                  
  23337342.166   122638556.571                          45.250                  
  23337346.866    95562510.964                          30.250                  
  24720180.796   129905426.331                          40.000                  
  24720184.256   101225007.924                          38.000                  
 16 10  2  8 15 48.0000000  0  8G16G18G20G21G26G27G29G31
  20821622.002   109418360.229                          49.250                  
  20821624.322    85261059.517                          39.750                  
  23166182.626   121739111.337                          44.000                  
  23166185.966    94861644.899                          26.250                  
  22181390.514   116563994.779                          47.250                  
  22181393.494    90829086.423                          32.750                  
  21244778.080   111642061.954                          45.000                  
  21244780.540    86993814.088                          39.750                  
  20569674.444   108094371.197                          48.500                  
  20569681.104    84229379.789                          52.500                  
  22572420.770   118618875.386                          46.250                  
  22572427.070    92430292.898                          47.000                  
  23337934.566   122641670.410                          44.500                  
  23337939.386    95564937.339                          30.000                  
  24720853.176   129908960.716                          40.250                  
  24720856.316   101227761.994                          38.000                  
 16 10  2  8 15 49.0000000  0  8G16G18G20G21G26G27G29G31
  20821353.382   109416949.790                          49.500                  
  20821355.002    85259960.474                          39.500                  
  23165677.126   121736457.250                          44.250                  
  23165680.486    94859576.781                          25.250                  
  22181385.494   116563965.508                          47.500                  
  22181388.354    90829063.619                          32.500                  
  21244903.220   111642719.648                          45.000                  
  21244905.120    86994326.577                          39.750                  
  20569787.904   108094967.200                          48.250                  
  20569794.804    84229844.201                          51.750                  
  22571874.170   118616004.293                          46.250                  
  22571880.530    92428055.688                          47.500                  
  23338527.366   122644785.143                          44.500                  
  23338531.626    95567364.400                          29.750                  
  24721526.076   129912495.907                          40.500                  
  24721529.516   101230516.686                          38.000                  
 16 10  2  8 15 50.0000000  0  8G16G18G20G21G26G27G29G31
  20821084.962   109415539.523                          49.750                  
  20821086.902    85258861.564                          39.250                  
  23165171.806   121733803.086                          43.500                  
  23165175.166    94857508.602                          24.250                  
  22181379.634   116563936.516                          47.750                  
  22181382.494    90829041.032                          32.500                  
  21245028.160   111643377.397                          45.000                  
  21245030.980    86994839.110                          39.750                  
  20569901.864   108095563.405                          48.000                  
  20569908.024    84230308.776                          52.000                  
  22571327.850   118613133.004                          46.000                  
  22571333.910    92425818.318                          47.000                  
  23339120.446   122647899.627                          44.000                  
  23339124.466    95569791.270                          29.500                  
  24722198.396   129916030.741                          40.000                  
  24722201.736   101233271.100                          38.750                  
 16 10  2  8 15 51.0000000  0  8G16G18G20G21G26G27G29G31
  20820816.402   109414129.271                          49.500                  
  20820818.742    85257762.659                          39.500                  
  23164666.786   121731148.647                          43.750                  
  23164669.866    94855440.199                          26.000                  
  22181374.094   116563907.698                          47.500                  
  22181377.134    90829018.576                          33.000                  
  21245153.880   111644035.081                          45.000                  
  21245156.000    86995351.593                          40.250                  
  20570014.924   108096159.757                          48.000                  
  20570021.544    84230773.466                          52.000                  
  22570782.150   118610261.435                          45.500                  
  22570787.790    92423580.734                          47.000                  
  23339712.446   122651013.758                          43.750                  
  23339717.006    95572217.868                          29.750                  
  24722871.656   129919565.109                          40.250                  
  24722874.516   101236025.149                          38.500                  
 16 10  2  8 15 52.0000000  0  8G16G18G20G21G26G27G29G31
  20820548.062   109412720.081                          49.500                  
  20820550.222    85256664.595                          39.500                  
  23164162.026   121728495.041                          43.750                  
  23164165.606    94853372.458                          25.750                  
  22181368.794   116563880.059                          47.500                  
  22181372.254    90828997.037                          32.250                  
  21245278.880   111644693.723                          45.250                  
  21245281.020    86995864.821                          40.500                  
  20570128.584   108096757.178                          47.750                  
  20570135.304    84231238.989                          52.000                  
  22570235.310   118607390.562                          46.000                  
  22570241.550    92421343.690                          47.000                  
  23340305.386   122654128.510                          43.500                  
  23340309.906    95574644.945                          29.750                  
  24723543.856   129923099.959                          41.000                  
  24723547.116   101238779.572                          38.750                  
 16 10  2  8 15 53.0000000  0  8G16G18G20G21G26G27G29G31
  20820280.242   109411311.418                          49.750                  
  20820282.502    85255566.938                          40.000                  
  23163656.966   121725841.684                          43.500                  
  23163660.006    94851304.905                          25.750                  
  22181363.734   116563853.092                          47.500                  
  22181366.874    90828976.020                          32.500                  
  21245404.260   111645352.820                          45.000                  
  21245406.680    86996378.401                          40.000                  
  20570242.084   108097355.233                          47.500                  
  20570248.884    84231705.012                          52.250                  
  22569689.350   118604519.907                          46.000                  
  22569695.230    92419106.818                          46.750                  
  23340898.086   122657243.387                          44.000                  
  23340902.726    95577072.120                          30.500                  
  24724216.816   129926634.861                          40.750                  
  24724219.996   101241534.028                          38.250                  
 16 10  2  8 15 54.0000000  0  8G16G18G20G21G26G27G29G31
  20820012.522   109409903.689                          50.250                  
  20820014.882    85254470.004                          39.250                  
  23163152.106   121723189.005                          43.500                  
  23163155.566    94849237.895                          25.500                  
  22181358.254   116563827.185                          47.750                  
  22181362.274    90828955.833                          32.000                  
  21245529.640   111646012.705                          45.000                  
  21245532.160    86996892.595                          40.000                  
  20570356.244   108097954.257                          47.750                  
  20570362.724    84232171.778                          52.000                  
  22569142.930   118601649.808                          46.500                  
  22569148.370    92416870.372                          46.500                  
  23341490.486   122660358.764                          44.000                  
  23341495.266    95579499.689                          29.500                  
  24724889.516   129930170.144                          40.000                  
  24724892.996   101244288.790                          38.500                  
 16 10  2  8 15 55.0000000  0  8G16G18G20G21G26G27G29G31
  20819744.162   109408495.544                          50.000                  
  20819746.502    85253372.750                          39.000                  
  23162647.706   121720535.690                          43.500                  
  23162650.746    94847170.381                          26.250                  
  22181353.594   116563801.044                          47.500                  
  22181356.794    90828935.465                          31.750                  
  21245655.240   111646672.126                          45.250                  
  21245657.580    86997406.425                          40.000                  
  20570470.824   108098553.021                          47.750                  
  20570476.864    84232638.341                          51.500                  
  22568596.670   118598779.033                          46.500                  
  22568602.490    92414633.401                          47.000                  
  23342083.506   122663473.382                          43.750                  
  23342087.926    95581926.661                          29.500                  
  24725561.596   129933704.534                          40.500                  
  24725565.356   101247042.860                          38.750                  
 16 10  2  8 15 56.0000000  0  8G16G18G20G21G26G27G29G31
  20819476.442   109407087.607                          50.250                  
  20819478.762    85252275.650                          39.250                  
  23162142.306   121717882.257                          44.000                  
  23162145.306    94845102.767                          27.000                  
  22181348.794   116563775.205                          47.500                  
  22181351.874    90828915.333                          32.000                  
  21245780.980   111647331.604                          45.250                  
  21245783.200    86997920.310                          39.750                  
  20570584.704   108099151.992                          48.000                  
  20570591.384    84233105.078                          51.500                  
  22568050.310   118595908.073                          46.750                  
  22568056.390    92412396.286                          47.000                  
  23342676.366   122666587.718                          44.000                  
  23342680.606    95584353.409                          29.250                  
  24726234.716   129937238.571                          40.750                  
  24726238.176   101249796.650                          38.000                  
 16 10  2  8 15 57.0000000  0  8G16G18G20G21G26G27G29G31
  20819208.962   109405681.809                          49.500                  
  20819211.342    85251180.225                          39.000                  
  23161637.766   121715230.732                          43.750                  
  23161640.966    94843036.635                          26.250                  
  22181344.094   116563751.626                          47.250                  
  22181347.454    90828896.951                          32.250                  
  21245906.700   111647993.147                          45.250                  
  21245909.080    86998435.797                          40.000                  
  20570698.884   108099753.187                          48.250                  
  20570705.344    84233573.535                          52.000                  
  22567504.170   118593038.926                          47.000                  
  22567509.830    92410160.593                          46.750                  
  23343269.626   122669703.804                          44.500                  
  23343274.006    95586781.528                          30.000                  
  24726907.136   129940774.206                          40.500                  
  24726910.976   101252551.696                          38.000                  
 16 10  2  8 15 58.0000000  0  8G16G18G20G21G26G27G29G31
  20818941.522   109404275.793                          49.750                  
  20818943.562    85250084.634                          39.000                  
  23161133.706   121712578.739                          44.250                  
  23161136.486    94840970.147                          26.500                  
  22181339.674   116563727.991                          47.750                  
  22181343.074    90828878.534                          33.000                  
  21246032.460   111648654.372                          45.500                  
  21246034.980    86998951.037                          39.500                  
  20570812.844   108100354.255                          48.000                  
  20570819.624    84234041.904                          52.000                  
  22566958.090   118590169.238                          47.000                  
  22566963.930    92407924.470                          47.000                  
  23343862.206   122672819.265                          44.250                  
  23343866.626    95589209.156                          29.250                  
  24727579.936   129944309.169                          40.500                  
  24727583.596   101255306.210                          38.000                  
 16 10  2  8 15 59.0000000  0  8G16G18G20G21G26G27G29G31
  20818673.722   109402869.803                          50.000                  
  20818676.242    85248989.054                          39.500                  
  23160628.686   121709926.475                          43.750                  
  23160631.366    94838903.456                          26.000                  
  22181335.074   116563704.498                          47.750                  
  22181338.554    90828860.233                          32.250                  
  21246158.320   111649315.514                          45.500                  
  21246161.020    86999466.214                          40.000                  
  20570927.784   108100955.397                          48.000                  
  20570934.224    84234510.328                          52.250                  
  22566412.470   118587299.197                          47.000                  
  22566418.170    92405688.083                          47.500                  
  23344454.666   122675934.324                          44.500                  
  23344459.346    95591636.476                          30.250                  
  24728251.976   129947843.580                          40.500                  
  24728256.136   101258060.288                          37.750                  
 16 10  2  8 16  0.0000000  0  8G16G18G20G21G26G27G29G31
  20818406.882   109401465.011                          50.000                  
  20818408.562    85247894.404                          39.750                  
  23160124.326   121707275.131                          43.750                  
  23160127.406    94836837.484                          25.750                  
  22181331.114   116563682.320                          47.250                  
  22181334.274    90828842.954                          32.750                  
  21246284.080   111649977.743                          45.750                  
  21246286.920    86999982.235                          40.250                  
  20571042.384   108101557.787                          48.250                  
  20571048.724    84234979.721                          52.000                  
  22565865.550   118584430.029                          46.500                  
  22565872.030    92403452.368                          47.250                  
  23345047.746   122679050.148                          44.000                  
  23345052.386    95594064.389                          29.250                  
  24728924.896   129951378.666                          40.750                  
  24728928.976   101260814.899                          38.000                  
 16 10  2  8 16  1.0000000  0  8G16G18G20G21G26G27G29G31
  20818139.362   109400061.068                          49.500                  
  20818142.062    85246800.431                          40.000                  
  23159619.466   121704624.391                          43.000                  
  23159622.926    94834771.973                          26.000                  
  22181327.114   116563661.131                          47.250                  
  22181330.274    90828826.448                          32.500                  
  21246410.340   111650640.707                          46.000                  
  21246412.780    87000498.831                          40.000                  
  20571157.244   108102161.118                          48.750                  
  20571163.364    84235449.847                          51.750                  
  22565319.790   118581561.355                          46.500                  
  22565325.750    92401217.038                          47.750                  
  23345641.266   122682166.415                          45.000                  
  23345645.246    95596492.645                          29.500                  
  24729597.316   129954914.056                          40.750                  
  24729601.636   101263569.749                          38.250                  
 16 10  2  8 16  2.0000000  0  8G16G18G20G21G26G27G29G31
  20817872.342   109398657.445                          49.750                  
  20817874.342    85245706.697                          40.000                  
  23159115.286   121701973.694                          43.000                  
  23159118.466    94832706.506                          25.750                  
  22181323.194   116563640.379                          47.250                  
  22181326.114    90828810.274                          32.750                  
  21246536.800   111651303.911                          46.250                  
  21246539.240    87001015.615                          40.500                  
  20571271.724   108102764.811                          49.000                  
  20571278.304    84235920.259                          51.750                  
  22564774.310   118578692.671                          46.250                  
  22564780.190    92398981.701                          47.500                  
  23346233.766   122685282.567                          44.750                  
  23346238.046    95598920.815                          30.750                  
  24730269.816   129958449.248                          40.750                  
  24730274.296   101266324.439                          37.250                  
 16 10  2  8 16  3.0000000  0  8G16G18G20G21G26G27G29G31
  20817605.142   109397253.274                          49.000                  
  20817607.102    85244612.537                          39.750                  
  23158610.906   121699322.189                          43.250                  
  23158614.146    94830640.395                          25.000                  
  22181319.134   116563619.222                          47.250                  
  22181322.454    90828793.786                          32.750                  
  21246662.860   111651966.448                          46.000                  
  21246665.200    87001531.877                          40.750                  
  20571386.704   108103368.039                          49.250                  
  20571393.524    84236390.303                          51.500                  
  22564228.190   118575823.109                          46.750                  
  22564234.270    92396745.677                          47.500                  
  23346826.966   122688397.752                          45.000                  
  23346830.986    95601348.224                          29.500                  
  24730942.796   129961983.390                          40.250                  
  24730946.996   101269078.317                          37.500                  
 16 10  2  8 16  4.0000000  0  8G16G18G20G21G26G27G29G31
  20817338.002   109395850.311                          49.000                  
  20817340.062    85243519.321                          39.250                  
  23158106.486   121696671.649                          43.750                  
  23158109.626    94828575.035                          26.250                  
  22181315.334   116563599.424                          47.250                  
  22181318.634    90828778.367                          32.250                  
  21246788.980   111652630.119                          46.250                  
  21246791.400    87002049.024                          41.000                  
  20571501.904   108103972.549                          49.500                  
  20571508.644    84236861.352                          51.500                  
  22563682.550   118572954.414                          46.500                  
  22563688.410    92394510.330                          47.250                  
  23347419.666   122691513.754                          44.500                  
  23347424.306    95603776.284                          29.500                  
  24731615.536   129965518.198                          40.750                  
  24731619.536   101271832.706                          37.500                  
 16 10  2  8 16  5.0000000  0  8G16G18G20G21G26G27G29G31
  20817071.322   109394448.343                          49.500                  
  20817073.722    85242426.875                          40.000                  
  23157601.726   121694021.845                          43.750                  
  23157605.286    94826510.250                          26.000                  
  22181311.554   116563580.735                          47.500                  
  22181315.074    90828763.799                          32.750                  
  21246915.600   111653294.655                          46.500                  
  21246917.840    87002566.844                          40.750                  
  20571617.464   108104578.126                          49.500                  
  20571623.784    84237333.228                          51.500                  
  22563136.390   118570086.376                          46.500                  
  22563142.170    92392275.493                          47.000                  
  23348013.066   122694630.327                          44.750                  
  23348017.006    95606204.786                          30.250                  
  24732288.716   129969053.494                          41.000                  
  24732292.296   101274587.480                          38.000                  
 16 10  2  8 16  6.0000000  0  8G16G18G20G21G26G27G29G31
  20816804.802   109393046.752                          49.000                  
  20816807.082    85241334.728                          39.750                  
  23157097.366   121691372.135                          43.750                  
  23157100.926    94824445.541                          26.000                  
  22181308.474   116563562.549                          47.500                  
  22181311.514    90828749.627                          33.000                  
  21247042.060   111653959.467                          46.750                  
  21247044.400    87003084.881                          41.250                  
  20571732.504   108105184.127                          50.250                  
  20571738.884    84237805.434                          51.750                  
  22562590.590   118567218.362                          46.000                  
  22562596.670    92390040.679                          47.250                  
  23348606.326   122697746.852                          44.500                  
  23348610.286    95608633.247                          30.000                  
  24732961.236   129972588.604                          40.250                  
  24732965.136   101277342.105                          38.250                  
 16 10  2  8 16  7.0000000  0  8G16G18G20G21G26G27G29G31
  20816538.442   109391645.665                          49.250                  
  20816540.502    85240242.970                          39.500                  
  23156593.506   121688722.657                          43.750                  
  23156596.866    94822381.015                          26.500                  
  22181304.894   116563544.985                          47.500                  
  22181307.874    90828735.938                          33.000                  
  21247168.560   111654624.658                          47.250                  
  21247171.180    87003603.210                          40.750                  
  20571847.704   108105790.679                          50.250                  
  20571854.364    84238278.072                          51.750                  
  22562045.090   118564350.507                          46.000                  
  22562050.970    92387805.987                          47.250                  
  23349199.066   122700863.450                          44.000                  
  23349203.426    95611061.763                          30.500                  
  24733633.536   129976123.692                          40.250                  
  24733637.556   101280096.719                          38.000                  
 16 10  2  8 16  8.0000000  0  8G16G18G20G21G26G27G29G31
  20816271.442   109390245.085                          49.500                  
  20816274.002    85239151.607                          39.500                  
  23156089.546   121686073.446                          43.750                  
  23156092.566    94820316.697                          26.500                  
  22181301.914   116563528.097                          47.000                  
  22181305.154    90828722.779                          32.500                  
  21247295.460   111655290.315                          47.500                  
  21247297.680    87004121.898                          40.500                  
  20571963.064   108106397.853                          50.500                  
  20571969.924    84238751.197                          51.750                  
  22561499.430   118561482.856                          46.500                  
  22561505.310    92385571.453                          47.000                  
  23349792.046   122703980.154                          44.000                  
  23349796.086    95613490.366                          29.750                  
  24734305.776   129979658.799                          39.250                  
  24734310.316   101282851.344                          37.750                  
 16 10  2  8 16  9.0000000  0  8G16G18G20G21G26G27G29G31
  20816005.002   109388845.406                          49.750                  
  20816007.082    85238060.946                          39.500                  
  23155585.046   121683424.843                          43.500                  
  23155588.886    94818252.856                          25.250                  
  22181298.854   116563512.198                          46.750                  
  22181301.694    90828710.396                          32.000                  
  21247422.400   111655956.717                          47.000                  
  21247424.540    87004641.174                          40.250                  
  20572078.924   108107005.958                          50.250                  
  20572085.744    84239225.045                          52.250                  
  22560953.630   118558615.721                          46.250                  
  22560959.670    92383337.325                          47.000                  
  23350384.906   122707097.326                          43.750                  
  23350389.306    95615919.322                          30.000                  
  24734979.296   129983194.248                          39.750                  
  24734982.496   101285606.235                          37.000                  
 16 10  2  8 16 10.0000000  0  8G16G18G20G21G26G27G29G31
  20815738.562   109387445.814                          49.500                  
  20815740.982    85236970.359                          39.500                  
  23155081.146   121680776.084                          43.500                  
  23155084.766    94816188.880                          24.750                  
  22181296.054   116563496.549                          47.000                  
  22181298.734    90828698.200                          32.250                  
  21247549.080   111656623.126                          47.250                  
  21247551.300    87005160.450                          40.250                  
  20572194.944   108107614.242                          50.500                  
  20572201.084    84239699.024                          52.000                  
  22560408.050   118555748.356                          46.000                  
  22560414.290    92381103.016                          47.250                  
  23350978.686   122710214.195                          43.500                  
  23350982.886    95618348.041                          30.500                  
  24735651.796   129986729.273                          39.750                  
  24735655.456   101288360.802                          37.000                  
 16 10  2  8 16 11.0000000  0  8G16G18G20G21G26G27G29G31
  20815472.542   109386047.247                          49.500                  
  20815474.742    85235880.566                          39.500                  
  23154577.646   121678128.090                          43.500                  
  23154580.926    94814125.504                          24.750                  
  22181293.234   116563482.029                          47.000                  
  22181295.734    90828686.890                          31.500                  
  21247675.860   111657290.445                          47.750                  
  21247678.420    87005680.447                          39.750                  
  20572310.964   108108223.597                          50.500                  
  20572317.164    84240173.847                          51.750                  
  22559862.190   118552881.650                          46.000                  
  22559868.350    92378869.224                          47.250                  
  23351571.266   122713331.642                          43.500                  
  23351575.886    95620777.217                          30.250                  
  24736324.696   129990264.785                          40.750                  
  24736328.036   101291115.743                          37.500                  
 16 10  2  8 16 12.0000000  0  8G16G18G20G21G26G27G29G31
  20815206.302   109384648.351                          49.500                  
  20815208.802    85234790.522                          39.750                  
  23154073.806   121675479.494                          43.500                  
  23154076.826    94812061.659                          24.000                  
  22181290.234   116563467.326                          47.000                  
  22181293.234    90828675.435                          32.000                  
  21247802.920   111657957.327                          47.750                  
  21247805.580    87006200.095                          40.000                  
  20572426.564   108108832.698                          50.750                  
  20572433.064    84240648.473                          51.500                  
  22559317.270   118550014.298                          46.250                  
  22559323.090    92376634.925                          47.000                  
  23352164.166   122716448.359                          44.000                  
  23352168.946    95623205.832                          30.500                  
  24736997.896   129993799.440                          41.000                  
  24737000.816   101293870.021                          37.500                  
 16 10  2  8 16 13.0000000  0  8G16G18G20G21G26G27G29G31
  20814940.482   109383250.646                          49.500                  
  20814942.762    85233701.403                          39.750                  
  23153569.686   121672831.805                          43.500                  
  23153572.806    94809998.537                          24.000                  
  22181287.694   116563453.912                          46.750                  
  22181290.774    90828664.983                          31.750                  
  21247929.900   111658625.292                          47.750                  
  21247932.460    87006720.585                          40.000                  
  20572543.044   108109443.033                          50.500                  
  20572549.344    84241124.063                          51.750                  
  22558771.810   118547147.789                          46.250                  
  22558777.330    92374401.282                          47.000                  
  23352758.326   122719565.819                          43.750                  
  23352761.946    95625635.018                          30.500                  
  24737670.856   129997334.723                          40.500                  
  24737673.516   101296624.785                          37.500                  
 16 10  2  8 16 14.0000000  0  8G16G18G20G21G26G27G29G31
  20814674.682   109381853.689                          49.250                  
  20814676.882    85232612.857                          39.750                  
  23153065.846   121670184.618                          43.500                  
  23153069.086    94807935.787                          24.000                  
  22181285.234   116563441.413                          47.000                  
  22181288.494    90828655.237                          31.750                  
  21248056.940   111659293.935                          47.000                  
  21248059.960    87007241.600                          40.500                  
  20572658.684   108110054.218                          50.750                  
  20572665.584    84241600.308                          51.750                  
  22558225.830   118544281.729                          46.250                  
  22558231.870    92372167.983                          46.500                  
  23353350.886   122722683.635                          43.750                  
  23353355.506    95628064.476                          30.000                  
  24738343.276   130000870.264                          40.750                  
  24738345.916   101299379.750                          37.250                  
 16 10  2  8 16 15.0000000  0  8G16G18G20G21G26G27G29G31
  20814408.582   109380457.271                          49.250                  
  20814411.102    85231524.745                          39.750                  
  23152562.026   121667537.709                          43.250                  
  23152565.526    94805873.265                          25.500                  
  22181282.634   116563429.563                          47.000                  
  22181285.954    90828646.003                          32.000                  
  21248184.420   111659962.991                          46.750                  
  21248187.260    87007762.941                          40.000                  
  20572775.344   108110665.993                          50.500                  
  20572781.964    84242077.016                          52.000                  
  22557680.550   118541415.809                          46.500                  
  22557686.450    92369934.792                          46.750                  
  23353944.406   122725801.550                          43.750                  
  23353948.806    95630494.024                          30.000                  
  24739015.436   130004405.797                          41.250                  
  24739018.916   101302134.708                          37.000                  
 16 10  2  8 16 16.0000000  0  8G16G18G20G21G26G27G29G31
  20814143.042   109379060.640                          49.500                  
  20814145.422    85230436.455                          39.750                  
  23152058.386   121664890.312                          43.750                  
  23152061.746    94803810.356                          25.000                  
  22181281.354   116563417.650                          47.000                  
  22181283.894    90828636.720                          32.000                  
  21248311.940   111660631.723                          47.000                  
  21248314.120    87008284.031                          40.500                  
  20572891.704   108111277.637                          50.500                  
  20572898.304    84242553.622                          51.750                  
  22557135.230   118538549.350                          46.000                  
  22557141.090    92367701.193                          47.000                  
  23354537.706   122728918.837                          44.000                  
  23354541.826    95632923.083                          30.750                  
  24739688.856   130007940.601                          41.250                  
  24739691.716   101304889.100                          37.500                  
 16 10  2  8 16 17.0000000  0  8G16G18G20G21G26G27G29G31
  20813877.562   109377664.714                          48.500                  
  20813879.982    85229348.722                          40.000                  
  23151554.766   121662243.348                          43.750                  
  23151557.966    94801747.783                          24.000                  
  22181278.674   116563406.538                          47.000                  
  22181281.854    90828628.056                          32.250                  
  21248439.080   111661301.038                          46.500                  
  21248441.820    87008805.580                          40.500                  
  20573008.584   108111889.999                          50.500                  
  20573015.024    84243030.785                          51.500                  
  22556589.870   118535683.254                          46.000                  
  22556595.670    92365467.868                          47.000                  
  23355130.566   122732036.394                          44.250                  
  23355135.386    95635352.349                          30.250                  
  24740360.836   130011475.559                          40.250                  
  24740364.516   101307643.622                          36.750                  
 16 10  2  8 16 18.0000000  0  8G16G18G20G21G26G27G29G31
  20813611.942   109376269.512                          48.000                  
  20813614.342    85228261.552                          39.750                  
  23151051.106   121659596.867                          44.000                  
  23151054.066    94799685.594                          25.000                  
  22181276.814   116563396.317                          46.500                  
  22181280.014    90828620.093                          32.000                  
  21248566.660   111661971.024                          46.500                  
  21248569.200    87009327.647                          40.750                  
  20573125.004   108112503.211                          50.500                  
  20573132.004    84243508.619                          51.250                  
  22556044.810   118532817.567                          46.500                  
  22556050.150    92363234.865                          47.000                  
  23355724.206   122735154.278                          44.250                  
  23355728.746    95637781.858                          29.750                  
  24741033.236   130015010.760                          39.250                  
  24741036.916   101310398.337                          37.250                  
 16 10  2  8 16 19.0000000  0  8G16G18G20G21G26G27G29G31
  20813346.722   109374875.598                          47.750                  
  20813348.842    85227175.392                          39.750                  
  23150547.466   121656951.424                          44.500                  
  23150550.846    94797624.216                          25.500                  
  22181275.514   116563387.509                          46.500                  
  22181278.314    90828613.236                          32.500                  
  21248694.620   111662642.165                          46.500                  
  21248696.880    87009850.614                          40.250                  
  20573241.404   108113117.775                          50.500                  
  20573248.704    84243987.495                          51.750                  
  22555499.370   118529952.803                          46.750                  
  22555505.250    92361002.585                          47.500                  
  23356317.326   122738273.047                          44.500                  
  23356321.586    95640212.068                          29.750                  
  24741706.676   130018546.679                          39.500                  
  24741709.916   101313153.598                          37.500                  
 16 10  2  8 16 20.0000000  0  8G16G18G20G21G26G27G29G31
  20813081.502   109373481.456                          48.250                  
  20813083.742    85226089.043                          39.500                  
  23150043.966   121654305.469                          43.500                  
  23150047.406    94795562.441                          25.000                  
  22181273.574   116563378.602                          46.750                  
  22181276.474    90828606.302                          33.000                  
  21248822.240   111663312.981                          46.750                  
  21248824.540    87010373.324                          40.500                  
  20573359.024   108113732.167                          50.500                  
  20573365.304    84244466.241                          52.000                  
  22554954.110   118527087.477                          46.250                  
  22554960.050    92358769.868                          47.250                  
  23356911.046   122741391.127                          44.250                  
  23356914.966    95642641.737                          30.750                  
  24742378.996   130022081.860                          39.750                  
  24742382.436   101315908.287                          38.250                  
 16 10  2  8 16 21.0000000  0  8G16G18G20G21G26G27G29G31
  20812816.062   109372088.002                          48.500                  
  20812818.222    85225003.230                          39.500                  
  23149540.566   121651659.948                          43.500                  
  23149543.526    94793500.998                          24.500                  
  22181272.034   116563370.504                          46.750                  
  22181274.914    90828599.987                          32.500                  
  21248949.920   111663984.385                          47.250                  
  21248952.260    87010896.496                          40.500                  
  20573476.124   108114347.290                          50.750                  
  20573482.764    84244945.559                          52.000                  
  22554409.210   118524222.489                          46.000                  
  22554414.910    92356537.416                          46.750                  
  23357504.626   122744509.497                          44.750                  
  23357508.666    95645071.637                          29.750                  
  24743051.936   130025617.227                          39.500                  
  24743055.676   101318663.106                          38.500                  
 16 10  2  8 16 22.0000000  0  8G16G18G20G21G26G27G29G31
  20812551.282   109370695.399                          48.750                  
  20812553.382    85223918.089                          39.500                  
  23149037.066   121649015.010                          43.500                  
  23149040.386    94791440.007                          26.000                  
  22181270.514   116563363.368                          46.500                  
  22181273.474    90828594.427                          32.250                  
  21249077.540   111664656.494                          48.000                  
  21249079.920    87011420.217                          40.500                  
  20573593.404   108114963.338                          50.500                  
  20573599.904    84245425.597                          52.000                  
  22553863.930   118521358.014                          46.000                  
  22553869.830    92354305.366                          46.750                  
  23358097.886   122747628.276                          44.500                  
  23358102.266    95647501.865                          30.500                  
  24743725.376   130029152.854                          40.000                  
  24743728.576   101321418.130                          38.250                  
 16 10  2  8 16 23.0000000  0  8G16G18G20G21G26G27G29G31
  20812286.362   109369302.802                          49.500                  
  20812288.382    85222832.946                          39.500                  
  23148534.486   121646369.822                          43.750                  
  23148536.726    94789378.816                          26.000                  
  22181269.254   116563356.402                          46.250                  
  22181272.354    90828588.993                          32.500                  
  21249205.560   111665328.550                          47.750                  
  21249207.880    87011943.899                          40.500                  
  20573710.504   108115579.470                          50.000                  
  20573717.104    84245905.697                          52.000                  
  22553319.530   118518493.231                          46.250                  
  22553324.910    92352073.065                          46.500                  
  23358691.186   122750746.667                          45.000                  
  23358695.486    95649931.776                          29.500                  
  24744398.136   130032687.990                          40.500                  
  24744401.236   101324172.769                          38.500                  
 16 10  2  8 16 24.0000000  0  8G16G18G20G21G26G27G29G31
  20812021.602   109367910.966                          49.750                  
  20812023.842    85221748.395                          39.000                  
  23148030.606   121643725.112                          43.750                  
  23148033.686    94787318.003                          25.500                  
  22181267.834   116563350.330                          46.750                  
  22181270.874    90828584.263                          32.500                  
  21249333.600   111666001.239                          48.000                  
  21249335.860    87012468.072                          40.500                  
  20573827.944   108116196.427                          50.000                  
  20573834.684    84246386.439                          52.250                  
  22552774.350   118515628.838                          46.750                  
  22552779.670    92349841.070                          46.500                  
  23359284.686   122753865.389                          45.000                  
  23359288.966    95652361.951                          29.750                  
  24745070.356   130036223.355                          40.500                  
  24745073.856   101326927.588                          38.750                  
 16 10  2  8 16 25.0000000  0  8G16G18G20G21G26G27G29G31
  20811756.862   109366520.087                          49.250                  
  20811759.022    85220664.595                          39.500                  
  23147527.806   121641081.138                          43.500                  
  23147530.186    94785257.762                          25.750                  
  22181267.114   116563345.322                          46.500                  
  22181270.154    90828580.357                          32.500                  
  21249461.700   111666674.803                          47.500                  
  21249464.360    87012992.923                          40.250                  
  20573945.524   108116814.421                          50.500                  
  20573952.184    84246867.997                          52.250                  
  22552228.830   118512765.101                          46.000                  
  22552234.050    92347609.585                          46.500                  
  23359878.266   122756984.636                          44.500                  
  23359882.846    95654792.531                          30.000                  
  24745743.676   130039759.137                          40.500                  
  24745746.916   101329682.737                          38.500                  
 16 10  2  8 16 26.0000000  0  8G16G18G20G21G26G27G29G31
  20811491.982   109365129.068                          49.500                  
  20811494.302    85219580.685                          39.750                  
  23147024.546   121638436.710                          43.250                  
  23147027.126    94783197.172                          26.500                  
  22181266.414   116563340.317                          47.000                  
  22181268.974    90828576.459                          32.500                  
  21249589.860   111667348.094                          47.750                  
  21249592.340    87013517.572                          40.500                  
  20574063.164   108117432.316                          51.000                  
  20574069.744    84247349.478                          52.250                  
  22551683.850   118509900.851                          46.250                  
  22551689.630    92345377.696                          46.250                  
  23360471.346   122760103.344                          44.500                  
  23360476.486    95657222.689                          30.250                  
  24746415.996   130043294.255                          40.500                  
  24746420.076   101332437.370                          38.250                  
 16 10  2  8 16 27.0000000  0  8G16G18G20G21G26G27G29G31
  20811227.542   109363739.637                          50.000                  
  20811229.882    85218498.011                          39.750                  
  23146521.346   121635793.629                          43.000                  
  23146524.286    94781137.631                          25.000                  
  22181265.454   116563337.027                          46.500                  
  22181268.514    90828573.897                          32.000                  
  21249717.720   111668022.878                          47.250                  
  21249720.560    87014043.375                          40.250                  
  20574181.364   108118051.872                          51.000                  
  20574187.564    84247832.245                          52.000                  
  22551138.610   118507037.863                          46.000                  
  22551144.470    92343146.797                          46.500                  
  23361065.546   122763223.248                          44.250                  
  23361070.146    95659653.779                          29.750                  
  24747088.636   130046830.442                          40.500                  
  24747092.796   101335192.841                          38.500                  
 16 10  2  8 16 28.0000000  0  8G16G18G20G21G26G27G29G31
  20810963.242   109362349.431                          50.250                  
  20810965.202    85217414.735                          39.750                  
  23146018.286   121633149.529                          43.750                  
  23146020.766    94779077.295                          25.750                  
  22181264.654   116563333.091                          46.250                  
  22181267.854    90828570.836                          32.000                  
  21249846.700   111668696.786                          47.500                  
  21249849.040    87014568.496                          40.500                  
  20574299.004   108118670.734                          51.000                  
  20574305.564    84248314.473                          51.750                  
  22550593.830   118504173.738                          46.500                  
  22550599.290    92340915.008                          46.250                  
  23361658.486   122766341.933                          43.750                  
  23361663.506    95662083.923                          29.750                  
  24747761.016   130050365.325                          40.000                  
  24747765.556   101337947.289                          38.500                  
 16 10  2  8 16 29.0000000  0  8G16G18G20G21G26G27G29G31
  20810699.262   109360960.257                          50.250                  
  20810701.242    85216332.260                          39.000                  
  23145515.046   121630506.173                          44.250                  
  23145517.846    94777017.543                          25.500                  
  22181264.714   116563330.322                          46.500                  
  22181267.394    90828568.674                          31.500                  
  21249974.840   111669371.622                          47.750                  
  21249977.600    87015094.344                          40.500                  
  20574416.804   108119290.681                          50.750                  
  20574423.224    84248797.548                          51.500                  
  22550049.070   118501310.308                          46.500                  
  22550054.790    92338683.767                          46.250                  
  23362252.546   122769461.233                          43.250                  
  23362257.166    95664514.540                          30.500                  
  24748433.736   130053900.679                          40.000                  
  24748438.116   101340702.115                          38.750                  
 16 10  2  8 16 30.0000000  0  8G16G18G20G21G26G27G29G31
  20810434.722   109359572.058                          49.500                  
  20810437.242    85215250.549                          39.500                  
  23145012.266   121627863.544                          43.750                  
  23145015.326    94774958.354                          24.000                  
  22181264.214   116563328.666                          46.250                  
  22181266.934    90828567.386                          32.000                  
  21250103.300   111670047.309                          47.250                  
  21250105.980    87015620.850                          40.750                  
  20574534.844   108119911.676                          50.250                  
  20574541.544    84249281.443                          51.250                  
  22549504.310   118498447.517                          46.250                  
  22549509.670    92336453.020                          45.750                  
  23362846.166   122772581.079                          43.750                  
  23362851.006    95666945.579                          29.500                  
  24749105.856   130057436.509                          40.000                  
  24749111.056   101343457.302                          38.750                  
 16 10  2  8 16 31.0000000  0  8G16G18G20G21G26G27G29G31
  20810170.402   109358184.247                          49.500                  
  20810172.802    85214169.140                          39.500                  
  23144509.986   121625221.008                          43.250                  
  23144512.786    94772899.237                          24.500                  
  22181263.614   116563327.502                          46.000                  
  22181266.794    90828566.482                          32.250                  
  21250231.820   111670723.280                          47.500                  
  21250234.640    87016147.578                          40.750                  
  20574653.224   108120533.113                          50.000                  
  20574659.924    84249765.679                          51.500                  
  22548959.210   118495584.782                          46.000                  
  22548965.070    92334222.321                          46.250                  
  23363440.026   122775700.907                          43.750                  
  23363444.986    95669376.612                          30.500                  
  24749779.916   130060972.191                          39.500                  
  24749783.936   101346212.378                          38.750                  
 16 10  2  8 16 32.0000000  0  8G16G18G20G21G26G27G29G31
  20809906.502   109356797.026                          50.000                  
  20809908.842    85213088.188                          39.500                  
  23144006.746   121622578.808                          43.000                  
  23144009.366    94770840.375                          24.500                  
  22181263.474   116563327.079                          46.250                  
  22181266.654    90828566.150                          32.250                  
  21250360.500   111671399.737                          47.750                  
  21250363.260    87016674.688                          40.500                  
  20574771.764   108121155.204                          50.250                  
  20574778.284    84250250.421                          51.750                  
  22548414.170   118492722.293                          46.000                  
  22548420.550    92331991.809                          46.500                  
  23364033.586   122778820.890                          43.750                  
  23364038.566    95671807.767                          29.500                  
  24750453.016   130064507.897                          40.000                  
  24750456.636   101348967.461                          39.000                  
 16 10  2  8 16 33.0000000  0  8G16G18G20G21G26G27G29G31
  20809642.442   109355410.004                          50.000                  
  20809644.982    85212007.390                          39.750                  
  23143504.146   121619936.576                          43.500                  
  23143506.486    94768781.504                          26.500                  
  22181263.574   116563326.998                          46.250                  
  22181266.874    90828566.088                          32.250                  
  21250489.500   111672076.315                          48.000                  
  21250491.940    87017201.889                          41.000                  
  20574890.164   108121777.592                          50.250                  
  20574896.824    84250735.401                          52.250                  
  22547869.870   118489859.678                          46.000                  
  22547875.530    92329761.200                          46.750                  
  23364627.566   122781940.663                          44.250                  
  23364632.146    95674238.759                          30.250                  
  24751125.016   130068043.333                          40.000                  
  24751129.496   101351722.327                          38.500                  
 16 10  2  8 16 34.0000000  0  8G16G18G20G21G26G27G29G31
  20809378.742   109354023.862                          50.250                  
  20809380.942    85210927.283                          40.250                  
  23143001.626   121617294.943                          43.500                  
  23143004.046    94766723.086                          25.750                  
  22181264.114   116563327.899                          46.500                  
  22181266.914    90828566.787                          33.000                  
  21250618.520   111672753.634                          48.250                  
  21250621.020    87017729.676                          40.750                  
  20575008.504   108122400.889                          50.000                  
  20575015.304    84251221.089                          52.250                  
  22547325.450   118486997.591                          46.000                  
  22547330.910    92327531.006                          46.500                  
  23365220.966   122785060.924                          44.000                  
  23365225.746    95676670.129                          30.750                  
  24751798.216   130071579.084                          40.000                  
  24751802.336   101354477.454                          38.500                  
 16 10  2  8 16 35.0000000  0  8G16G18G20G21G26G27G29G31
  20809115.062   109352638.227                          50.250                  
  20809117.382    85209847.566                          40.250                  
  23142498.366   121614653.552                          43.750                  
  23142501.666    94764664.866                          26.000                  
  22181264.154   116563329.462                          46.500                  
  22181267.314    90828568.001                          33.000                  
  21250747.500   111673431.376                          48.000                  
  21250749.880    87018257.789                          40.500                  
  20575127.364   108123024.767                          50.000                  
  20575133.984    84251707.232                          52.250                  
  22546780.530   118484135.665                          46.000                  
  22546786.430    92325300.936                          46.500                  
  23365815.126   122788181.241                          43.750                  
  23365819.686    95679101.543                          30.500                  
  24752471.396   130075114.805                          40.250                  
  24752475.076   101357232.553                          38.500                  
 16 10  2  8 16 36.0000000  0  8G16G18G20G21G26G27G29G31
  20808851.382   109351253.126                          49.750                  
  20808853.762    85208768.269                          40.500                  
  23141996.066   121612012.429                          43.750                  
  23141999.186    94762606.848                          26.000                  
  22181264.274   116563331.651                          46.750                  
  22181267.294    90828569.714                          33.250                  
  21250876.560   111674109.549                          47.500                  
  21250879.300    87018786.231                          40.500                  
  20575245.984   108123649.260                          50.000                  
  20575252.304    84252193.850                          52.000                  
  22546236.930   118481273.949                          46.500                  
  22546242.410    92323071.027                          46.250                  
  23366409.326   122791301.670                          44.000                  
  23366413.266    95681533.044                          30.750                  
  24753143.836   130078650.535                          40.250                  
  24753147.856   101359987.659                          37.750                  
 16 10  2  8 16 37.0000000  0  8G16G18G20G21G26G27G29G31
  20808588.042   109349868.285                          49.750                  
  20808590.302    85207689.167                          40.000                  
  23141493.086   121609371.293                          43.500                  
  23141496.586    94760548.812                          26.000                  
  22181264.854   116563334.244                          46.500                  
  22181267.914    90828571.735                          33.500                  
  21251005.640   111674787.855                          47.750                  
  21251008.400    87019314.782                          40.000                  
  20575365.364   108124274.083                          50.500                  
  20575371.444    84252680.721                          51.500                  
  22545691.890   118478412.146                          46.500                  
  22545697.530    92320841.051                          46.500                  
  23367002.946   122794421.939                          44.250                  
  23367007.046    95683964.431                          30.500                  
  24753817.316   130082186.000                          40.250                  
  24753820.796   101362742.569                          37.000                  
 16 10  2  8 16 38.0000000  0  8G16G18G20G21G26G27G29G31
  20808324.542   109348483.896                          49.250                  
  20808327.202    85206610.427                          40.000                  
  23140991.066   121606730.356                          43.500                  
  23140993.966    94758490.945                          26.000                  
  22181265.674   116563337.408                          46.750                  
  22181268.614    90828574.194                          32.500                  
  21251134.940   111675466.507                          48.250                  
  21251137.340    87019843.603                          40.500                  
  20575484.464   108124899.393                          51.000                  
  20575490.744    84253167.971                          51.250                  
  22545147.150   118475550.440                          46.250                  
  22545152.690    92318611.148                          46.500                  
  23367596.306   122797542.253                          44.500                  
  23367600.766    95686395.842                          29.750                  
  24754490.516   130085721.372                          40.750                  
  24754493.276   101365497.419                          37.500                  
 16 10  2  8 16 39.0000000  0  8G16G18G20G21G26G27G29G31
  20808061.362   109347100.700                          49.250                  
  20808063.702    85205532.609                          40.000                  
  23140488.686   121604090.350                          43.750                  
  23140491.886    94756433.801                          26.500                  
  22181266.314   116563341.912                          46.000                  
  22181269.474    90828577.708                          32.250                  
  21251264.260   111676146.264                          48.500                  
  21251266.820    87020373.282                          40.500                  
  20575603.424   108125525.972                          50.500                  
  20575609.764    84253656.217                          51.750                  
  22544602.810   118472689.577                          46.500                  
  22544608.270    92316381.907                          46.000                  
  23368190.006   122800663.321                          44.500                  
  23368194.826    95688827.839                          30.250                  
  24755162.996   130089257.399                          40.500                  
  24755166.156   101368252.774                          37.500                  
 16 10  2  8 16 40.0000000  0  8G16G18G20G21G26G27G29G31
  20807798.342   109345717.884                          49.000                  
  20807800.462    85204455.091                          39.750                  
  23139985.906   121601450.467                          43.750                  
  23139989.786    94754376.754                          25.500                  
  22181267.274   116563346.927                          46.000                  
  22181270.794    90828581.618                          32.250                  
  21251393.820   111676826.294                          48.250                  
  21251396.200    87020903.170                          40.000                  
  20575722.364   108126153.016                          50.500                  
  20575729.044    84254144.831                          52.250                  
  22544058.010   118469828.797                          46.000                  
  22544063.850    92314152.727                          46.250                  
  23368784.186   122803784.366                          44.000                  
  23368788.746    95691259.822                          30.500                  
  24755835.776   130092793.281                          40.750                  
  24755839.456   101371008.007                          37.500                  
 16 10  2  8 16 41.0000000  0  8G16G18G20G21G26G27G29G31
  20807534.922   109344335.369                          48.500                  
  20807537.382    85203377.806                          40.000                  
  23139484.106   121598810.595                          43.750                  
  23139487.186    94752319.713                          27.000                  
  22181268.114   116563352.343                          46.000                  
  22181271.414    90828585.828                          32.250                  
  21251522.940   111677506.503                          48.000                  
  21251525.560    87021433.209                          40.000                  
  20575842.304   108126780.378                          50.250                  
  20575848.684    84254633.686                          52.250                  
  22543514.070   118466967.940                          46.000                  
  22543519.590    92311923.492                          45.750                  
  23369377.986   122806905.258                          44.500                  
  23369382.406    95693691.688                          29.750                  
  24756508.376   130096328.921                          41.250                  
  24756511.996   101373763.054                          38.250                  
 16 10  2  8 16 42.0000000  0  8G16G18G20G21G26G27G29G31
  20807272.282   109342953.581                          48.750                  
  20807274.562    85202301.084                          39.250                  
  23138981.346   121596171.198                          44.500                  
  23138984.826    94750263.040                          25.750                  
  22181269.974   116563358.625                          46.500                  
  22181272.474    90828590.723                          32.500                  
  21251652.680   111678187.348                          47.250                  
  21251654.960    87021963.736                          40.500                  
  20575961.504   108127408.570                          50.750                  
  20575968.084    84255123.189                          52.000                  
  22542969.130   118464107.471                          45.250                  
  22542975.150    92309694.549                          46.250                  
  23369971.866   122810026.502                          44.000                  
  23369976.806    95696123.832                          29.750                  
  24757181.616   130099864.761                          40.250                  
  24757184.976   101376518.254                          38.000                  
 16 10  2  8 16 43.0000000  0  8G16G18G20G21G26G27G29G31
  20807009.302   109341572.037                          48.750                  
  20807011.382    85201224.561                          39.000                  
  23138479.866   121593531.793                          44.750                  
  23138482.746    94748206.361                          26.250                  
  22181270.894   116563365.278                          46.750                  
  22181274.034    90828595.911                          32.000                  
  21251782.180   111678868.299                          47.000                  
  21251784.900    87022494.350                          40.750                  
  20576081.204   108128037.046                          50.500                  
  20576087.824    84255612.902                          52.250                  
  22542425.330   118461246.914                          45.500                  
  22542430.770    92307465.539                          46.250                  
  23370565.526   122813147.517                          43.750                  
  23370570.366    95698555.784                          29.500                  
  24757853.976   130103400.312                          40.000                  
  24757857.536   101379273.225                          38.000                  
 16 10  2  8 16 44.0000000  0  8G16G18G20G21G26G27G29G31
  20806746.762   109340191.397                          48.750                  
  20806749.162    85200148.735                          39.000                  
  23137977.226   121590893.038                          44.500                  
  23137980.466    94746150.198                          26.500                  
  22181271.914   116563372.971                          46.750                  
  22181275.274    90828601.910                          32.500                  
  21251912.060   111679550.092                          47.250                  
  21251914.380    87023025.612                          40.750                  
  20576200.804   108128666.536                          50.750                  
  20576207.764    84256103.410                          52.250                  
  22541881.110   118458386.924                          46.000                  
  22541886.710    92305236.969                          46.500                  
  23371159.186   122816269.058                          44.000                  
  23371164.186    95700988.152                          29.750                  
  24758526.356   130106936.247                          40.000                  
  24758530.296   101382028.496                          37.500                  
 16 10  2  8 16 45.0000000  0  8G16G18G20G21G26G27G29G31
  20806484.322   109338811.609                          48.750                  
  20806486.302    85199073.576                          39.000                  
  23137475.166   121588254.858                          45.000                  
  23137478.406    94744094.469                          26.000                  
  22181273.994   116563381.650                          47.000                  
  22181276.914    90828608.677                          32.000                  
  21252041.460   111680232.608                          47.500                  
  21252044.280    87023557.443                          40.500                  
  20576320.804   108129296.891                          51.000                  
  20576327.564    84256594.601                          52.250                  
  22541336.650   118455527.417                          46.250                  
  22541342.510    92303008.789                          46.000                  
  23371753.786   122819390.996                          43.750                  
  23371758.386    95703420.829                          30.500                  
  24759199.156   130110472.458                          39.750                  
  24759203.416   101384783.985                          37.750                  
 16 10  2  8 16 46.0000000  0  8G16G18G20G21G26G27G29G31
  20806221.642   109337431.424                          49.000                  
  20806223.562    85197998.105                          39.750                  
  23136973.126   121585616.028                          44.500                  
  23136976.486    94742038.241                          26.500                  
  22181275.354   116563390.066                          46.750                  
  22181278.294    90828615.222                          32.250                  
  21252171.680   111680914.625                          47.500                  
  21252174.160    87024088.884                          40.500                  
  20576440.504   108129926.962                          50.750                  
  20576447.684    84257085.568                          51.750                  
  22540792.690   118452667.212                          46.250                  
  22540798.550    92300780.061                          46.500                  
  23372347.226   122822512.153                          43.250                  
  23372352.426    95705852.897                          30.500                  
  24759871.976   130114007.820                          39.750                  
  24759876.016   101387538.815                          37.750                  
 16 10  2  8 16 47.0000000  0  8G16G18G20G21G26G27G29G31
  20805959.002   109336052.532                          49.000                  
  20805961.142    85196923.645                          39.500                  
  23136471.026   121582978.237                          44.500                  
  23136474.346    94739982.815                          25.500                  
  22181277.774   116563399.885                          46.000                  
  22181280.514    90828622.874                          32.750                  
  21252301.660   111681597.832                          47.500                  
  21252304.000    87024621.251                          40.500                  
  20576560.764   108130558.339                          50.750                  
  20576567.744    84257577.545                          51.750                  
  22540248.650   118449807.939                          46.250                  
  22540254.050    92298552.063                          46.250                  
  23372941.906   122825634.173                          42.500                  
  23372946.546    95708285.646                          30.000                  
  24760545.336   130117543.925                          39.750                  
  24760548.976   101390294.213                          37.750                  
 16 10  2  8 16 48.0000000  0  8G16G18G20G21G26G27G29G31
  20805696.802   109334674.593                          48.750                  
  20805699.062    85195849.925                          39.750                  
  23135969.066   121580341.111                          44.500                  
  23135972.666    94737927.925                          26.250                  
  22181279.354   116563410.787                          46.250                  
  22181282.354    90828631.366                          32.500                  
  21252431.720   111682281.865                          48.000                  
  21252433.980    87025154.266                          40.250                  
  20576681.104   108131190.774                          50.750                  
  20576687.524    84258070.352                          51.750                  
  22539704.670   118446949.271                          45.750                  
  22539710.490    92296324.533                          46.250                  
  23373536.346   122828756.686                          43.000                  
  23373540.806    95710718.769                          29.250                  
  24761217.836   130121080.419                          39.500                  
  24761222.236   101393049.913                          37.250                  
 16 10  2  8 16 49.0000000  0  8G16G18G20G21G26G27G29G31
  20805434.382   109333296.378                          48.750                  
  20805436.622    85194775.993                          39.750                  
  23135467.046   121577703.451                          44.000                  
  23135470.746    94735872.606                          25.000                  
  22181281.834   116563421.546                          46.500                  
  22181284.794    90828639.752                          31.750                  
  21252561.580   111682965.508                          48.250                  
  21252564.340    87025686.973                          40.500                  
  20576801.504   108131822.971                          51.000                  
  20576808.384    84258562.977                          52.000                  
  22539160.330   118444090.006                          45.750                  
  22539165.910    92294096.532                          46.000                  
  23374129.926   122831878.524                          42.750                  
  23374134.526    95713151.363                          29.750                  
  24761891.096   130124616.104                          40.000                  
  24761894.676   101395804.984                          37.250                  
 16 10  2  8 16 50.0000000  0  8G16G18G20G21G26G27G29G31
  20805172.362   109331918.655                          49.000                  
  20805174.822    85193702.447                          40.000                  
  23134965.586   121575066.040                          44.000                  
  23134968.946    94733817.479                          26.250                  
  22181284.034   116563432.947                          46.750                  
  22181286.694    90828648.636                          32.500                  
  21252692.260   111683649.579                          48.500                  
  21252694.480    87026220.022                          40.500                  
  20576921.464   108132455.759                          50.500                  
  20576928.664    84259056.054                          52.000                  
  22538616.310   118441230.875                          45.500                  
  22538622.030    92291868.634                          46.250                  
  23374723.946   122835000.461                          42.750                  
  23374728.626    95715584.042                          29.500                  
  24762563.456   130128151.753                          40.000                  
  24762567.616   101398560.033                          37.500                  
 16 10  2  8 16 51.0000000  0  8G16G18G20G21G26G27G29G31
  20804910.222   109330542.065                          48.500                  
  20804912.542    85192629.775                          40.000                  
  23134463.386   121572429.497                          44.000                  
  23134466.886    94731763.021                          26.500                  
  22181286.534   116563445.586                          46.500                  
  22181288.974    90828658.486                          32.250                  
  21252822.600   111684334.647                          48.250                  
  21252824.740    87026753.834                          40.500                  
  20577042.404   108133089.710                          50.500                  
  20577049.224    84259550.045                          51.750                  
  22538072.210   118438372.541                          46.000                  
  22538078.050    92289641.362                          46.250                  
  23375318.266   122838123.074                          43.000                  
  23375323.346    95718017.237                          29.500                  
  24763236.336   130131688.000                          40.250                  
  24763240.196   101401315.558                          38.000                  
 16 10  2  8 16 52.0000000  0  8G16G18G20G21G26G27G29G31
  20804648.342   109329165.243                          49.000                  
  20804650.902    85191556.924                          40.000                  
  23133962.046   121569792.418                          44.500                  
  23133965.486    94729708.150                          27.500                  
  22181288.794   116563458.100                          46.500                  
  22181291.574    90828668.242                          32.250                  
  21252952.540   111685019.386                          48.500                  
  21252955.380    87027287.397                          40.500                  
  20577163.084   108133723.491                          50.750                  
  20577170.084    84260043.906                          51.750                  
  22537528.330   118435513.625                          46.250                  
  22537533.870    92287413.638                          46.250                  
  23375912.546   122841245.038                          43.500                  
  23375917.206    95720449.928                          30.250                  
  24763909.656   130135223.470                          40.000                  
  24763913.196   101404070.468                          37.500                  
 16 10  2  8 16 53.0000000  0  8G16G18G20G21G26G27G29G31
  20804386.402   109327789.758                          48.750                  
  20804388.882    85190485.125                          40.500                  
  23133460.706   121567156.468                          45.000                  
  23133463.566    94727654.164                          25.500                  
  22181290.794   116563472.110                          46.250                  
  22181294.334    90828679.155                          32.000                  
  21253083.340   111685705.357                          48.000                  
  21253085.800    87027821.924                          40.500                  
  20577283.924   108134358.701                          50.250                  
  20577290.924    84260538.871                          51.500                  
  22536984.970   118432655.719                          46.500                  
  22536989.910    92285186.700                          46.250                  
  23376507.146   122844367.917                          43.750                  
  23376511.486    95722883.344                          30.500                  
  24764582.656   130138759.736                          40.000                  
  24764585.616   101406825.991                          37.500                  
 16 10  2  8 16 54.0000000  0  8G16G18G20G21G26G27G29G31
  20804124.602   109326414.954                          48.250                  
  20804127.102    85189413.845                          40.000                  
  23132959.166   121564520.947                          44.750                  
  23132962.166    94725600.511                          25.500                  
  22181293.854   116563486.964                          46.250                  
  22181297.174    90828690.731                          32.500                  
  21253213.780   111686391.928                          48.000                  
  21253216.300    87028356.912                          40.500                  
  20577404.964   108134994.666                          50.750                  
  20577411.704    84261034.430                          51.750                  
  22536440.990   118429798.178                          46.500                  
  22536446.270    92282960.043                          46.250                  
  23377101.466   122847491.087                          44.250                  
  23377105.306    95725316.987                          30.000                  
  24765255.156   130142296.206                          40.500                  
  24765258.236   101409581.685                          37.750                  
 16 10  2  8 16 55.0000000  0  8G16G18G20G21G26G27G29G31
  20803862.942   109325039.753                          48.500                  
  20803865.782    85188342.262                          40.000                  
  23132456.966   121561884.722                          44.500                  
  23132460.406    94723546.307                          26.000                  
  22181296.314   116563501.496                          46.250                  
  22181299.814    90828702.057                          32.250                  
  21253344.540   111687077.954                          48.500                  
  21253346.940    87028891.482                          40.500                  
  20577526.144   108135630.276                          50.750                  
  20577533.044    84261529.708                          52.250                  
  22535896.890   118426939.859                          46.000                  
  22535902.310    92280732.785                          46.250                  
  23377695.706   122850613.390                          44.250                  
  23377699.746    95727749.946                          30.500                  
  24765927.836   130145831.694                          40.000                  
  24765931.936   101412336.610                          38.250                  
 16 10  2  8 16 56.0000000  0  8G16G18G20G21G26G27G29G31
  20803601.882   109323665.441                          48.750                  
  20803604.222    85187271.367                          40.250                  
  23131955.426   121559249.138                          43.500                  
  23131958.746    94721492.599                          26.000                  
  22181299.734   116563517.062                          46.500                  
  22181302.614    90828714.184                          32.500                  
  21253475.020   111687764.779                          48.500                  
  21253477.860    87029426.663                          40.000                  
  20577647.024   108136266.857                          50.500                  
  20577654.064    84262025.748                          52.250                  
  22535353.310   118424082.107                          46.000                  
  22535358.510    92278505.970                          46.500                  
  23378289.966   122853736.166                          44.000                  
  23378294.246    95730183.274                          30.500                  
  24766600.716   130149367.540                          40.000                  
  24766604.456   101415091.817                          38.000                  
 16 10  2  8 16 57.0000000  0  8G16G18G20G21G26G27G29G31
  20803340.682   109322292.868                          48.500                  
  20803342.602    85186201.833                          40.000                  
  23131454.046   121556615.051                          43.750                  
  23131457.586    94719440.070                          25.750                  
  22181302.754   116563534.501                          46.500                  
  22181306.054    90828727.775                          32.500                  
  21253606.200   111688453.221                          48.750                  
  21253608.400    87029963.110                          40.500                  
  20577768.544   108136905.223                          50.500                  
  20577775.124    84262523.172                          52.500                  
  22534809.710   118421225.764                          46.250                  
  22534814.650    92276280.248                          46.500                  
  23378884.286   122856860.284                          44.500                  
  23378888.786    95732617.648                          30.000                  
  24767274.056   130152904.567                          39.250                  
  24767277.656   101417847.940                          37.500                  
 16 10  2  8 16 58.0000000  0  8G16G18G20G21G26G27G29G31
  20803079.182   109320919.207                          48.250                  
  20803081.562    85185131.446                          40.000                  
  23130952.746   121553979.580                          43.750                  
  23130955.826    94717386.460                          24.000                  
  22181306.494   116563550.975                          46.500                  
  22181309.074    90828740.610                          32.250                  
  21253736.500   111689140.477                          47.750                  
  21253739.700    87030498.633                          40.500                  
  20577890.064   108137542.544                          50.750                  
  20577896.624    84263019.779                          52.000                  
  22534265.890   118418367.968                          46.250                  
  22534270.930    92274053.392                          46.500                  
  23379478.326   122859982.858                          44.250                  
  23379483.006    95735050.818                          30.000                  
  24767947.256   130156440.013                          38.750                  
  24767950.436   101420602.833                          37.500                  
 16 10  2  8 16 59.0000000  0  8G16G18G20G21G26G27G29G31
  20802818.042   109319546.738                          48.750                  
  20802819.982    85184061.988                          40.250                  
  23130451.106   121551345.049                          43.750                  
  23130454.606    94715333.571                          27.000                  
  22181309.954   116563568.769                          46.000                  
  22181313.094    90828754.473                          32.000                  
  21253867.800   111689828.797                          48.250                  
  21253870.480    87031034.988                          40.500                  
  20578011.684   108138181.149                          51.000                  
  20578018.004    84263517.391                          52.000                  
  22533722.130   118415511.039                          46.000                  
  22533727.170    92271827.208                          46.500                  
  23380072.446   122863106.230                          44.000                  
  23380077.366    95737484.619                          29.750                  
  24768620.276   130159976.095                          39.750                  
  24768623.296   101423358.228                          38.000                  
 16 10  2  8 17  0.0000000  0  8G16G18G20G21G26G27G29G31
  20802557.182   109318174.846                          49.500                  
  20802559.102    85182992.981                          40.000                  
  23129949.606   121548710.805                          43.750                  
  23129953.506    94713280.913                          25.250                  
  22181313.154   116563587.277                          46.250                  
  22181316.374    90828768.899                          32.250                  
  21253998.720   111690517.619                          48.250                  
  21254001.240    87031571.733                          40.500                  
  20578133.224   108138820.395                          51.000                  
  20578140.004    84264015.511                          52.250                  
  22533178.250   118412654.334                          46.250                  
  22533183.910    92269601.206                          46.750                  
  23380666.866   122866229.747                          44.500                  
  23380671.366    95739918.532                          29.500                  
  24769293.356   130163512.224                          40.000                  
  24769296.096   101426113.657                          38.500                  
 16 10  2  8 17  1.0000000  0  8G16G18G20G21G26G27G29G31
  20802296.082   109316803.528                          49.250                  
  20802298.222    85181924.426                          40.000                  
  23129449.046   121546076.934                          43.750                  
  23129452.066    94711228.567                          25.750                  
  22181316.714   116563606.482                          46.250                  
  22181319.794    90828783.862                          31.500                  
  21254129.960   111691206.888                          47.750                  
  21254132.820    87032108.829                          40.500                  
  20578254.504   108139460.303                          50.750                  
  20578261.724    84264514.137                          51.500                  
  22532635.010   118409797.888                          46.250                  
  22532640.410    92267375.410                          46.750                  
  23381261.166   122869353.419                          44.250                  
  23381266.046    95742352.566                          30.000                  
  24769965.996   130167048.393                          40.000                  
  24769969.616   101428869.111                          38.500                  
 16 10  2  8 17  2.0000000  0  8G16G18G20G21G26G27G29G31
  20802035.122   109315432.618                          49.250                  
  20802037.242    85180856.184                          40.500                  
  23128947.986   121543443.184                          44.000                  
  23128950.866    94709176.296                          25.500                  
  22181321.034   116563626.235                          46.250                  
  22181323.434    90828799.256                          32.500                  
  21254261.080   111691896.501                          47.750                  
  21254264.260    87032646.188                          40.500                  
  20578376.784   108140100.666                          50.500                  
  20578383.464    84265013.119                          51.750                  
  22532091.450   118406941.511                          46.500                  
  22532096.690    92265149.666                          46.500                  
  23381855.426   122872477.070                          44.000                  
  23381860.546    95744786.578                          30.000                  
  24770638.616   130170584.433                          40.000                  
  24770642.236   101431624.456                          39.000                  
 16 10  2  8 17  3.0000000  0  8G16G18G20G21G26G27G29G31
  20801774.602   109314062.862                          49.500                  
  20801776.802    85179788.838                          40.250                  
  23128446.806   121540810.330                          43.750                  
  23128449.726    94707124.727                          26.250                  
  22181324.514   116563647.240                          47.000                  
  22181327.414    90828815.625                          31.250                  
  21254392.660   111692587.115                          48.000                  
  21254395.120    87033184.327                          40.500                  
  20578498.624   108140742.235                          50.250                  
  20578505.384    84265513.049                          52.000                  
  22531548.150   118404085.922                          46.750                  
  22531553.310    92262924.529                          46.500                  
  23382449.766   122875601.472                          43.750                  
  23382455.126    95747221.179                          29.500                  
  24771311.876   130174121.100                          40.000                  
  24771315.396   101434380.287                          38.500                  
 16 10  2  8 17  4.0000000  0  8G16G18G20G21G26G27G29G31
  20801513.862   109312693.032                          49.000                  
  20801516.182    85178721.446                          40.250                  
  23127946.046   121538177.147                          43.500                  
  23127948.746    94705072.893                          25.750                  
  22181328.634   116563668.333                          46.250                  
  22181331.494    90828832.062                          33.000                  
  21254523.900   111693277.559                          48.000                  
  21254526.640    87033722.339                          40.500                  
  20578621.104   108141383.817                          50.500                  
  20578627.344    84266012.985                          51.750                  
  22531004.610   118401229.929                          46.250                  
  22531010.050    92260699.080                          46.250                  
  23383044.466   122878725.365                          44.000                  
  23383049.126    95749655.373                          29.750                  
  24771984.296   130177657.143                          40.500                  
  24771988.096   101437135.633                          39.250                  
 16 10  2  8 17  5.0000000  0  8G16G18G20G21G26G27G29G31
  20801252.982   109311323.604                          48.500                  
  20801255.422    85177654.359                          40.000                  
  23127444.386   121535544.088                          43.250                  
  23127447.566    94703021.156                          26.000                  
  22181332.414   116563689.958                          46.500                  
  22181335.294    90828848.912                          32.500                  
  21254655.720   111693968.322                          47.500                  
  21254658.440    87034260.594                          40.500                  
  20578743.144   108142025.861                          50.500                  
  20578749.944    84266513.277                          52.000                  
  22530461.210   118398374.030                          46.000                  
  22530466.510    92258473.692                          46.500                  
  23383638.886   122881849.258                          43.250                  
  23383643.866    95752089.571                          30.250                  
  24772657.856   130181193.059                          40.250                  
  24772660.736   101439890.882                          38.750                  
 16 10  2  8 17  6.0000000  0  8G16G18G20G21G26G27G29G31
  20800992.722   109309954.388                          48.000                  
  20800995.402    85176587.434                          39.500                  
  23126943.746   121532910.989                          43.250                  
  23126946.886    94700969.383                          26.000                  
  22181337.214   116563711.905                          46.250                  
  22181340.294    90828866.010                          33.500                  
  21254787.220   111694659.149                          46.250                  
  21254789.540    87034798.901                          40.500                  
  20578865.004   108142668.163                          50.750                  
  20578871.984    84267013.772                          52.000                  
  22529917.470   118395517.955                          46.000                  
  22529923.550    92256248.179                          46.500                  
  23384233.344   122884972.911                          43.000                  
  23384238.084    95754523.587                          30.250                  
  24773330.316   130184728.647                          40.500                  
  24773333.976   101442645.877                          38.500                  
 16 10  2  8 17  7.0000000  0  8G16G18G20G21G26G27G29G31
  20800732.422   109308587.099                          47.500                  
  20800734.582    85175522.012                          39.500                  
  23126443.046   121530279.541                          43.500                  
  23126446.086    94698918.912                          27.000                  
  22181341.594   116563735.900                          46.250                  
  22181344.534    90828884.707                          33.250                  
  21254918.900   111695351.805                          46.250                  
  21254921.340    87035338.629                          40.750                  
  20578987.524   108143312.465                          50.750                  
  20578994.504    84267515.828                          52.000                  
  22529374.190   118392663.470                          46.000                  
  22529379.750    92254023.911                          46.750                  
  23384828.524   122888098.052                          43.250                  
  23384833.184    95756958.757                          29.750                  
  24774003.376   130188265.633                          40.500                  
  24774007.156   101445401.970                          38.000                  
 16 10  2  8 17  8.0000000  0  8G16G18G20G21G26G27G29G31
  20800471.722   109307220.243                          47.750                  
  20800474.282    85174456.927                          39.500                  
  23125942.186   121527648.281                          43.250                  
  23125945.386    94696868.584                          26.500                  
  22181346.154   116563760.465                          46.250                  
  22181349.094    90828903.849                          33.000                  
  21255050.380   111696044.776                          46.250                  
  21255053.280    87035878.612                          40.750                  
  20579110.464   108143957.260                          51.000                  
  20579117.024    84268018.266                          52.250                  
  22528831.210   118389809.074                          46.000                  
  22528836.810    92251799.706                          46.750                  
  23385423.204   122891223.221                          43.500                  
  23385427.504    95759393.954                          28.500                  
  24774675.796   130191802.505                          41.000                  
  24774680.296   101448157.977                          38.000                  
 16 10  2  8 17  9.0000000  0  8G16G18G20G21G26G27G29G31
  20800212.182   109305852.492                          47.500                  
  20800214.302    85173391.149                          40.000                  
  23125441.166   121525015.866                          43.250                  
  23125444.546    94694817.353                          26.500                  
  22181350.574   116563784.278                          46.250                  
  22181353.774    90828922.404                          32.500                  
  21255182.680   111696736.759                          46.250                  
  21255184.900    87036417.818                          40.750                  
  20579233.104   108144601.239                          51.250                  
  20579239.844    84268520.067                          52.000                  
  22528287.590   118386953.495                          46.250                  
  22528293.270    92249574.582                          46.750                  
  23386017.164   122894347.098                          43.500                  
  23386022.284    95761828.138                          28.750                  
  24775349.016   130195337.949                          41.250                  
  24775352.856   101450912.868                          38.000                  
 16 10  2  8 17 10.0000000  0  8G16G18G20G21G26G27G29G31
  20799951.922   109304486.127                          48.000                  
  20799954.362    85172326.449                          40.000                  
  23124940.126   121522384.588                          43.250                  
  23124943.706    94692767.017                          26.250                  
  22181355.514   116563809.618                          46.500                  
  22181358.414    90828942.158                          32.250                  
  21255314.360   111697430.022                          46.500                  
  21255316.680    87036958.025                          40.750                  
  20579356.144   108145246.659                          51.000                  
  20579362.964    84269022.990                          52.000                  
  22527744.690   118384098.905                          46.000                  
  22527749.990    92247350.232                          46.500                  
  23386611.584   122897471.911                          43.000                  
  23386616.984    95764263.053                          29.250                  
  24776021.456   130198874.249                          41.250                  
  24776025.236   101453668.428                          38.250                  
 16 10  2  8 17 11.0000000  0  8G16G18G20G21G26G27G29G31
  20799692.382   109303120.181                          48.500                  
  20799694.662    85171262.075                          40.000                  
  23124439.726   121519753.426                          43.000                  
  23124443.306    94690716.773                          26.500                  
  22181360.274   116563835.464                          46.750                  
  22181363.254    90828962.288                          33.000                  
  21255446.360   111698123.558                          47.250                  
  21255448.740    87037498.442                          40.750                  
  20579478.924   108145892.556                          51.000                  
  20579485.724    84269526.280                          52.000                  
  22527201.170   118381244.422                          46.000                  
  22527206.430    92245125.964                          46.500                  
  23387206.664   122900596.710                          43.500                  
  23387211.624    95766697.959                          29.750                  
  24776694.276   130202410.441                          40.750                  
  24776698.476   101456423.902                          37.250                  
 16 10  2  8 17 12.0000000  0  8G16G18G20G21G26G27G29G31
  20799432.202   109301755.222                          49.000                  
  20799435.122    85170198.473                          39.750                  
  23123938.966   121517123.026                          43.750                  
  23123942.626    94688667.115                          26.500                  
  22181365.494   116563862.441                          46.750                  
  22181368.654    90828983.313                          32.250                  
  21255578.480   111698818.003                          47.250                  
  21255581.020    87038039.566                          40.750                  
  20579601.964   108146539.485                          51.000                  
  20579608.524    84270030.385                          51.750                  
  22526657.870   118378390.567                          45.750                  
  22526663.510    92242902.177                          46.750                  
  23387801.324   122903722.071                          43.750                  
  23387806.564    95769133.301                          28.500                  
  24777366.816   130205947.054                          40.500                  
  24777371.596   101459179.715                          37.500                  
 16 10  2  8 17 13.0000000  0  8G16G18G20G21G26G27G29G31
  20799172.542   109300390.870                          48.000                  
  20799174.942    85169135.338                          40.000                  
  23123438.446   121514492.946                          44.000                  
  23123442.226    94686617.708                          26.000                  
  22181370.874   116563890.143                          47.000                  
  22181373.794    90829004.891                          32.250                  
  21255710.540   111699512.942                          46.750                  
  21255713.060    87038581.075                          40.500                  
  20579725.104   108147187.118                          51.000                  
  20579731.764    84270535.032                          51.500                  
  22526115.370   118375536.991                          46.000                  
  22526120.610    92240678.611                          46.500                  
  23388396.144   122906847.643                          43.500                  
  23388401.044    95771568.820                          29.250                  
  24778040.256   130209483.737                          40.500                  
  24778044.816   101461935.576                          38.000                  
 16 10  2  8 17 14.0000000  0  8G16G18G20G21G26G27G29G31
  20798912.962   109299025.980                          48.500                  
  20798915.422    85168071.787                          39.750                  
  23122938.366   121511862.063                          44.000                  
  23122941.626    94684567.661                          27.000                  
  22181376.374   116563917.443                          46.250                  
  22181378.994    90829026.165                          32.250                  
  21255842.500   111700207.206                          47.000                  
  21255844.880    87039122.062                          41.000                  
  20579848.464   108147834.255                          50.500                  
  20579855.224    84271039.298                          51.500                  
  22525572.110   118372682.514                          46.250                  
  22525577.790    92238454.341                          46.250                  
  23388990.844   122909972.221                          43.500                  
  23388995.464    95774003.552                          30.000                  
  24778713.536   130213019.364                          40.500                  
  24778717.456   101464690.598                          38.000                  
 16 10  2  8 17 15.0000000  0  8G16G18G20G21G26G27G29G31
  20798653.342   109297662.251                          49.000                  
  20798655.742    85167009.147                          40.000                  
  23122437.246   121509232.120                          43.250                  
  23122441.206    94682518.343                          25.500                  
  22181381.994   116563946.044                          46.500                  
  22181384.194    90829048.454                          32.500                  
  21255974.900   111700902.560                          47.500                  
  21255977.480    87039663.894                          40.750                  
  20579971.924   108148482.647                          51.000                  
  20579978.984    84271544.535                          51.250                  
  22525029.510   118369828.890                          46.000                  
  22525034.450    92236230.740                          46.500                  
  23389585.304   122913097.564                          43.500                  
  23389590.064    95776438.888                          30.250                  
  24779386.596   130216555.599                          40.750                  
  24779390.516   101467446.103                          37.750                  
 16 10  2  8 17 16.0000000  0  8G16G18G20G21G26G27G29G31
  20798394.082   109296299.260                          49.000                  
  20798396.322    85165947.068                          39.750                  
  23121937.306   121506602.624                          43.500                  
  23121940.966    94680469.384                          26.000                  
  22181387.294   116563975.501                          46.500                  
  22181390.194    90829071.401                          32.500                  
  21256107.600   111701598.539                          48.000                  
  21256110.180    87040206.220                          40.750                  
  20580095.364   108149131.786                          51.000                  
  20580101.984    84272050.357                          51.500                  
  22524486.190   118366975.645                          46.000                  
  22524491.630    92234007.430                          46.250                  
  23390180.944   122916223.204                          43.250                  
  23390185.004    95778874.440                          29.500                  
  24780059.396   130220092.046                          40.250                  
  24780062.876   101470201.774                          37.750                  
 16 10  2  8 17 17.0000000  0  8G16G18G20G21G26G27G29G31
  20798134.942   109294936.819                          49.000                  
  20798137.382    85164885.431                          40.000                  
  23121436.946   121503973.440                          43.500                  
  23121440.946    94678420.676                          26.000                  
  22181392.854   116564005.620                          46.750                  
  22181395.934    90829094.869                          32.500                  
  21256239.980   111702294.950                          47.500                  
  21256242.540    87040748.875                          40.750                  
  20580218.544   108149781.592                          51.000                  
  20580225.764    84272556.702                          51.750                  
  22523943.330   118364122.615                          45.750                  
  22523948.730    92231784.290                          46.250                  
  23390775.284   122919348.996                          43.500                  
  23390779.804    95781310.128                          30.250                  
  24780732.136   130223628.514                          40.000                  
  24780736.336   101472957.464                          38.000                  
 16 10  2  8 17 18.0000000  0  8G16G18G20G21G26G27G29G31
  20797875.862   109293575.229                          49.000                  
  20797877.982    85163824.452                          40.000                  
  23120936.526   121501344.837                          43.500                  
  23120940.746    94676372.424                          23.750                  
  22181398.494   116564036.730                          46.750                  
  22181401.834    90829119.110                          32.500                  
  21256372.800   111702992.104                          48.000                  
  21256375.180    87041292.116                          40.500                  
  20580342.284   108150432.305                          51.250                  
  20580349.564    84273063.749                          52.250                  
  22523399.950   118361270.090                          46.000                  
  22523405.750    92229561.543                          46.250                  
  23391370.544   122922475.230                          43.250                  
  23391374.684    95783746.146                          29.500                  
  24781405.396   130227165.300                          40.750                  
  24781409.176   101475713.390                          38.000                  
 16 10  2  8 17 19.0000000  0  8G16G18G20G21G26G27G29G31
  20797616.302   109292213.310                          48.500                  
  20797618.922    85162763.217                          40.000                  
  23120436.446   121498715.635                          43.500                  
  23120440.086    94674323.706                          26.500                  
  22181404.914   116564067.656                          46.500                  
  22181407.494    90829143.212                          33.250                  
  21256505.460   111703688.830                          48.000                  
  21256507.960    87041835.011                          40.500                  
  20580466.604   108151082.747                          51.500                  
  20580473.284    84273570.591                          52.250                  
  22522857.650   118358416.916                          46.750                  
  22522862.770    92227338.290                          46.500                  
  23391965.104   122925600.710                          43.000                  
  23391969.564    95786181.589                          30.000                  
  24782078.676   130230701.208                          40.000                  
  24782082.296   101478468.627                          37.750                  
 16 10  2  8 17 20.0000000  0  8G16G18G20G21G26G27G29G31
  20797357.642   109290852.237                          49.000                  
  20797360.402    85161702.639                          39.500                  
  23119935.866   121496087.017                          43.500                  
  23119939.886    94672275.425                          26.500                  
  22181410.734   116564099.546                          46.250                  
  22181413.694    90829168.068                          32.750                  
  21256637.780   111704386.273                          48.250                  
  21256640.540    87042378.478                          40.000                  
  20580590.584   108151734.090                          51.500                  
  20580597.524    84274078.127                          52.000                  
  22522314.710   118355564.217                          46.750                  
  22522320.210    92225115.410                          46.250                  
  23392559.344   122928726.589                          43.250                  
  23392564.344    95788617.337                          30.000                  
  24782751.276   130234237.424                          40.250                  
  24782755.176   101481224.112                          36.500                  
 16 10  2  8 17 21.0000000  0  8G16G18G20G21G26G27G29G31
  20797098.422   109289491.974                          49.250                  
  20797101.242    85160642.695                          40.000                  
  23119436.066   121493458.981                          44.250                  
  23119440.126    94670227.599                          25.750                  
  22181416.814   116564132.384                          47.000                  
  22181420.214    90829193.650                          33.250                  
  21256770.920   111705084.449                          48.500                  
  21256773.520    87042922.509                          40.500                  
  20580714.784   108152386.321                          51.000                  
  20580721.444    84274586.359                          52.000                  
  22521771.770   118352712.018                          46.500                  
  22521777.330    92222892.919                          46.000                  
  23393154.404   122931852.880                          43.750                  
  23393159.544    95791053.402                          30.750                  
  24783424.636   130237773.926                          40.750                  
  24783427.756   101483979.824                          36.750                  
 16 10  2  8 17 22.0000000  0  8G16G18G20G21G26G27G29G31
  20796839.802   109288133.072                          49.500                  
  20796842.262    85159583.806                          40.000                  
  23118936.106   121490832.031                          44.500                  
  23118939.626    94668180.621                          27.000                  
  22181423.694   116564166.692                          47.000                  
  22181426.014    90829220.383                          33.000                  
  21256904.080   111705783.847                          48.000                  
  21256906.480    87043467.496                          40.750                  
  20580838.824   108153039.977                          51.000                  
  20580845.744    84275095.703                          52.000                  
  22521229.350   118349860.801                          46.500                  
  22521234.710    92220671.188                          46.500                  
  23393749.564   122934980.099                          43.250                  
  23393754.504    95793490.198                          29.250                  
  24784097.196   130241311.243                          40.500                  
  24784100.916   101486736.183                          37.000                  
 16 10  2  8 17 23.0000000  0  8G16G18G20G21G26G27G29G31
  20796581.662   109286773.408                          49.000                  
  20796583.682    85158524.326                          40.000                  
  23118436.186   121488204.067                          44.500                  
  23118439.886    94666132.855                          26.500                  
  22181429.834   116564200.395                          47.000                  
  22181433.114    90829246.643                          33.000                  
  21257036.800   111706482.377                          48.000                  
  21257039.320    87044011.802                          40.750                  
  20580962.984   108153692.926                          51.500                  
  20580969.904    84275604.494                          52.000                  
  22520686.490   118347008.544                          46.500                  
  22520691.930    92218448.652                          46.250                  
  23394344.324   122938106.128                          43.000                  
  23394349.544    95795926.065                          30.000                  
  24784770.496   130244847.267                          40.500                  
  24784773.836   101489491.541                          37.000                  
 16 10  2  8 17 24.0000000  0  8G16G18G20G21G26G27G29G31
  20796322.882   109285415.152                          49.000                  
  20796325.242    85157465.944                          40.000                  
  23117936.066   121485577.224                          44.500                  
  23117939.686    94664085.968                          26.750                  
  22181436.694   116564235.580                          47.000                  
  22181439.674    90829274.065                          32.750                  
  21257169.920   111707182.175                          48.000                  
  21257172.580    87044557.105                          41.000                  
  20581087.664   108154347.330                          51.250                  
  20581094.344    84276114.420                          52.000                  
  22520143.510   118344157.280                          46.500                  
  22520149.290    92216226.888                          46.250                  
  23394939.404   122941233.116                          43.000                  
  23394944.324    95798362.679                          30.000                  
  24785443.996   130248384.108                          41.000                  
  24785446.816   101492247.531                          37.250                  
 16 10  2  8 17 25.0000000  0  8G16G18G20G21G26G27G29G31
  20796064.262   109284056.696                          48.750                  
  20796066.862    85156407.412                          40.500                  
  23117435.926   121482949.906                          44.750                  
  23117439.886    94662038.710                          26.250                  
  22181443.474   116564270.731                          47.250                  
  22181446.594    90829301.453                          33.000                  
  21257303.020   111707881.709                          48.250                  
  21257305.620    87045102.197                          41.000                  
  20581212.264   108155001.611                          51.250                  
  20581219.024    84276624.241                          52.000                  
  22519601.170   118341305.501                          46.500                  
  22519606.730    92214004.720                          46.500                  
  23395534.624   122944359.473                          42.750                  
  23395539.644    95800798.795                          30.000                  
  24786116.616   130251920.245                          41.000                  
  24786119.836   101495002.958                          37.500                  
 16 10  2  8 17 26.0000000  0  8G16G18G20G21G26G27G29G31
  20795806.042   109282699.047                          49.250                  
  20795808.842    85155349.501                          40.500                  
  23116936.386   121480323.135                          45.000                  
  23116940.086    94659991.889                          25.750                  
  22181450.294   116564306.778                          47.250                  
  22181452.874    90829329.537                          32.250                  
  21257436.440   111708581.927                          48.500                  
  21257438.660    87045647.821                          40.750                  
  20581337.024   108155656.745                          51.250                  
  20581343.804    84277134.735                          52.000                  
  22519058.650   118338454.161                          46.250                  
  22519063.850    92211782.893                          46.500                  
  23396129.644   122947486.222                          42.250                  
  23396134.424    95803235.217                          30.000                  
  24786789.656   130255456.642                          41.250                  
  24786792.796   101497758.586                          37.500                  
 16 10  2  8 17 27.0000000  0  8G16G18G20G21G26G27G29G31
  20795548.082   109281342.039                          49.250                  
  20795550.242    85154292.095                          40.500                  
  23116436.766   121477696.768                          45.250                  
  23116440.326    94657945.363                          26.000                  
  22181457.554   116564343.637                          47.500                  
  22181460.194    90829358.262                          32.000                  
  21257569.480   111709282.707                          48.250                  
  21257572.440    87046193.881                          40.250                  
  20581461.824   108156312.597                          51.500                  
  20581468.464    84277645.793                          52.250                  
  22518515.570   118335603.157                          46.250                  
  22518521.610    92209561.339                          46.000                  
  23396724.704   122950613.186                          42.750                  
  23396729.064    95805671.810                          28.750                  
  24787462.056   130258993.163                          41.250                  
  24787465.876   101500514.317                          38.000                  
 16 10  2  8 17 28.0000000  0  8G16G18G20G21G26G27G29G31
  20795289.802   109279985.649                          49.750                  
  20795292.122    85153235.165                          40.000                  
  23115936.806   121475070.753                          45.000                  
  23115940.446    94655899.118                          25.000                  
  22181464.354   116564381.216                          47.000                  
  22181467.154    90829387.536                          32.250                  
  21257703.360   111709983.981                          48.500                  
  21257705.820    87046740.326                          40.750                  
  20581586.584   108156969.125                          51.250                  
  20581593.484    84278157.377                          52.500                  
  22517973.130   118332752.437                          46.000                  
  22517978.950    92207340.001                          46.250                  
  23397320.024   122953740.340                          42.250                  
  23397324.604    95808108.553                          29.750                  
  24788134.836   130262529.739                          41.250                  
  24788138.796   101503270.080                          37.500                  
 16 10  2  8 17 29.0000000  0  8G16G18G20G21G26G27G29G31
  20795031.542   109278629.508                          49.500                  
  20795034.242    85152178.434                          40.000                  
  23115437.346   121472444.722                          45.250                  
  23115440.666    94653852.858                          25.500                  
  22181471.874   116564419.178                          47.000                  
  22181474.274    90829417.120                          32.250                  
  21257836.940   111710685.402                          48.000                  
  21257839.480    87047286.892                          40.750                  
  20581711.784   108157625.970                          51.500                  
  20581718.384    84278669.206                          52.500                  
  22517431.170   118329901.625                          46.250                  
  22517436.470    92205118.595                          46.000                  
  23397914.784   122956867.327                          42.500                  
  23397919.664    95810545.165                          29.000                  
  24788807.416   130266066.049                          40.000                  
  24788811.876   101506025.649                          37.750                  
 16 10  2  8 17 30.0000000  0  8G16G18G20G21G26G27G29G31
  20794774.042   109277274.497                          49.250                  
  20794776.262    85151122.584                          40.250                  
  23114937.606   121469819.567                          45.000                  
  23114940.886    94651807.274                          26.250                  
  22181479.214   116564458.391                          46.750                  
  22181481.774    90829447.677                          32.750                  
  21257970.340   111711387.822                          48.500                  
  21257972.820    87047834.224                          41.000                  
  20581836.984   108158284.006                          51.250                  
  20581843.684    84279181.959                          52.500                  
  22516888.810   118327051.569                          46.500                  
  22516894.190    92202897.779                          46.250                  
  23398509.564   122959995.006                          43.000                  
  23398514.404    95812982.319                          29.250                  
  24789481.016   130269602.940                          40.000                  
  24789484.876   101508781.666                          38.250                  
 16 10  2  8 17 31.0000000  0  8G16G18G20G21G26G27G29G31
  20794515.882   109275919.649                          48.750                  
  20794518.502    85150066.858                          40.250                  
  23114438.366   121467194.330                          44.500                  
  23114442.086    94649761.637                          25.750                  
  22181486.674   116564497.914                          46.500                  
  22181489.254    90829478.477                          33.250                  
  21258103.860   111712090.315                          47.250                  
  21258106.540    87048381.623                          40.750                  
  20581962.484   108158942.270                          51.500                  
  20581968.924    84279694.890                          52.000                  
  22516346.330   118324201.372                          46.250                  
  22516351.850    92200676.842                          46.500                  
  23399104.924   122963122.456                          43.000                  
  23399109.824    95815419.287                          30.000                  
  24790154.356   130273139.458                          40.250                  
  24790158.136   101511537.388                          38.500                  
 16 10  2  8 17 32.0000000  0  8G16G18G20G21G26G27G29G31
  20794258.102   109274565.088                          48.250                  
  20794260.782    85149011.360                          40.500                  
  23113938.626   121464569.087                          44.250                  
  23113941.746    94647715.986                          26.250                  
  22181494.254   116564537.810                          46.750                  
  22181496.814    90829509.567                          32.500                  
  21258238.000   111712792.966                          47.500                  
  21258240.260    87048929.141                          40.750                  
  20582087.444   108159600.873                          51.250                  
  20582094.584    84280208.085                          52.500                  
  22515804.210   118321351.101                          46.500                  
  22515809.690    92198455.846                          46.250                  
  23399700.704   122966249.725                          43.500                  
  23399705.084    95817856.114                          29.000                  
  24790826.916   130276675.695                          40.500                  
  24790830.656   101514292.887                          37.750                  
 16 10  2  8 17 33.0000000  0  8G16G18G20G21G26G27G29G31
  20794000.602   109273211.480                          48.000                  
  20794003.142    85147956.592                          40.000                  
  23113438.766   121461944.552                          44.250                  
  23113442.906    94645670.895                          26.750                  
  22181501.954   116564578.818                          47.000                  
  22181504.694    90829541.521                          33.000                  
  21258371.780   111713496.465                          47.250                  
  21258374.160    87049477.329                          40.500                  
  20582213.084   108160260.511                          50.750                  
  20582220.044    84280722.093                          52.500                  
  22515261.770   118318501.437                          46.250                  
  22515267.170    92196235.324                          46.500                  
  23400295.564   122969377.544                          44.000                  
  23400300.384    95820293.375                          29.000                  
  24791500.316   130280212.379                          40.500                  
  24791504.116   101517048.736                          37.750                  
 16 10  2  8 17 34.0000000  0  8G16G18G20G21G26G27G29G31
  20793743.462   109271858.713                          48.500                  
  20793745.722    85146902.490                          39.750                  
  23112939.506   121459320.594                          44.000                  
  23112943.186    94643626.247                          26.000                  
  22181510.114   116564620.782                          47.250                  
  22181512.694    90829574.212                          32.500                  
  21258505.680   111714200.687                          47.500                  
  21258508.160    87050026.069                          40.500                  
  20582338.504   108160921.040                          51.000                  
  20582345.484    84281236.789                          52.250                  
  22514719.610   118315652.283                          46.500                  
  22514724.890    92194015.204                          46.500                  
  23400890.664   122972505.764                          43.750                  
  23400895.504    95822730.949                          29.000                  
  24792173.496   130283749.338                          40.500                  
  24792176.576   101519804.804                          38.250                  
 16 10  2  8 17 35.0000000  0  8G16G18G20G21G26G27G29G31
  20793486.042   109270506.104                          48.500                  
  20793488.402    85145848.509                          40.250                  
  23112440.126   121456696.529                          44.250                  
  23112444.046    94641581.512                          25.750                  
  22181517.814   116564663.027                          47.500                  
  22181520.874    90829607.132                          32.500                  
  21258639.680   111714904.928                          48.000                  
  21258642.040    87050574.832                          40.500                  
  20582464.524   108161581.766                          51.000                  
  20582471.104    84281751.635                          52.000                  
  22514177.390   118312802.921                          46.250                  
  22514182.710    92191794.924                          46.750                  
  23401485.864   122975633.734                          43.500                  
  23401490.884    95825168.329                          30.000                  
  24792845.876   130287285.906                          40.500                  
  24792850.036   101522560.571                          38.250                  
 16 10  2  8 17 36.0000000  0  8G16G18G20G21G26G27G29G31
  20793228.282   109269154.164                          49.000                  
  20793230.982    85144795.051                          40.250                  
  23111940.746   121454072.858                          43.750                  
  23111944.246    94639537.102                          26.250                  
  22181526.034   116564706.071                          47.500                  
  22181529.014    90829640.671                          32.500                  
  21258773.620   111715609.746                          48.000                  
  21258776.360    87051124.037                          40.000                  
  20582590.764   108162243.241                          51.250                  
  20582597.204    84282267.072                          51.500                  
  22513635.290   118309953.909                          47.000                  
  22513640.690    92189574.919                          47.000                  
  23402081.424   122978761.902                          43.500                  
  23402086.164    95827605.868                          29.000                  
  24793519.596   130290822.624                          40.750                  
  24793523.316   101525316.455                          38.000                  
 16 10  2  8 17 37.0000000  0  8G16G18G20G21G26G27G29G31
  20792971.382   109267803.407                          49.000                  
  20792973.922    85143742.512                          40.250                  
  23111441.726   121451450.130                          43.750                  
  23111445.486    94637493.414                          26.750                  
  22181534.954   116564750.413                          47.500                  
  22181537.314    90829675.227                          32.250                  
  21258907.660   111716315.634                          48.000                  
  21258910.260    87051674.078                          39.750                  
  20582716.464   108162905.938                          51.750                  
  20582723.204    84282783.457                          51.750                  
  22513093.310   118307105.722                          47.000                  
  22513098.470    92187355.557                          47.000                  
  23402676.204   122981890.868                          43.500                  
  23402681.624    95830044.020                          29.750                  
  24794192.296   130294359.977                          41.500                  
  24794195.716   101528072.826                          38.000                  
 16 10  2  8 17 38.0000000  0  8G16G18G20G21G26G27G29G31
  20792714.262   109266452.188                          49.000                  
  20792716.982    85142689.613                          40.000                  
  23110942.646   121448826.675                          43.500                  
  23110946.406    94635449.169                          26.000                  
  22181542.814   116564794.440                          47.500                  
  22181545.854    90829709.530                          31.750                  
  21259042.040   111717020.941                          48.500                  
  21259044.700    87052223.670                          40.500                  
  20582842.264   108163568.299                          51.250                  
  20582849.324    84283299.576                          52.000                  
  22512551.470   118304256.747                          46.500                  
  22512556.350    92185135.578                          47.250                  
  23403271.724   122985018.960                          43.000                  
  23403276.524    95832481.493                          28.500                  
  24794865.376   130297896.330                          41.500                  
  24794868.776   101530828.422                          38.500                  
 16 10  2  8 17 39.0000000  0  8G16G18G20G21G26G27G29G31
  20792457.342   109265102.240                          49.000                  
  20792460.442    85141637.714                          40.000                  
  23110443.226   121446204.205                          43.000                  
  23110447.326    94633405.691                          26.250                  
  22181551.354   116564839.823                          47.250                  
  22181554.334    90829744.897                          32.500                  
  21259176.780   111717727.397                          48.000                  
  21259179.140    87052774.153                          40.750                  
  20582968.264   108164231.907                          51.250                  
  20582975.244    84283816.675                          52.000                  
  22512009.590   118301408.683                          46.500                  
  22512014.210    92182916.307                          47.000                  
  23403867.524   122988147.816                          43.000                  
  23403872.044    95834919.561                          28.500                  
  24795539.316   130301433.368                          41.750                  
  24795542.016   101533584.555                          38.250                  
 16 10  2  8 17 40.0000000  0  8G16G18G20G21G26G27G29G31
  20792200.122   109263751.780                          48.750                  
  20792202.842    85140585.404                          40.250                  
  23109944.306   121443580.964                          42.500                  
  23109948.146    94631361.616                          26.250                  
  22181560.114   116564884.861                          47.250                  
  22181562.934    90829779.991                          32.250                  
  21259311.200   111718433.224                          48.000                  
  21259313.660    87053324.152                          40.500                  
  20583094.884   108164895.116                          51.250                  
  20583101.964    84284333.466                          51.750                  
  22511467.210   118298559.781                          46.000                  
  22511472.630    92180696.382                          47.000                  
  23404462.364   122991275.799                          43.000                  
  23404467.404    95837356.947                          29.250                  
  24796211.756   130304969.410                          42.000                  
  24796215.136   101536339.915                          38.000                  
 16 10  2  8 17 41.0000000  0  8G16G18G20G21G26G27G29G31
  20791943.982   109262403.031                          49.000                  
  20791946.742    85139534.426                          39.750                  
  23109445.426   121440959.217                          42.500                  
  23109449.226    94629318.702                          27.000                  
  22181568.914   116564931.725                          47.750                  
  22181572.134    90829816.517                          32.500                  
  21259445.200   111719140.675                          48.000                  
  21259448.100    87053875.413                          40.500                  
  20583221.464   108165560.096                          51.000                  
  20583228.084    84284851.626                          51.750                  
  22510925.470   118295712.246                          46.250                  
  22510930.070    92178477.519                          46.500                  
  23405057.064   122994405.063                          42.500                  
  23405062.624    95839795.336                          29.500                  
  24796884.856   130308506.585                          41.500                  
  24796888.336   101539096.161                          37.750                  
 16 10  2  8 17 42.0000000  0  8G16G18G20G21G26G27G29G31
  20791687.002   109261053.648                          49.250                  
  20791690.082    85138482.961                          39.750                  
  23108946.286   121438336.520                          42.750                  
  23108950.346    94627275.047                          26.750                  
  22181578.074   116564978.075                          47.750                  
  22181581.154    90829852.636                          33.250                  
  21259580.120   111719847.354                          47.750                  
  21259582.640    87054426.076                          40.750                  
  20583348.504   108166224.480                          51.250                  
  20583354.564    84285369.331                          51.750                  
  22510382.930   118292863.712                          46.500                  
  22510388.190    92176257.884                          46.750                  
  23405652.904   122997533.235                          42.500                  
  23405658.024    95842232.863                          29.250                  
  24797557.236   130312042.567                          41.250                  
  24797561.256   101541851.474                          38.250                  
 16 10  2  8 17 43.0000000  0  8G16G18G20G21G26G27G29G31
  20791430.342   109259705.663                          49.500                  
  20791432.942    85137432.579                          40.250                  
  23108447.366   121435714.980                          42.500                  
  23108451.326    94625232.290                          26.750                  
  22181587.134   116565025.938                          47.750                  
  22181589.914    90829889.929                          32.250                  
  21259714.520   111720555.336                          47.750                  
  21259716.920    87054977.746                          40.000                  
  20583475.064   108166890.340                          51.000                  
  20583481.804    84285888.184                          51.750                  
  22509841.390   118290016.247                          46.500                  
  22509846.790    92174039.084                          46.500                  
  23406248.864   123000662.407                          42.500                  
  23406253.204    95844671.170                          30.250                  
  24798230.216   130315579.448                          41.000                  
  24798234.596   101544607.481                          38.250                  
 16 10  2  8 17 44.0000000  0  8G16G18G20G21G26G27G29G31
  20791173.822   109258358.656                          49.000                  
  20791176.662    85136382.967                          39.750                  
  23107949.066   121433094.157                          42.500                  
  23107952.246    94623190.091                          26.000                  
  22181596.774   116565074.941                          47.750                  
  22181599.474    90829928.110                          33.000                  
  21259849.300   111721264.191                          47.750                  
  21259852.100    87055530.104                          40.500                  
  20583601.424   108167557.259                          51.250                  
  20583608.384    84286407.861                          52.000                  
  22509299.630   118287169.439                          46.250                  
  22509304.850    92171820.797                          46.500                  
  23406844.224   123003792.117                          42.500                  
  23406848.624    95847109.907                          29.750                  
  24798903.156   130319116.749                          41.500                  
  24798907.396   101547363.813                          38.750                  
 16 10  2  8 17 45.0000000  0  8G16G18G20G21G26G27G29G31
  20790918.162   109257012.218                          49.000                  
  20790920.302    85135333.793                          39.750                  
  23107450.326   121430473.629                          42.750                  
  23107453.646    94621148.129                          27.000                  
  22181605.414   116565124.619                          47.500                  
  22181608.754    90829966.820                          32.500                  
  21259984.600   111721973.494                          47.500                  
  21259986.940    87056082.802                          40.500                  
  20583728.464   108168224.764                          50.750                  
  20583735.144    84286927.995                          51.750                  
  22508757.410   118284322.844                          46.500                  
  22508763.030    92169602.673                          46.500                  
  23407439.524   123006921.992                          43.000                  
  23407444.324    95849548.763                          29.000                  
  24799576.036   130322654.079                          41.250                  
  24799580.516   101550120.168                          38.500                  
 16 10  2  8 17 46.0000000  0  8G16G18G20G21G26G27G29G31
  20790661.682   109255665.048                          49.000                  
  20790664.122    85134284.054                          39.750                  
  23106951.866   121427852.133                          42.750                  
  23106954.806    94619105.411                          26.750                  
  22181615.134   116565173.688                          47.500                  
  22181618.034    90830005.054                          33.000                  
  21260119.300   111722681.949                          48.000                  
  21260122.060    87056634.847                          40.500                  
  20583855.564   108168891.628                          51.000                  
  20583862.204    84287447.623                          51.750                  
  22508215.750   118281475.164                          46.750                  
  22508221.050    92167383.699                          46.500                  
  23408035.244   123010050.656                          43.000                  
  23408039.884    95851986.687                          29.500                  
  24800249.616   130326190.127                          40.750                  
  24800253.816   101552875.520                          38.250                  
 16 10  2  8 17 47.0000000  0  8G16G18G20G21G26G27G29G31
  20790405.682   109254318.902                          48.750                  
  20790408.262    85133235.107                          40.000                  
  23106452.666   121425231.395                          43.250                  
  23106456.086    94617063.283                          25.750                  
  22181624.474   116565223.918                          47.500                  
  22181627.354    90830044.190                          32.750                  
  21260254.640   111723391.332                          47.750                  
  21260256.580    87057187.617                          40.250                  
  20583982.824   108169559.572                          51.000                  
  20583989.264    84287968.105                          52.000                  
  22507674.370   118278628.183                          47.000                  
  22507679.570    92165165.270                          46.500                  
  23408630.744   123013179.956                          43.250                  
  23408635.764    95854425.107                          29.250                  
  24800922.276   130329726.647                          41.500                  
  24800926.516   101555631.240                          38.250                  
 16 10  2  8 17 48.0000000  0  8G16G18G20G21G26G27G29G31
  20790149.562   109252973.855                          49.000                  
  20790151.962    85132187.018                          40.000                  
  23105954.566   121422611.481                          43.500                  
  23105957.826    94615021.796                          26.250                  
  22181634.454   116565275.357                          47.000                  
  22181637.154    90830084.278                          32.000                  
  21260389.680   111724101.681                          47.750                  
  21260392.260    87057741.132                          40.750                  
  20584109.884   108170228.662                          51.250                  
  20584116.624    84288489.467                          52.000                  
  22507132.270   118275781.951                          47.000                  
  22507137.610    92162947.425                          46.500                  
  23409226.524   123016309.942                          43.500                  
  23409231.084    95856864.055                          29.750                  
  24801594.976   130333263.730                          41.250                  
  24801600.096   101558387.410                          37.750                  
 16 10  2  8 17 49.0000000  0  8G16G18G20G21G26G27G29G31
  20789893.742   109251629.165                          49.000                  
  20789896.582    85131139.206                          40.250                  
  23105455.366   121419991.662                          43.500                  
  23105458.726    94612980.385                          26.500                  
  22181644.154   116565327.272                          47.000                  
  22181646.894    90830124.729                          32.500                  
  21260524.980   111724812.299                          48.000                  
  21260527.440    87058294.857                          40.750                  
  20584237.284   108170898.195                          51.250                  
  20584243.964    84289011.188                          51.750                  
  22506590.770   118272935.755                          47.250                  
  22506596.370    92160729.610                          46.250                  
  23409822.004   123019439.831                          43.250                  
  23409826.564    95859302.927                          29.250                  
  24802267.876   130336800.608                          41.000                  
  24802272.216   101561143.423                          38.000                  
 16 10  2  8 17 50.0000000  0  8G16G18G20G21G26G27G29G31
  20789637.862   109250284.491                          49.000                  
  20789640.382    85130091.408                          40.500                  
  23104957.486   121417371.630                          43.750                  
  23104960.546    94610938.801                          26.000                  
  22181654.274   116565379.347                          46.750                  
  22181657.014    90830165.311                          32.250                  
  21260660.220   111725522.811                          47.750                  
  21260662.820    87058848.507                          40.750                  
  20584364.664   108171567.800                          50.750                  
  20584371.484    84289532.955                          51.750                  
  22506049.190   118270089.208                          47.000                  
  22506054.570    92158511.525                          45.750                  
  23410417.284   123022569.307                          43.500                  
  23410422.204    95861741.476                          29.250                  
  24802940.776   130340337.024                          40.750                  
  24802945.856   101563899.080                          38.000                  
 16 10  2  8 17 51.0000000  0  8G16G18G20G21G26G27G29G31
  20789382.522   109248940.883                          49.250                  
  20789384.842    85129044.441                          40.500                  
  23104459.326   121414752.389                          43.750                  
  23104462.206    94608897.841                          25.500                  
  22181664.494   116565432.596                          47.000                  
  22181667.174    90830206.806                          32.000                  
  21260795.600   111726234.256                          47.750                  
  21260798.280    87059402.880                          40.500                  
  20584492.244   108172238.521                          50.750                  
  20584498.944    84290055.589                          51.500                  
  22505507.490   118267243.393                          46.750                  
  22505512.850    92156294.010                          46.000                  
  23411012.884   123025699.427                          43.250                  
  23411017.884    95864180.536                          28.500                  
  24803614.336   130343873.925                          40.250                  
  24803618.456   101566655.103                          37.500                  
 16 10  2  8 17 52.0000000  0  8G16G18G20G21G26G27G29G31
  20789126.742   109247598.059                          49.750                  
  20789129.002    85127998.086                          40.500                  
  23103960.706   121412133.658                          44.000                  
  23103963.906    94606857.262                          26.750                  
  22181674.854   116565486.765                          46.750                  
  22181677.054    90830249.016                          32.750                  
  21260930.900   111726946.395                          48.000                  
  21260933.480    87059957.794                          40.500                  
  20584620.244   108172910.104                          51.000                  
  20584627.024    84290578.899                          51.250                  
  22504966.250   118264398.015                          46.750                  
  22504971.070    92154076.832                          45.750                  
  23411608.384   123028829.904                          43.000                  
  23411613.604    95866619.861                          29.500                  
  24804287.596   130347411.053                          40.750                  
  24804291.476   101569411.298                          37.500                  
 16 10  2  8 17 53.0000000  0  8G16G18G20G21G26G27G29G31
  20788871.062   109246255.208                          49.750                  
  20788873.222    85126951.713                          40.500                  
  23103462.246   121409514.648                          44.000                  
  23103465.466    94604816.472                          27.000                  
  22181685.334   116565541.015                          46.500                  
  22181687.794    90830291.287                          33.000                  
  21261066.340   111727658.365                          48.000                  
  21261069.120    87060512.574                          40.250                  
  20584748.144   108173581.679                          50.750                  
  20584755.064    84291102.208                          51.750                  
  22504424.950   118261552.250                          47.000                  
  22504429.690    92151859.353                          46.000                  
  23412204.004   123031959.892                          42.250                  
  23412209.224    95869058.817                          29.250                  
  24804960.456   130350947.605                          41.000                  
  24804964.856   101572167.047                          37.750                  
 16 10  2  8 17 54.0000000  0  8G16G18G20G21G26G27G29G31
  20788615.762   109244913.400                          49.500                  
  20788618.202    85125906.144                          40.250                  
  23102963.726   121406896.437                          44.250                  
  23102967.146    94602776.311                          26.750                  
  22181695.814   116565596.464                          46.750                  
  22181698.234    90830334.495                          32.250                  
  21261201.780   111728371.292                          48.000                  
  21261204.560    87061068.101                          40.500                  
  20584875.924   108174254.395                          51.000                  
  20584882.984    84291626.398                          52.000                  
  22503882.930   118258707.213                          47.000                  
  22503888.570    92149642.441                          45.500                  
  23412799.864   123035090.543                          42.000                  
  23412805.084    95871498.279                          29.250                  
  24805633.976   130354484.712                          41.000                  
  24805637.776   101574923.234                          37.750                  
 16 10  2  8 17 55.0000000  0  8G16G18G20G21G26G27G29G31
  20788360.382   109243571.803                          49.000                  
  20788363.002    85124860.746                          40.500                  
  23102465.186   121404278.110                          44.250                  
  23102469.286    94600736.050                          27.000                  
  22181706.314   116565652.217                          46.500                  
  22181709.094    90830377.935                          32.000                  
  21261337.460   111729084.277                          47.750                  
  21261340.300    87061623.678                          40.000                  
  20585004.024   108174927.347                          51.250                  
  20585010.984    84292150.780                          52.500                  
  22503341.950   118255862.029                          47.000                  
  22503347.150    92147425.412                          46.000                  
  23413395.364   123038220.962                          41.750                  
  23413401.064    95873937.563                          30.000                  
  24806306.956   130358021.419                          41.250                  
  24806311.056   101577679.105                          38.000                  
 16 10  2  8 17 56.0000000  0  8G16G18G20G21G26G27G29G31
  20788105.162   109242230.673                          49.000                  
  20788107.742    85123815.710                          40.250                  
  23101967.226   121401660.046                          43.750                  
  23101970.606    94598695.988                          26.250                  
  22181716.714   116565708.569                          46.250                  
  22181719.774    90830421.840                          32.250                  
  21261473.220   111729797.638                          47.500                  
  21261476.400    87062179.537                          40.000                  
  20585132.444   108175600.850                          51.500                  
  20585139.124    84292675.586                          52.000                  
  22502800.710   118253016.982                          46.500                  
  22502805.910    92145208.488                          46.250                  
  23413991.524   123041351.397                          42.500                  
  23413996.564    95876376.854                          30.000                  
  24806980.016   130361558.050                          41.500                  
  24806983.596   101580434.920                          37.750                  
 16 10  2  8 17 57.0000000  0  8G16G18G20G21G26G27G29G31
  20787850.162   109240890.292                          49.000                  
  20787852.922    85122771.257                          40.250                  
  23101469.426   121399042.445                          44.000                  
  23101472.606    94596656.301                          27.000                  
  22181727.914   116565765.791                          46.750                  
  22181730.334    90830466.429                          32.250                  
  21261609.200   111730511.639                          47.500                  
  21261611.860    87062735.906                          40.500                  
  20585260.824   108176275.148                          51.500                  
  20585267.484    84293201.015                          52.250                  
  22502259.210   118250172.313                          47.000                  
  22502264.410    92142991.863                          46.000                  
  23414587.044   123044482.169                          42.250                  
  23414592.164    95878816.415                          29.250                  
  24807653.096   130365094.883                          41.500                  
  24807656.756   101583190.898                          38.250                  
 16 10  2  8 17 58.0000000  0  8G16G18G20G21G26G27G29G31
  20787595.042   109239550.747                          49.000                  
  20787597.582    85121727.454                          40.500                  
  23100970.866   121396425.408                          44.000                  
  23100974.886    94594617.056                          27.000                  
  22181738.974   116565823.978                          46.500                  
  22181741.554    90830511.773                          31.750                  
  21261745.340   111731226.364                          47.500                  
  21261748.080    87063292.830                          40.500                  
  20585389.424   108176950.344                          51.250                  
  20585395.944    84293727.141                          52.000                  
  22501717.770   118247328.157                          46.500                  
  22501723.270    92140775.639                          46.250                  
  23415182.864   123047613.345                          42.000                  
  23415188.244    95881256.298                          28.750                  
  24808326.116   130368632.034                          42.000                  
  24808329.776   101585947.115                          38.250                  
 16 10  2  8 17 59.0000000  0  8G16G18G20G21G26G27G29G31
  20787340.522   109238211.538                          49.000                  
  20787342.962    85120683.914                          40.250                  
  23100472.806   121393808.471                          44.000                  
  23100476.626    94592577.886                          28.000                  
  22181750.134   116565882.606                          46.500                  
  22181752.754    90830557.453                          32.500                  
  21261881.640   111731941.293                          47.250                  
  21261884.060    87063849.922                          40.500                  
  20585517.764   108177625.931                          51.750                  
  20585524.464    84294253.573                          52.000                  
  22501176.450   118244484.000                          46.500                  
  22501182.110    92138559.411                          46.250                  
  23415778.664   123050744.421                          42.250                  
  23415783.504    95883696.096                          29.000                  
  24808999.276   130372168.970                          41.500                  
  24809003.316   101588703.167                          38.500                  
 16 10  2  8 18  0.0000000  0  8G16G18G20G21G26G27G29G31
  20787085.462   109236873.052                          49.000                  
  20787088.302    85119640.940                          40.000                  
  23099974.866   121391192.005                          44.500                  
  23099978.806    94590539.092                          26.500                  
  22181761.334   116565942.095                          46.750                  
  22181763.974    90830603.812                          31.750                  
  21262017.680   111732656.845                          47.500                  
  21262020.460    87064407.493                          40.250                  
  20585645.884   108178302.309                          51.500                  
  20585653.204    84294780.619                          52.000                  
  22500635.650   118241640.195                          47.000                  
  22500640.990    92136343.464                          46.000                  
  23416374.864   123053875.784                          42.000                  
  23416379.704    95886136.119                          28.500                  
  24809672.356   130375706.074                          41.000                  
  24809676.216   101591459.350                          38.750                  
 16 10  2  8 18  1.0000000  0  8G16G18G20G21G26G27G29G31
  20786831.182   109235535.191                          49.750                  
  20786833.722    85118598.451                          40.000                  
  23099477.186   121388575.912                          44.500                  
  23099481.586    94588500.581                          27.000                  
  22181773.034   116566002.349                          46.750                  
  22181775.474    90830650.762                          32.250                  
  21262153.780   111733372.914                          48.000                  
  21262156.540    87064965.469                          40.000                  
  20585774.744   108178979.384                          51.250                  
  20585781.864    84295308.209                          52.250                  
  22500094.390   118238796.704                          46.750                  
  22500099.790    92134127.758                          46.250                  
  23416970.564   123057007.359                          42.000                  
  23416975.304    95888576.301                          29.250                  
  24810344.936   130379243.278                          40.750                  
  24810349.276   101594215.611                          38.500                  
 16 10  2  8 18  2.0000000  0  8G16G18G20G21G26G27G29G31
  20786576.542   109234197.576                          49.500                  
  20786579.122    85117556.152                          40.000                  
  23098979.246   121385959.779                          44.000                  
  23098983.086    94586462.020                          27.500                  
  22181784.474   116566062.974                          47.000                  
  22181787.014    90830698.002                          32.250                  
  21262290.020   111734089.102                          48.000                  
  21262292.520    87065523.533                          40.500                  
  20585904.384   108179656.760                          51.000                  
  20585910.924    84295836.029                          52.000                  
  22499553.350   118235953.104                          46.250                  
  22499558.850    92131911.970                          46.000                  
  23417566.764   123060138.767                          42.500                  
  23417571.044    95891016.357                          28.500                  
  24811017.896   130382780.174                          40.750                  
  24811022.576   101596971.638                          38.000                  
 16 10  2  8 18  3.0000000  0  8G16G18G20G21G26G27G29G31
  20786322.062   109232860.412                          49.000                  
  20786324.662    85116514.205                          40.000                  
  23098481.606   121383343.849                          43.750                  
  23098485.726    94584423.635                          27.000                  
  22181796.034   116566124.180                          47.250                  
  22181798.634    90830745.700                          32.250                  
  21262426.540   111734805.629                          47.750                  
  21262428.920    87066081.872                          40.000                  
  20586033.324   108180334.657                          51.500                  
  20586039.724    84296364.259                          52.250                  
  22499012.350   118233109.633                          46.250                  
  22499017.630    92129696.277                          46.000                  
  23418162.804   123063270.166                          42.000                  
  23418167.124    95893456.396                          28.500                  
  24811690.216   130386316.952                          40.750                  
  24811694.996   101599727.571                          38.500                  
 16 10  2  8 18  4.0000000  0  8G16G18G20G21G26G27G29G31
  20786067.682   109231523.833                          48.750                  
  20786070.362    85115472.715                          40.000                  
  23097983.566   121380728.252                          43.250                  
  23097987.966    94582385.520                          27.750                  
  22181807.694   116566186.068                          47.000                  
  22181810.374    90830793.927                          31.750                  
  21262563.280   111735522.639                          47.750                  
  21262565.600    87066640.581                          40.250                  
  20586162.304   108181013.193                          51.500                  
  20586169.104    84296892.992                          52.000                  
  22498470.770   118230266.370                          46.500                  
  22498476.390    92127480.747                          46.000                  
  23418759.044   123066401.742                          42.750                  
  23418763.244    95895896.572                          29.000                  
  24812363.836   130389853.822                          39.750                  
  24812368.816   101602483.576                          38.000                  
 16 10  2  8 18  5.0000000  0  8G16G18G20G21G26G27G29G31
  20785813.562   109230187.853                          48.250                  
  20785816.022    85114431.696                          39.750                  
  23097486.246   121378112.965                          43.500                  
  23097490.506    94580347.638                          26.750                  
  22181819.734   116566248.692                          46.500                  
  22181822.594    90830842.719                          32.500                  
  21262699.340   111736240.083                          47.750                  
  21262702.000    87067199.624                          40.500                  
  20586291.424   108181692.364                          51.500                  
  20586298.464    84297422.216                          52.250                  
  22497930.230   118227423.364                          46.500                  
  22497935.310    92125265.422                          46.250                  
  23419354.344   123069533.454                          42.500                  
  23419359.224    95898336.878                          29.000                  
  24813036.616   130393390.666                          40.250                  
  24813041.136   101605239.560                          38.500                  
 16 10  2  8 18  6.0000000  0  8G16G18G20G21G26G27G29G31
  20785559.222   109228852.383                          48.500                  
  20785562.322    85113391.068                          40.000                  
  23096988.386   121375497.965                          43.750                  
  23096992.506    94578309.984                          27.250                  
  22181832.074   116566311.960                          46.750                  
  22181834.494    90830892.021                          32.250                  
  21262836.360   111736957.986                          47.750                  
  21262838.720    87067759.032                          40.250                  
  20586420.884   108182372.129                          51.500                  
  20586427.604    84297951.907                          52.250                  
  22497389.170   118224580.558                          46.500                  
  22497394.350    92123050.251                          45.750                  
  23419950.964   123072665.281                          42.500                  
  23419955.164    95900777.275                          28.500                  
  24813709.776   130396927.568                          40.000                  
  24813713.956   101607995.581                          39.000                  
 16 10  2  8 18  7.0000000  0  8G16G18G20G21G26G27G29G31
  20785305.662   109227517.985                          49.250                  
  20785308.302    85112351.273                          39.750                  
  23096491.566   121372883.745                          44.000                  
  23096495.206    94576272.931                          27.250                  
  22181844.174   116566376.424                          46.500                  
  22181846.574    90830942.252                          32.250                  
  21262972.800   111737676.809                          47.750                  
  21262975.640    87068319.154                          40.250                  
  20586550.124   108183053.024                          51.750                  
  20586556.944    84298482.477                          52.000                  
  22496848.230   118221738.488                          46.000                  
  22496853.390    92120835.646                          45.750                  
  23420546.284   123075797.748                          42.500                  
  23420551.224    95903218.156                          29.500                  
  24814383.156   130400464.945                          39.250                  
  24814387.676   101610751.971                          39.000                  
 16 10  2  8 18  8.0000000  0  8G16G18G20G21G26G27G29G31
  20785051.622   109226183.831                          49.250                  
  20785054.302    85111311.675                          40.000                  
  23095993.006   121370269.507                          44.250                  
  23095997.666    94574235.857                          26.750                  
  22181856.654   116566441.232                          46.500                  
  22181859.554    90830992.756                          32.500                  
  21263109.500   111738395.756                          47.750                  
  21263112.300    87068879.372                          40.500                  
  20586679.844   108183734.208                          51.500                  
  20586686.464    84299013.263                          52.000                  
  22496307.950   118218896.294                          46.000                  
  22496312.890    92118620.952                          46.000                  
  23421142.244   123078930.009                          42.500                  
  23421147.464    95905658.879                          28.750                  
  24815055.916   130404002.020                          39.750                  
  24815060.376   101613508.123                          38.500                  
 16 10  2  8 18  9.0000000  0  8G16G18G20G21G26G27G29G31
  20784797.702   109224849.762                          49.250                  
  20784800.402    85110272.136                          40.000                  
  23095496.666   121367655.108                          44.500                  
  23095500.346    94572198.663                          27.500                  
  22181869.114   116566506.255                          47.000                  
  22181871.494    90831043.417                          32.500                  
  21263246.460   111739114.684                          48.000                  
  21263249.020    87069439.576                          40.750                  
  20586809.924   108184415.534                          51.500                  
  20586816.564    84299544.167                          52.500                  
  22495766.450   118216053.843                          46.000                  
  22495771.750    92116406.053                          46.000                  
  23421738.004   123082061.929                          42.500                  
  23421742.864    95908099.336                          29.000                  
  24815728.816   130407538.654                          40.000                  
  24815733.616   101616263.927                          38.500                  
 16 10  2  8 18 10.0000000  0  8G16G18G20G21G26G27G29G31
  20784543.942   109223517.563                          49.250                  
  20784546.542    85109234.061                          39.750                  
  23094999.186   121365042.334                          44.750                  
  23095002.826    94570162.739                          26.500                  
  22181881.514   116566573.320                          46.750                  
  22181884.214    90831095.671                          32.500                  
  21263383.740   111739835.402                          47.750                  
  21263386.260    87070001.170                          40.500                  
  20586939.544   108185098.836                          51.750                  
  20586946.484    84300076.611                          52.500                  
  22495225.730   118213212.955                          45.750                  
  22495230.950    92114192.376                          46.000                  
  23422334.804   123085195.320                          42.500                  
  23422339.424    95910540.937                          28.000                  
  24816403.116   130411076.593                          40.750                  
  24816406.616   101619020.749                          38.500                  
 16 10  2  8 18 11.0000000  0  8G16G18G20G21G26G27G29G31
  20784290.482   109222184.536                          49.250                  
  20784293.082    85108195.339                          39.750                  
  23094501.406   121362428.463                          44.500                  
  23094505.766    94568125.959                          26.750                  
  22181893.874   116566639.628                          47.000                  
  22181896.954    90831147.344                          32.250                  
  21263520.580   111740555.134                          47.750                  
  21263523.420    87070561.998                          40.500                  
  20587069.504   108185781.326                          51.750                  
  20587076.284    84300608.422                          52.000                  
  22494685.370   118210370.840                          46.500                  
  22494690.170    92111977.741                          46.000                  
  23422930.224   123088327.415                          42.500                  
  23422935.644    95912981.527                          28.250                  
  24817076.296   130414613.153                          41.250                  
  24817080.216   101621776.508                          38.250                  
 16 10  2  8 18 12.0000000  0  8G16G18G20G21G26G27G29G31
  20784036.882   109220852.692                          48.750                  
  20784039.762    85107157.543                          40.000                  
  23094004.746   121359815.505                          44.500                  
  23094008.346    94566089.891                          26.750                  
  22181906.794   116566707.249                          47.000                  
  22181909.534    90831200.034                          32.250                  
  21263657.760   111741275.923                          48.000                  
  21263660.440    87071123.651                          40.500                  
  20587199.844   108186465.063                          51.500                  
  20587206.364    84301141.203                          51.500                  
  22494144.330   118207529.587                          46.750                  
  22494149.550    92109763.779                          46.000                  
  23423527.044   123091460.284                          42.500                  
  23423531.724    95915422.715                          29.250                  
  24817748.636   130418150.333                          41.000                  
  24817753.236   101624532.758                          37.750                  
 16 10  2  8 18 13.0000000  0  8G16G18G20G21G26G27G29G31
  20783783.562   109219521.101                          48.750                  
  20783786.242    85106119.937                          40.000                  
  23093507.386   121357202.546                          45.000                  
  23093511.166    94564053.821                          26.500                  
  22181920.114   116566775.265                          47.000                  
  22181922.814    90831253.036                          32.500                  
  21263794.760   111741996.893                          47.500                  
  21263797.680    87071685.448                          40.250                  
  20587330.104   108187149.122                          51.500                  
  20587336.484    84301674.233                          52.000                  
  22493603.990   118204688.250                          46.500                  
  22493608.670    92107549.750                          46.500                  
  23424122.804   123094592.965                          42.000                  
  23424128.144    95917863.768                          29.000                  
  24818421.716   130421687.245                          40.750                  
  24818425.696   101627288.800                          38.000                  
 16 10  2  8 18 14.0000000  0  8G16G18G20G21G26G27G29G31
  20783530.582   109218190.047                          49.000                  
  20783532.922    85105082.748                          40.250                  
  23093009.826   121354589.868                          45.000                  
  23093013.786    94562017.963                          25.500                  
  22181933.314   116566843.935                          47.000                  
  22181935.994    90831306.545                          31.750                  
  21263932.060   111742718.238                          47.250                  
  21263934.640    87072247.533                          40.500                  
  20587460.444   108187833.761                          51.500                  
  20587467.004    84302207.722                          52.000                  
  22493063.330   118201847.107                          46.500                  
  22493068.170    92105335.869                          46.500                  
  23424718.884   123097725.755                          42.000                  
  23424724.144    95920304.900                          29.500                  
  24819095.356   130425224.152                          41.250                  
  24819098.836   101630044.837                          38.250                  
 16 10  2  8 18 15.0000000  0  7G16G18G20G21G26G27G29
  20783277.282   109216859.893                          49.500                  
  20783280.122    85104046.270                          40.000                  
  23092513.026   121351977.814                          44.750                  
  23092516.986    94559982.591                          26.500                  
  22181946.074   116566913.620                          46.250                  
  22181949.334    90831360.847                          31.500                  
  21264069.880   111743440.375                          47.500                  
  21264072.120    87072810.235                          40.500                  
  20587590.484   108188519.375                          51.250                  
  20587597.284    84302741.961                          52.000                  
  22492522.690   118199006.508                          46.000                  
  22492527.870    92103122.419                          46.500                  
  23425314.864   123100859.004                          41.500                  
  23425320.344    95922746.387                          28.500                  
 16 10  2  8 18 16.0000000  0  7G16G18G20G21G26G27G29
  20783024.242   109215530.513                          49.250                  
  20783026.902    85103010.388                          40.250                  
  23092015.986   121349366.300                          44.250                  
  23092020.086    94557947.643                          26.000                  
  22181959.294   116566984.206                          46.500                  
  22181962.374    90831415.846                          32.750                  
  21264207.120   111744163.186                          47.750                  
  21264210.000    87073373.463                          40.750                  
  20587721.204   108189205.814                          51.500                  
  20587727.744    84303276.850                          52.250                  
  22491982.150   118196166.348                          45.750                  
  22491987.270    92100909.307                          46.250                  
  23425911.544   123103992.600                          41.250                  
  23425916.924    95925188.146                          29.000                  
 16 10  2  8 18 17.0000000  0  7G16G18G20G21G26G27G29
  20782771.202   109214201.210                          49.500                  
  20782774.142    85101974.570                          40.250                  
  23091518.486   121346754.611                          43.750                  
  23091522.926    94555912.561                          26.000                  
  22181973.294   116567055.009                          46.500                  
  22181975.934    90831471.022                          32.000                  
  21264344.400   111744885.953                          48.000                  
  21264347.280    87073936.658                          40.500                  
  20587851.844   108189892.390                          51.250                  
  20587858.504    84303811.846                          52.500                  
  22491441.750   118193325.941                          46.000                  
  22491446.990    92098696.009                          46.000                  
  23426507.684   123107125.860                          41.500                  
  23426513.224    95927629.649                          27.750                  
 16 10  2  8 18 18.0000000  0  7G16G18G20G21G26G27G29
  20782518.502   109212872.240                          49.500                  
  20782520.982    85100939.005                          40.500                  
  23091021.986   121344142.960                          43.500                  
  23091026.186    94553877.511                          26.500                  
  22181986.934   116567126.244                          46.250                  
  22181989.474    90831526.526                          32.500                  
  21264482.380   111745608.939                          48.000                  
  21264484.840    87074500.031                          40.250                  
  20587982.744   108190579.359                          51.000                  
  20587989.224    84304347.147                          52.250                  
  22490901.570   118190485.499                          46.250                  
  22490906.230    92096482.678                          46.250                  
  23427104.284   123110258.993                          41.750                  
  23427109.004    95930071.056                          28.500                  
 16 10  2  8 18 19.0000000  0  7G16G18G20G21G26G27G29
  20782265.662   109211544.682                          49.250                  
  20782268.342    85099904.546                          40.250                  
  23090525.166   121341532.477                          43.000                  
  23090529.526    94551843.370                          26.500                  
  22182000.714   116567199.042                          46.250                  
  22182003.734    90831583.255                          32.750                  
  21264619.960   111746333.237                          47.750                  
  21264622.440    87075064.420                          40.500                  
  20588113.624   108191267.811                          51.000                  
  20588120.144    84304883.599                          52.500                  
  22490360.930   118187646.164                          46.250                  
  22490365.870    92094270.209                          46.000                  
  23427700.484   123113393.141                          41.500                  
  23427705.564    95932513.245                          29.000                  
 16 10  2  8 18 20.0000000  0  7G16G18G20G21G26G27G29
  20782013.142   109210216.579                          49.250                  
  20782015.702    85098869.661                          40.750                  
  23090028.186   121338921.176                          43.000                  
  23090032.326    94549808.594                          25.250                  
  22182014.394   116567271.388                          46.750                  
  22182016.954    90831639.625                          31.500                  
  21264757.980   111747056.837                          48.000                  
  21264760.500    87075628.260                          40.250                  
  20588244.444   108191955.753                          51.000                  
  20588251.464    84305419.662                          52.500                  
  22489820.270   118184805.889                          46.750                  
  22489825.550    92092057.007                          45.750                  
  23428296.624   123116526.291                          41.250                  
  23428301.844    95934954.652                          29.500                  
 16 10  2  8 18 21.0000000  0  7G16G18G20G21G26G27G29
  20781760.982   109208890.001                          49.250                  
  20781763.802    85097835.961                          40.500                  
  23089531.386   121336311.152                          42.500                  
  23089535.466    94547774.818                          27.000                  
  22182028.414   116567345.413                          46.500                  
  22182031.034    90831697.307                          31.750                  
  21264895.760   111747781.880                          47.750                  
  21264898.320    87076193.232                          40.000                  
  20588375.724   108192645.295                          50.750                  
  20588382.264    84305956.965                          52.500                  
  22489279.770   118181966.824                          46.250                  
  22489285.110    92089844.752                          45.750                  
  23428893.344   123119660.543                          41.250                  
  23428898.024    95937396.925                          28.500                  
 16 10  2  8 18 22.0000000  0  7G16G18G20G21G26G27G29
  20781508.562   109207563.693                          49.500                  
  20781510.662    85096802.480                          40.500                  
  23089035.306   121333701.113                          43.000                  
  23089038.786    94545741.027                          26.750                  
  22182042.494   116567419.798                          46.500                  
  22182044.954    90831755.267                          32.500                  
  21265033.660   111748507.049                          47.500                  
  21265036.160    87076758.297                          40.250                  
  20588507.004   108193335.150                          51.250                  
  20588513.724    84306494.515                          52.750                  
  22488739.830   118179127.691                          46.500                  
  22488744.610    92087632.436                          45.750                  
  23429489.784   123122794.649                          41.500                  
  23429494.804    95939839.079                          29.250                  
 16 10  2  8 18 23.0000000  0  7G16G18G20G21G26G27G29
  20781255.802   109206237.296                          49.250                  
  20781258.442    85095768.918                          40.250                  
  23088538.766   121331090.771                          42.750                  
  23088542.246    94543706.982                          26.750                  
  22182056.334   116567494.246                          45.750                  
  22182059.674    90831813.281                          32.250                  
  21265171.620   111749232.041                          47.750                  
  21265174.660    87077323.226                          40.000                  
  20588638.644   108194025.002                          51.250                  
  20588644.924    84307032.058                          52.500                  
  22488200.030   118176288.117                          46.500                  
  22488204.430    92085419.781                          46.250                  
  23430085.684   123125928.219                          41.500                  
  23430090.984    95942280.820                          29.500                  
 16 10  2  8 18 24.0000000  0  7G16G18G20G21G26G27G29
  20781003.602   109204912.002                          49.250                  
  20781006.402    85094736.224                          40.000                  
  23088041.566   121328481.252                          42.250                  
  23088045.406    94541673.586                          27.000                  
  22182071.014   116567569.919                          46.000                  
  22182073.734    90831872.248                          32.250                  
  21265309.760   111749958.003                          47.750                  
  21265312.700    87077888.911                          40.250                  
  20588769.904   108194716.008                          51.500                  
  20588776.624    84307570.510                          52.500                  
  22487659.910   118173449.313                          46.500                  
  22487664.230    92083207.726                          46.000                  
  23430682.504   123129062.469                          42.000                  
  23430687.684    95944723.095                          29.250                  
 16 10  2  8 18 25.0000000  0  7G16G18G20G21G26G27G29
  20780751.742   109203587.378                          49.000                  
  20780754.262    85093704.051                          40.000                  
  23087545.326   121325872.143                          42.500                  
  23087549.526    94539640.520                          26.000                  
  22182085.554   116567646.374                          46.500                  
  22182088.354    90831931.824                          31.750                  
  21265448.400   111750684.528                          47.500                  
  21265450.820    87078455.030                          40.750                  
  20588901.504   108195407.747                          51.000                  
  20588908.304    84308109.525                          53.000                  
  22487118.490   118170610.845                          46.500                  
  22487123.850    92080995.932                          46.500                  
  23431279.164   123132196.961                          42.500                  
  23431283.724    95947165.552                          29.000                  
 16 10  2  8 18 26.0000000  0  7G16G18G20G21G26G27G29
  20780499.842   109202263.582                          48.750                  
  20780502.402    85092672.522                          40.250                  
  23087048.926   121323263.575                          42.500                  
  23087052.466    94537607.872                          25.500                  
  22182100.274   116567723.789                          46.500                  
  22182103.194    90831992.151                          31.750                  
  21265586.300   111751411.743                          48.000                  
  21265589.600    87079021.695                          40.500                  
  20589033.104   108196100.371                          51.000                  
  20589039.564    84308649.232                          52.500                  
  22486578.990   118167772.837                          46.250                  
  22486583.990    92078784.497                          47.000                  
  23431875.844   123135331.834                          42.500                  
  23431880.444    95949608.310                          28.500                  
 16 10  2  8 18 27.0000000  0  7G16G18G20G21G26G27G29
  20780247.962   109200940.275                          49.000                  
  20780250.882    85091641.374                          39.750                  
  23086552.146   121320655.251                          42.750                  
  23086555.486    94535575.416                          25.750                  
  22182115.434   116567801.813                          46.750                  
  22182118.014    90832052.943                          32.000                  
  21265724.660   111752139.353                          47.750                  
  21265727.480    87079588.662                          40.500                  
  20589164.864   108196793.515                          51.000                  
  20589171.484    84309189.347                          52.500                  
  22486038.930   118164934.994                          46.250                  
  22486044.210    92076573.198                          47.000                  
  23432472.084   123138466.770                          42.750                  
  23432477.144    95952051.112                          28.750                  
 16 10  2  8 18 28.0000000  0  7G16G18G20G21G26G27G29
  20779995.982   109199616.421                          49.500                  
  20779998.742    85090609.801                          40.250                  
  23086056.306   121318046.157                          43.000                  
  23086059.746    94533542.376                          27.000                  
  22182130.214   116567879.430                          47.250                  
  22182132.754    90832113.428                          32.000                  
  21265863.100   111752866.313                          47.750                  
  21265865.880    87080155.125                          40.500                  
  20589296.904   108197486.208                          51.000                  
  20589303.744    84309729.107                          52.750                  
  22485498.730   118162096.253                          46.500                  
  22485503.830    92074361.200                          46.500                  
  23433068.604   123141600.745                          42.750                  
  23433073.464    95954493.168                          28.000                  
 16 10  2  8 18 29.0000000  0  7G16G18G20G21G26G27G29
  20779744.022   109198294.475                          49.500                  
  20779746.602    85089579.715                          40.000                  
  23085560.206   121315438.682                          43.500                  
  23085563.406    94531510.592                          25.500                  
  22182145.214   116567959.083                          46.500                  
  22182147.714    90832175.495                          32.500                  
  21266002.060   111753595.055                          48.000                  
  21266004.620    87080722.973                          40.000                  
  20589429.364   108198180.844                          50.500                  
  20589435.684    84310270.376                          53.000                  
  22484958.770   118159259.080                          47.000                  
  22484963.630    92072150.418                          46.000                  
  23433664.844   123144736.196                          42.250                  
  23433670.344    95956936.380                          28.000                  
 16 10  2  8 18 30.0000000  0  7G16G18G20G21G26G27G29
  20779492.822   109196972.469                          49.750                  
  20779495.442    85088549.582                          39.750                  
  23085063.906   121312830.910                          43.750                  
  23085067.106    94529478.560                          26.750                  
  22182159.974   116568038.762                          46.250                  
  22182163.114    90832237.581                          32.000                  
  21266140.480   111754323.606                          47.500                  
  21266143.640    87081290.677                          40.250                  
  20589561.504   108198875.481                          51.000                  
  20589567.804    84310811.652                          52.750                  
  22484418.852   118156421.506                          46.500                  
  22484423.632    92069939.317                          46.000                  
  23434261.524   123147871.114                          42.000                  
  23434266.764    95959379.171                          27.750                  
 16 10  2  8 18 31.0000000  0  7G16G18G20G21G26G27G29
  20779241.202   109195651.263                          50.000                  
  20779244.062    85087520.068                          39.500                  
  23084567.986   121310223.640                          44.000                  
  23084571.066    94527446.919                          26.500                  
  22182175.674   116568119.385                          46.500                  
  22182178.514    90832300.400                          32.250                  
  21266279.340   111755052.834                          48.000                  
  21266282.100    87081858.903                          40.500                  
  20589693.664   108199570.983                          51.000                  
  20589699.904    84311353.605                          52.500                  
  22483878.972   118153584.380                          46.500                  
  22483883.972    92067728.566                          45.500                  
  23434857.684   123151006.439                          41.750                  
  23434863.024    95961822.282                          28.000                  
 16 10  2  8 18 32.0000000  0  7G16G18G20G21G26G27G29
  20778989.662   109194330.239                          49.500                  
  20778992.522    85086490.700                          39.500                  
  23084071.306   121307616.307                          43.500                  
  23084074.826    94525415.222                          27.500                  
  22182191.054   116568200.315                          46.250                  
  22182193.914    90832363.464                          33.000                  
  21266418.180   111755782.135                          48.250                  
  21266420.780    87082427.188                          40.250                  
  20589825.944   108200266.854                          50.500                  
  20589832.964    84311895.841                          52.250                  
  22483339.072   118150747.100                          46.250                  
  22483343.952    92065517.694                          45.750                  
  23435453.884   123154141.501                          42.000                  
  23435459.504    95964265.181                          28.250                  
 16 10  2  8 18 33.0000000  0  7G16G18G20G21G26G27G29
  20778738.802   109193009.969                          49.500                  
  20778741.542    85085461.921                          39.500                  
  23083575.348   121305009.484                          44.000                  
  23083579.028    94523383.923                          27.250                  
  22182206.674   116568282.126                          47.000                  
  22182209.654    90832427.211                          32.500                  
  21266557.060   111756512.057                          48.000                  
  21266559.900    87082995.962                          40.000                  
  20589958.344   108200963.407                          50.750                  
  20589964.844    84312438.611                          52.500                  
  22482798.592   118147910.211                          46.500                  
  22482804.592    92063307.133                          46.000                  
  23436050.884   123157276.891                          42.750                  
  23436056.144    95966708.345                          27.750                  
 16 10  2  8 18 34.0000000  0  7G16G18G20G21G26G27G29
  20778487.242   109191690.194                          49.250                  
  20778490.362    85084433.520                          39.500                  
  23083078.868   121302402.907                          44.000                  
  23083082.808    94521352.823                          27.500                  
  22182222.134   116568364.564                          46.750                  
  22182225.494    90832491.455                          32.500                  
  21266696.160   111757242.389                          47.750                  
  21266699.000    87083565.047                          40.000                  
  20590090.924   108201660.527                          51.000                  
  20590098.084    84312981.817                          52.250                  
  22482259.432   118145073.514                          46.250                  
  22482264.232    92061096.730                          45.750                  
  23436648.064   123160412.371                          42.750                  
  23436652.944    95969151.578                          29.250                  
