     2.10           OBSERVATION DATA    M (MIXED)           RINEX VERSION / TYPE
RTKCONV-QT 2.4.3 b15                    20161002 105942 UTC PGM / RUN BY / DATE 
log: /home/max/rtklib_logs/rover_201610020835_bordstein.ub  COMMENT             
format: u-blox                                              COMMENT             
                                                            MARKER NAME         
                                                            MARKER NUMBER       
                                                            OBSERVER / AGENCY   
                                                            REC # / TYPE / VERS 
                                                            ANT # / TYPE        
  3902517.8753   520357.1635  5001309.1877                  APPROX POSITION XYZ 
        0.0000        0.0000        0.0000                  ANTENNA: DELTA H/E/N
     1     1                                                WAVELENGTH FACT L1/2
     4    C1    L1    D1    S1                              # / TYPES OF OBSERV 
  2016    10     2     8    35    9.9870000     GPS         TIME OF FIRST OBS   
  2016    10     2     8    36   54.9870000     GPS         TIME OF LAST OBS    
                                                            END OF HEADER       
 16 10  2  8 35  9.9870000  0  9G26G21G16G20G29G27G18G 7G 8
  16901587.179    88818461.549           6.854          41.000  
  17566907.840    92314728.634         163.893          41.000  
  16704339.508    87781918.641        2047.908          40.000  
  18383559.223    96606270.509         554.481          40.000  
  20163326.757   105959005.886       -1933.559          33.000  
  18087649.743    95051237.629        3914.211          39.000  
  18741578.926    98487648.240        3576.855          39.000  
  21084829.028                        3726.438          22.000  
  21549629.181                        4652.125          20.000  
 16 10  2  8 35 10.9870000  0  9G26G21G16G20G29G27G18G 7G 8
  16901586.067    88818455.111           6.012          41.000  
  17566876.827    92314565.222         163.013          41.000  
  16703949.739    87779871.363        2046.980          40.000  
  18383453.793    96605716.789         553.278          41.000  
  20163694.599   105960939.134       -1933.292          33.000  
  18086905.062    95047323.806        3913.512          39.000  
  18740898.187    98484071.484        3576.471          39.000  
  21084123.133                        3722.122          22.000  
  21548745.295                        4649.464          21.000  
 16 10  2  8 35 11.9870000  0  9G26G21G16G20G29G27G18G 7G 8
  16901584.602    88818449.335           5.505          41.000  
  17566845.818    92314402.248         162.841          41.000  
  16703560.189    87777824.747        2046.312          40.000  
  18383348.755    96605163.776         552.822          41.000  
  20164062.683   105962872.550       -1933.344          33.000  
  18086160.104    95043410.279        3913.290          39.000  
  18740217.602    98480495.165        3576.332          39.000  
  21083419.231                        3721.428          22.000  
  21547858.639                        4651.828          21.000  
 16 10  2  8 35 12.9870000  0  9G26G21G16G20G29G27G18G 7G 8
  16901583.811    88818444.174           4.626          41.000  
  17566815.456    92314239.670         162.819          41.000  
  16703170.780    87775778.762        2045.430          40.000  
  18383243.380    96604611.456         552.030          41.000  
  20164430.824   105964806.066       -1933.474          33.000  
  18085415.675    95039497.010        3913.330          39.000  
  18739537.026    98476919.259        3575.475          39.000  
  21082713.144                        3715.762          23.000  
  21546973.531                        4645.616          23.000  
 16 10  2  8 35 13.9870000  0 11G26G21G16G20G29G10G27G18G 7G 8G 5
  16901582.936    88818439.710           4.163          38.000  
  17566784.659    92314077.661         161.821          38.000  
  16702781.721    87773733.511        2044.495          36.000  
  18383138.505    96604059.919         551.231          38.000  
  20164798.920   105966739.782       -1933.394          30.000  
  20706160.132                        5026.366          22.000  
  18084671.184    95035584.169        3912.124          36.000  
  18738856.847    98473343.843        3575.115          36.000  
  21082005.924                        3719.482          23.000  
  21546089.373                        4650.926          23.000  
  21695203.990                       -1800.862          23.000  
 16 10  2  8 35 14.9870000  0 11G26G21G16G20G29G10G27G18G 7G 8G 5
  16901582.118    88818436.309           2.484          38.000  
  17566754.111    92313916.445         160.602          39.000  
  16702392.699    87771689.286        2043.292          37.000  
  18383033.507    96603509.515         549.770          37.000  
  20165167.347   105968674.093       -1935.306          30.000  
  20705202.095                        5032.739          21.000  
  18083926.494    95031671.948        3911.965          36.000  
  18738176.232    98469769.241        3574.322          36.000  
  21081300.363                        3721.388          22.000  
  21545205.882                        4643.340          22.000  
  21695548.115                       -1800.862          23.000  
 16 10  2  8 35 15.9870000  0 10G26G21G16G20G29G27G18G 7G 8G 5
  16901581.519    88818434.069           2.161          38.000  
  17566723.523    92313756.185         160.588          39.000  
  16702003.976    87769646.245        2043.053          37.000  
  18382929.501    96602960.321         549.025          38.000  
  20165535.588   105970608.975       -1934.714          30.000  
  18083182.398    95027760.622        3911.169          36.000  
  18737496.200    98466195.619        3573.674          36.000  
  21080593.923                        3720.265          22.000  
  21544321.687                        4645.979          20.000  
  21695887.830                       -1800.862          21.000  
 16 10  2  8 35 16.9870000  0  9G26G21G16G20G29G27G18G 7G 8
  16901581.246    88818432.185           1.587          40.000  
  17566693.191    92313596.147         159.296          40.000  
  16701615.508    87767603.608        2042.029          39.000  
  18382825.069    96602411.586         548.090          39.000  
  20165907.463   105972543.837       -1936.157          32.000  
  18082438.337    95023849.272        3911.239          37.000  
  18736816.377    98462622.135        3573.225          39.000  
  21079887.622                        3724.814          22.000  
  21543437.028                        4652.777          22.000  
 16 10  2  8 35 17.9870000  0  9G26G21G16G20G29G27G18G 7G 8
  16901581.227    88818431.003           1.025          40.000  
  17566662.784    92313436.529         159.457          40.000  
  16701227.140    87765561.673        2041.286          39.000  
  18382720.715    96601863.570         547.859          40.000  
  20166271.518   105974478.727       -1935.223          32.000  
  18081693.910    95019938.263        3911.110          37.000  
  18736136.408    98459049.125        3573.091          38.000  
  21079182.700                        3722.828          23.000  
  21542552.883                        4647.131          23.000  
 16 10  2  8 35 18.9870000  0 10G26G21G16G20G29G27G18G 7G 8G 5
  16901580.928    88818430.219           0.714          38.000  
  17566632.387    92313277.124         159.408          39.000  
  16700838.519    87763520.112        2041.324          37.000  
  18382616.632    96601316.055         547.689          38.000  
  20166638.646   105976413.616       -1935.051          30.000  
  18080949.788    95016027.326        3911.518          36.000  
  18735456.455    98455476.306        3572.800          37.000  
  21078475.551                        3718.925          23.000  
  21541669.606                        4650.654          23.000  
  21696908.906                       -1795.247          23.000  
 16 10  2  8 35 19.9870000  0 10G26G21G16G20G29G27G18G 7G 8G 5
  16901580.968    88818429.657           0.671          39.000  
  17566602.016    92313117.733         159.916          39.000  
  16700450.078    87761478.806        2041.161          37.000  
  18382512.609    96600768.805         547.000          38.000  
  20167004.924   105978348.192       -1934.496          30.000  
  18080205.494    95012116.270        3911.563          36.000  
  18734776.872    98451903.483        3573.307          37.000  
  21077766.439                        3712.377          23.000  
  21540785.643                        4649.685          23.000  
  21697251.366                       -1795.247          23.000  
 16 10  2  8 35 20.9870000  0 10G26G21G16G20G29G27G18G 7G 8G 5
  16901580.979    88818429.701          -0.232          40.000  
  17566571.884    92312958.764         158.638          40.000  
  16700061.803    87759438.121        2040.354          39.000  
  18382408.450    96600222.262         546.053          39.000  
  20167378.880   105980282.935       -1936.474          30.000  
  18079461.382    95008205.510        3910.031          38.000  
  18734096.717    98448331.107        3571.813          38.000  
  21077058.998                        3722.712          23.000  
  21539903.652                        4653.408          22.000  
  21697595.234                       -1795.247          25.000  
 16 10  2  8 35 21.9870000  0  9G26G21G16G20G29G27G18G 7G 8
  16901581.173    88818430.215          -0.775          40.000  
  17566541.742    92312800.063         158.212          39.000  
  16699673.480    87757397.904        2039.773          39.000  
  18382304.255    96599676.225         545.618          39.000  
  20167747.557   105982217.518       -1935.339          30.000  
  18078717.154    95004294.831        3910.416          38.000  
  18733416.847    98444758.922        3571.810          38.000  
  21076350.171                        3713.528          22.000  
  21539017.822                        4648.676          21.000  
 16 10  2  8 35 22.9870000  0  8G26G21G16G20G29G27G18G 7
  16901581.485    88818431.366          -0.848          40.000  
  17566511.585    92312641.765         158.385          40.000  
  16699285.132    87755358.347        2039.689          39.000  
  18382200.556    96599130.916         545.496          40.000  
  20168111.408   105984152.230       -1933.877          31.000  
  18077973.030    95000384.442        3911.057          38.000  
  18732737.347    98441187.173        3572.033          38.000  
  21075644.100                        3708.407          23.000  
 16 10  2  8 35 23.9870000  0  9G26G21G16G20G29G27G18G 7G 8
  16901581.957    88818433.016          -2.173          40.000  
  17566481.243    92312483.765         157.462          40.000  
  16698897.326    87753319.292        2038.140          39.000  
  18382097.058    96598586.148         544.175          40.000  
  20168480.712   105986087.027       -1935.028          31.000  
  18077229.031    94996474.261        3909.412          38.000  
  18732057.935    98437615.717        3570.973          38.000  
  21074935.909                        3715.300          23.000  
  21537251.076                        4641.427          21.000  
 16 10  2  8 35 24.9870000  0 10G26G21G16G20G29G10G27G18G 7G 8
  16901582.085    88818435.231          -2.087          38.000  
  17566451.173    92312326.115         158.265          38.000  
  16698509.527    87751280.806        2038.497          37.000  
  18381993.654    96598042.042         544.196          37.000  
  20168848.164   105988021.884       -1935.314          29.000  
  20695651.591                        5020.751          18.000  
  18076485.142    94992564.267        3909.779          36.000  
  18731378.178    98434044.610        3571.803          36.000  
  21074230.023                        3713.300          21.000  
  21536365.713                        4657.043          17.000  
 16 10  2  8 35 25.9870000  0 10G26G21G16G20G29G10G27G18G 7G 8
  16901582.428    88818437.837          -2.753          39.000  
  17566421.075    92312168.719         156.968          39.000  
  16698121.678    87749242.718        2038.366          37.000  
  18381890.274    96597498.396         543.110          38.000  
  20169219.360   105989956.586       -1935.238          30.000  
  20694695.272                        5018.034          20.000  
  18075741.211    94988654.320        3909.435          36.000  
  18730698.615    98430473.724        3570.849          37.000  
  21073521.996                        3709.854          20.000  
  21535478.528                        4637.807          18.000  
 16 10  2  8 35 26.9870000  0 10G26G21G16G20G29G10G27G18G 7G 8
  16901583.269    88818441.013          -3.400          39.000  
  17566391.411    92312011.625         156.921          39.000  
  16697734.005    87747205.229        2037.676          37.000  
  18381786.873    96596955.362         542.968          38.000  
  20169585.805   105991891.310       -1935.145          30.000  
  20693739.704                        5022.552          20.000  
  18074997.301    94984744.569        3909.814          36.000  
  18730019.061    98426903.140        3570.670          37.000  
  21072815.306                        3714.573          21.000  
  21534591.768                        4645.640          19.000  
 16 10  2  8 35 27.9870000  0 10G26G21G16G20G29G10G27G18G 7G 8
  16901583.965    88818445.082          -4.541          39.000  
  17566361.470    92311855.233         156.165          39.000  
  16697346.249    87745168.655        2036.210          37.000  
  18381683.714    96596413.311         541.617          38.000  
  20169951.786   105993826.450       -1934.673          30.000  
  20692785.791                        5026.467          20.000  
  18074253.264    94980835.434        3908.601          36.000  
  18729339.746    98423333.283        3569.148          37.000  
  21072109.469                        3710.153          21.000  
  21533705.102                        4648.168          19.000  
 16 10  2  8 35 28.9870000  0 10G26G21G16G20G29G10G27G18G 7G 8
  16901584.770    88818449.559          -4.840          39.000  
  17566331.686    92311699.075         156.115          39.000  
  16696958.815    87743132.493        2035.985          37.000  
  18381580.835    96595871.735         541.390          38.000  
  20170321.131   105995761.546       -1935.286          30.000  
  20691828.688                        5021.879          20.000  
  18073509.488    94976926.330        3908.652          36.000  
  18728660.435    98419763.612        3569.562          37.000  
  21071404.033                        3713.179          21.000  
  21532820.479                        4650.431          19.000  
 16 10  2  8 35 29.9870000  0 11G26G21G16G20G29G10G27G18G31G 7G 8
  16901585.893    88818454.589          -5.566          39.000  
  17566302.036    92311543.247         155.323          39.000  
  16696571.668    87741096.892        2035.302          37.000  
  18381477.835    96595330.787         540.409          38.000  
  20170686.789   105997696.614       -1935.098          30.000  
  20690873.453                        5014.944          19.000  
  18072765.705    94973017.406        3908.884          36.000  
  18727980.882    98416194.291        3568.860          37.000  
  21630216.036                       -2193.805          11.000  
  21070695.812                        3715.252          21.000  
  21531932.258                        4646.293          19.000  
 16 10  2  8 35 30.9870000  0 10G26G21G16G20G29G27G18G31G 7G 8
  16901586.959    88818460.212          -5.780          39.000  
  17566272.489    92311387.830         154.995          39.000  
  16696184.323    87739061.915        2034.697          38.000  
  18381375.056    96594790.510         539.716          38.000  
  20171052.401   105999631.813       -1934.888          29.000  
  18072021.923    94969108.801        3908.412          36.000  
  18727301.666    98412625.347        3568.417          37.000  
  21630633.848                       -2193.805          10.000  
  21069990.379                        3711.177          22.000  
  21531045.721                        4650.763          19.000  
 16 10  2  8 35 31.9870000  0  9G26G21G16G20G29G27G18G 7G 8
  16901588.145    88818466.556          -7.007          39.000  
  17566243.065    92311232.861         154.570          39.000  
  16695797.061    87737027.641        2033.898          37.000  
  18381272.389    96594250.978         539.403          38.000  
  20171424.716                       -1937.744          29.000  
  18071277.954    94965200.535        3907.562          36.000  
  18726622.971    98409056.914        3567.302          37.000  
  21069281.853                        3716.132          22.000  
  21530158.247                        4657.917          19.000  
 16 10  2  8 35 32.9870000  0  9G26G21G16G20G29G27G18G 7G 8
  16901589.533    88818473.633          -7.434          39.000  
  17566213.655    92311078.489         153.970          39.000  
  16695410.208    87734994.120        2033.348          37.000  
  18381169.700    96593712.288         538.218          38.000  
  20171792.052   106003487.3193      -1935.094          30.000  
  18070534.389    94961292.632        3907.715          36.000  
  18725943.593    98405488.986        3567.611          37.000  
  21068574.564                        3712.477          22.000  
  21529273.502                        4639.754          18.000  
 16 10  2  8 35 33.9870000  0  9G26G21G16G20G29G27G18G 7G 8
  16901590.986    88818481.290          -7.904          39.000  
  17566184.270    92310924.453         153.986          39.000  
  16695023.217    87732961.217        2032.324          37.000  
  18381067.222    96593174.239         537.878          38.000  
  20172164.123   106005423.0372      -1935.725          29.000  
  18069790.422    94957384.990        3907.429          37.000  
  18725264.732    98401921.435        3567.317          37.000  
  21067869.010                        3712.511          22.000  
  21528387.282                        4650.899          19.000  
 16 10  2  8 35 34.9870000  0  9G26G21G16G20G29G27G18G 7G 8
  16901592.812    88818489.465          -8.417          39.000  
  17566155.109    92310770.762         153.221          39.000  
  16694636.320    87730928.797        2032.239          37.000  
  18380965.328    96592636.763         537.368          37.000  
  20172530.282   106007358.7422      -1935.577          29.000  
  18069046.525    94953477.530        3907.143          36.000  
  18724585.817    98398354.184        3566.992          37.000  
  21067162.392                        3709.780          22.000  
  21527500.682                        4650.970          19.000  
 16 10  2  8 35 35.9870000  0  9G26G21G16G20G29G27G18G 7G 8
  16901594.815    88818498.326          -9.076          39.000  
  17566126.043    92310617.505         153.114          39.000  
  16694249.922    87728897.136        2031.706          37.000  
  18380863.248    96592100.026         536.982          38.000  
  20172897.402   106009294.6072      -1935.866          29.000  
  18068302.817    94949570.390        3906.951          37.000  
  18723907.173    98394787.428        3566.533          37.000  
  21066457.612                        3706.834          23.000  
  21526616.398                        4646.435          19.000  
 16 10  2  8 35 36.9870000  0  9G26G21G16G20G29G27G18G 7G 8
  16901596.708    88818508.002          -9.668          44.000  
  17566097.334    92310464.896         152.092          43.000  
  16693863.612    87726866.251        2030.317          42.000  
  18380761.181    96591564.170         535.484          40.000  
  20173265.382   106011230.7932      -1936.431          33.000  
  18067559.593    94945663.757        3906.041          40.000  
  18723228.597    98391221.226        3565.695          41.000  
  21065749.425   110701260.2492       3706.436          30.000  
  21525734.346                        4653.252          20.000  
 16 10  2  8 35 37.9870000  0  9G26G21G16G20G29G27G18G 7G 8
  16901599.284    88818518.236         -10.687          45.000  
  17566068.239    92310312.658         152.157          44.000  
  16693477.427    87724835.955        2029.806          43.000  
  18380659.476    96591028.996         534.646          43.000  
  20173633.995   106013167.0972      -1936.547          34.000  
  18066816.266    94941757.342        3906.220          43.000  
  18722549.821    98387655.388        3565.555          42.000  
  21065043.829   110697552.3652       3707.720          35.000  
  21524851.384                        4655.681          22.000  
 16 10  2  8 35 38.9870000  0  9G26G21G16G20G29G27G18G 7G 8
  16901601.381    88818529.136         -10.657          47.000  
  17566039.262    92310160.868         152.097          46.000  
  16693091.115    87722806.339        2029.580          45.000  
  18380557.562    96590494.546         534.508          44.000  
  20174003.017   106015103.5012      -1935.988          35.000  
  18066072.899    94937851.223        3906.442          44.000  
  18721871.593    98384090.013        3565.499          44.000  
  21064334.219   110693845.1022       3707.239          34.000  
  21523969.161                        4646.857          24.000  
 16 10  2  8 35 39.9870000  0  9G26G21G16G20G29G27G18G 7G 8
  16901603.985    88818540.368         -11.438          47.000  
  17566010.485    92310009.210         151.539          46.000  
  16692705.241    87720777.063        2029.021          45.000  
  18380455.907    96589960.494         533.749          44.000  
  20174371.202   106017039.7532      -1936.312          36.000  
  18065329.769    94933945.108        3906.126          45.000  
  18721193.401    98380524.753        3565.119          45.000  
  21063629.259   110690137.9962       3707.167          35.000  
  21523089.534                        4639.901          25.000  
 16 10  2  8 35 40.9870000  0 10G26G21G16G20G29G10G27G18G 7G 8
  16901606.284    88818552.234         -11.792          47.000  
  17565981.913    92309857.994         151.152          46.000  
  16692319.077    87718748.436        2028.478          45.000  
  18380354.368    96589427.135         533.186          44.000  
  20174740.552   106018976.1072      -1935.990          36.000  
  20680363.198                        5019.140          28.000  
  18064586.745    94930039.293        3905.977          45.000  
  18720515.082    98376959.930        3564.696          45.000  
  21062928.856   110686431.4182       3706.486          36.000  
  21522207.448                        4648.958          25.000  
 16 10  2  8 35 41.9870000  0 11G26G21G16G20G29G10G27G18G31G 7G 8
  16901608.761    88818564.690         -12.640          47.000  
  17565953.315    92309707.148         150.789          46.000  
  16691932.951    87716720.427        2027.762          45.000  
  18380253.089    96588894.445         532.418          45.000  
  20175110.163   106020912.6132      -1936.631          37.000  
  20679411.172   108671038.2402       5019.121          28.000  
  18063843.640    94926133.715        3905.563          45.000  
  18719836.768    98373395.476        3564.322          45.000  
  21635459.844                       -2110.388          17.000  
  21062221.273   110682725.2992       3706.049          37.000  
  21521323.757                        4646.863          25.000  
 16 10  2  8 35 42.9870000  0 11G26G21G16G20G29G10G27G18G31G 7G 8
  16901610.773    88818577.759         -13.226          47.000  
  17565924.616    92309556.715         150.488          46.000  
  16691547.177    87714693.036        2027.081          45.000  
  18380151.614    96588362.427         531.676          44.000  
  20175475.662   106022848.6471      -1936.766          37.000  
  20678458.937   108666019.3612       5018.561          28.000  
  18063100.538    94922228.416        3905.244          45.000  
  18719158.975    98369831.407        3563.915          45.000  
  21635861.475                       -2177.771          17.000  
  21061516.048   110679019.6312       3705.655          37.000  
  21520440.302                        4647.513          25.000  
 16 10  2  8 35 43.9870000  0 11G26G21G16G20G29G10G27G18G31G 7G 8
  16901612.922    88818591.439         -13.971          47.000  
  17565896.001    92309406.679         149.999          46.000  
  16691161.473    87712666.258        2026.573          45.000  
  18380050.302    96587831.087         530.853          44.000  
  20175844.445   106024785.321       -1936.777          37.000  
  20677504.798   108661000.4342       5019.174          28.000  
  18062357.663    94918323.375        3904.992          45.000  
  18718480.629    98366267.742        3563.319          45.000  
  21636270.874                       -2189.245          17.000  
  21060811.951   110675314.4292       3704.747          37.000  
  21519556.930                        4644.894          24.000  
 16 10  2  8 35 44.9870000  0 11G26G21G16G20G29G10G27G18G31G 7G 8
  16901615.072    88818605.692         -14.508          47.000  
  17565867.725    92309257.037         149.443          46.000  
  16690775.651    87710640.085        2026.056          45.000  
  18379949.266    96587300.382         530.514          44.000  
  20176212.727   106026722.065       -1936.429          36.000  
  20676550.888   108655981.6042       5019.424          28.000  
  18061614.257    94914418.575        3904.740          45.000  
  18717802.512    98362704.457        3563.100          44.000  
  21636690.503                       -2170.080          18.000  
  21060107.513   110671609.6642       3704.656          37.000  
  21518676.227                        4647.972          25.000  
 16 10  2  8 35 45.9870000  0 11G26G21G16G20G29G10G27G18G31G 7G 8
  16901617.959    88818620.686         -15.155          47.000  
  17565839.414    92309107.930         149.008          46.000  
  16690390.019    87708614.677        2025.146          45.000  
  18379848.440    96586770.508         529.639          44.000  
  20176581.534   106028659.070       -1937.135          37.000  
  20675592.124   108650962.9542       5019.103          28.000  
  18060871.163    94910514.194        3904.053          45.000  
  18717124.391    98359141.690        3562.753          44.000  
  21637103.561                       -2170.080          18.000  
  21059402.780   110667905.5282       3703.677          37.000  
  21517793.760                        4647.763          25.000  
 16 10  2  8 35 46.9870000  0 12G26G21G16G20G29G10G27G18G31G 7G 8G 5
  16901620.777    88818636.296         -15.906          47.000  
  17565810.921    92308959.214         148.545          46.000  
  16690005.169    87706589.880        2024.353          45.000  
  18379747.935    96586241.311         528.880          44.000  
  20176950.202   106030596.141       -1937.090          37.000  
  20674636.150   108645944.4132       5018.075          28.000  
  18060128.157    94906610.055        3904.039          45.000  
  18716446.655    98355579.328        3562.123          45.000  
  21637521.990                       -2170.080          19.000  
  21058698.250   110664201.8312       3703.086          37.000  
  21516913.052   113072140.9072       4646.732          26.000  
  21706542.916                       -1811.163          27.000  
 16 10  2  8 35 47.9870000  0 12G26G21G16G20G29G10G27G18G31G 7G 8G 5
  16901623.772    88818652.512         -16.711          47.000  
  17565782.778    92308810.907         147.949          46.000  
  16689619.876    87704565.697        2023.569          45.000  
  18379647.235    96585712.770         528.096          44.000  
  20177318.898   106032533.330       -1937.633          36.000  
  20673682.056   108640925.8952       5018.024          27.000  
  18059385.213    94902706.183        3903.480          44.000  
  18715768.910    98352017.348        3561.515          44.000  
  21637937.680                       -2170.080          18.000  
  21057993.630   110660498.5922       3703.106          37.000  
  21516028.376   113067493.9132       4646.738          25.000  
  21706888.289                       -1810.932          26.000  
 16 10  2  8 35 48.9870000  0 12G26G21G16G20G29G10G27G18G31G 7G 8G 5
  16901626.945    88818669.308         -16.846          47.000  
  17565754.691    92308662.971         148.097          46.000  
  16689234.524    87702542.106        2023.543          45.000  
  18379546.836    96585184.892         527.804          44.000  
  20177687.602   106034470.572       -1936.921          36.000  
  20672729.190   108635907.3562       5018.634          27.000  
  18058642.424    94898802.554        3903.774          44.000  
  18715090.999    98348455.724        3561.692          44.000  
  21638354.907                       -2170.080          18.000  
  21057289.242   110656795.2921       3702.917          37.000  
  21515143.088   113062846.9522       4647.005          25.000  
  21707236.485                       -1810.808          26.000  
 16 10  2  8 35 49.9870000  0 13G26G21S20G16G20G29G10G27G18G31G 7G 8
                                G 5
  16901630.608    88818686.662         -17.749          47.000  
  17565726.848    92308515.408         147.148          46.000  
  34866884.482   183226714.1812       1372.742          38.000  
  16688849.567    87700519.104        2022.565          45.000  
  18379446.417    96584657.644         526.583          44.000  
  20178056.400   106036407.914       -1937.720          36.000  
  20671774.189   108630888.8242       5019.128          28.000  
  18057900.011    94894899.158        3903.189          44.000  
  18714413.123    98344894.470        3561.054          44.000  
  21638768.672                       -2170.080          19.000  
  21056584.790   110653092.944        3702.229          37.000  
  21514258.527   113058199.9632       4647.322          25.000  
  21707575.548                       -1809.004          26.000  
 16 10  2  8 35 50.9870000  0 12G26G21S20G16G20G29G10G27G18G 7G 8G 5
  16901634.398    88818704.369         -18.042          47.000  
  17565698.704    92308367.968         147.186          46.000  
  34866623.283   183225341.0972       1373.145          38.000  
  16688464.519    87698496.447        2022.357          45.000  
  18379346.218    96584130.794         526.519          44.000  
  20178424.861   106038345.070       -1937.254          36.000  
  20670821.986   108625870.1172       5019.323          28.000  
  18057157.131    94890995.741        3903.396          44.000  
  18713735.399    98341333.339        3560.995          44.000  
  21055880.370   110649390.799        3701.793          37.000  
  21513374.389                        4646.277          25.000  
  21707915.866                       -1811.678          26.000  
 16 10  2  8 35 51.9870000  0 12G26G21S20G16G20G29G10G27G18G 7G 8G 5
  16901638.103    88818722.859         -18.927          47.000  
  17565670.502    92308221.135         146.405          46.000  
  34866362.023   183223967.7241       1372.290          38.000  
  16688080.059    87696474.598        2021.380          45.000  
  18379246.448    96583604.811         525.558          44.000  
  20178793.741   106040282.524       -1937.827          36.000  
  20669865.221   108620851.7482       5017.923          28.000  
  18056414.495    94887092.785        3902.722          44.000  
  18713057.848    98337772.802        3559.946          44.000  
  21055176.095   110645689.288        3701.103          37.000  
  21512492.508                        4646.024          25.000  
  21708271.824                       -1811.928          26.000  
 16 10  2  8 35 52.9870000  0 12G26G21S20G16G20G29G10G27G18G 7G 8G 5
  16901641.985    88818741.994         -19.366          47.000  
  17565642.684    92308074.724         146.354          46.000  
  34866100.663   183222595.006        1372.614          38.000  
  16687695.487    87694453.411        2020.972          45.000  
  18379146.504    96583079.554         525.046          44.000  
  20179162.441   106042220.087       -1937.450          36.000  
  20668912.076   108615833.2972       5018.520          28.000  
  18055671.725    94883190.139        3902.562          44.000  
  18712380.504    98334212.679        3559.940          44.000  
  21054471.826   110641988.276        3701.062          37.000  
  21511609.946                        4647.031          25.000  
  21708614.604                       -1811.581          25.000  
 16 10  2  8 35 53.9870000  0 12G26G21S20G16G20G29G10G27G18G 7G 8G 5
  16901645.924    88818761.797         -20.203          47.000  
  17565614.902    92307928.790         145.537          46.000  
  34865839.527   183221222.424        1372.742          38.000  
  16687310.879    87692432.906        2020.054          45.000  
  18379046.624    96582555.025         524.057          44.000  
  20179531.377   106044157.851       -1938.112          36.000  
  20667956.786   108610815.0032       5018.684          28.000  
  18054929.366    94879287.810        3902.146          44.000  
  18711703.189    98330653.029        3559.182          44.000  
  21053767.469   110638287.848        3699.251          37.000  
  21510728.767                        4645.900          24.000  
  21708959.511                       -1813.539          24.000  
 16 10  2  8 35 54.9870000  0 12G26G21S20G16G20G29G10G27G18G 7G 8G 5
  16901649.439    88818782.186         -20.410          47.000  
  17565587.135    92307783.225         145.626          46.000  
  34865578.715   183219849.816        1372.961          38.000  
  16686926.642    87690413.004        2019.930          45.000  
  18378946.986    96582031.143         523.868          44.000  
  20179900.121   106046095.659       -1937.571          36.000  
  20666999.524   108605796.8432       5018.213          28.000  
  18054186.926    94875385.729        3902.312          44.000  
  18711025.879    98327093.738        3559.359          44.000  
  21053063.378   110634587.779        3700.175          37.000  
  21509844.966                        4647.077          25.000  
  21709305.251                       -1814.165          25.000  
 16 10  2  8 35 55.9870000  0 12G26G21S20G16G20G29G10G27G18G 7G 8G 5
  16901652.844    88818803.326         -21.289          47.000  
  17565559.495    92307638.194         145.132          46.000  
  34865317.265   183218477.183        1372.705          38.000  
  16686542.477    87688393.862        2018.881          45.000  
  18378847.675    96581508.094         522.950          44.000  
  20180268.816   106048033.718       -1938.044          36.000  
  20666045.181   108600778.7602       5018.307          28.000  
  18053444.126    94871484.061        3901.649          44.000  
  18710348.831    98323534.992        3558.692          44.000  
  21052359.807   110630888.383        3699.385          37.000  
  21508958.487                        4647.904          24.000  
  21709651.578                       -1814.054          25.000  
 16 10  2  8 35 56.9870000  0 12G26G21S20G16G20G29G10G27G18G 7G 8G 5
  16901656.768    88818824.907         -22.095          46.000  
  17565532.161    92307493.426         144.424          46.000  
  34865055.890   183217104.413        1372.803          38.000  
  16686158.303    87686375.177        2018.256          45.000  
  18378748.127    96580985.561         521.892          44.000  
  20180637.639   106049971.710       -1938.009          36.000  
  20665091.303   108595760.6452       5017.953          28.000  
  18052701.731    94867582.489        3901.057          44.000  
  18709671.791    98319976.479        3558.062          44.000  
  21051655.843   110627189.268        3698.401          37.000  
  21508074.783                        4646.660          24.000  
  21709996.848                       -1814.542          25.000  
 16 10  2  8 35 57.9870000  0 12G26G21S20G16G20G29G10G27G18G 7G 8G 5
  16901660.918    88818846.926         -22.430          46.000  
  17565504.745    92307348.888         144.125          46.000  
  34864794.797   183215731.552        1372.723          38.000  
  16685774.301    87684356.951        2017.753          45.000  
  18378648.583    96580463.523         521.496          44.000  
  20181006.523   106051909.649       -1938.192          36.000  
  20664136.378   108590742.3382       5018.595          28.000  
  18051959.336    94863681.023        3901.103          44.000  
  18708994.692    98316418.182        3558.118          44.000  
  21050951.787   110623490.479        3697.988          37.000  
  21507186.497                        4648.205          23.000  
  21710342.045                       -1813.838          24.000  
 16 10  2  8 35 58.9870000  0 12G26G21S20G16G20G29G10G27G18G 7G 8G 5
  16901665.246    88818869.500         -22.839          46.000  
  17565477.258    92307204.688         144.033          46.000  
  34864533.698   183214358.700        1372.778          38.000  
  16685390.564    87682339.271        2017.485          45.000  
  18378549.141    96579942.113         520.970          44.000  
  20181375.455   106053847.618       -1938.086          36.000  
  20663182.143   108585724.1412       5017.901          28.000  
  18051216.743    94859779.760        3901.011          44.000  
  18708317.667    98312860.241        3557.802          44.000  
  21050248.135   110619792.062        3698.208          37.000  
  21506300.578                        4647.699          23.000  
  21710687.404                       -1814.555          23.000  
 16 10  2  8 35 59.9870000  0 12G26G21S20G16G20G29G10G27G18G 7G 8G 5
  16901669.916    88818892.656         -23.682          46.000  
  17565449.596    92307060.873         143.164          46.000  
  34864272.672   183212985.877        1373.071          38.000  
  16685006.853    87680322.212        2016.353          45.000  
  18378450.074    96579421.353         520.164          44.000  
  20181744.376   106055785.674       -1938.348          36.000  
  20662228.413   108580705.9342       5017.886          28.000  
  18050474.542    94855878.743        3900.595          44.000  
  18707640.508    98309302.679        3556.898          44.000  
  21049544.718   110616094.103        3697.657          37.000  
  21505417.007                        4649.307          24.000  
  21711031.950                       -1815.134          24.000  
 16 10  2  8 36  0.9870000  0 12G26G21S20G16G20G29G10G27G18G 7G 8G 5
  16901674.842    88818916.400         -23.938          46.000  
  17565422.651    92306917.431         143.406          46.000  
  34864011.387   183211612.897        1373.077          38.000  
  16684622.982    87678305.737        2016.196          45.000  
  18378351.519    96578901.253         519.864          44.000  
  20182113.115   106057723.811       -1938.611          36.000  
  20661271.078   108575687.2881       5018.240          28.000  
  18049732.436    94851977.973        3900.730          44.000  
  18706963.614    98305745.471        3557.207          44.000  
  21048841.180   110612396.600        3697.328          37.000  
  21504529.274                        4646.144          25.000  
  21711378.348                       -1816.356          24.000  
 16 10  2  8 36  1.9870000  0 12G26G21S20G16G20G29G10G27G18G 7G 8G 5
  16901679.598    88818940.832         -24.847          46.000  
  17565395.469    92306774.483         142.485          46.000  
  34863750.088   183210239.939        1372.736          38.000  
  16684239.445    87676289.979        2015.194          45.000  
  18378252.642    96578381.913         518.767          44.000  
  20182482.090   106059662.104       -1938.332          36.000  
  20660314.403                        5017.507          27.000  
  18048990.096    94848077.552        3899.947          44.000  
  18706286.542    98302188.760        3556.324          44.000  
  21048137.463   110608699.640        3696.607          37.000  
  21503645.270                        4651.660          24.000  
  21711725.127                       -1813.384          23.000  
 16 10  2  8 36  2.9870000  0 12G26G21S20G16G20G29G10G27G18G 7G 8G 5
  16901684.511    88818966.062         -25.531          46.000  
  17565368.360    92306632.120         142.118          46.000  
  34863488.948   183208867.233        1372.760          38.000  
  16683855.835    87674275.018        2014.481          45.000  
  18378153.827    96577863.425         518.034          44.000  
  20182851.336   106061600.710       -1939.201          36.000  
  20659361.791   108565651.370        5017.746          27.000  
  18048247.998    94844177.572        3899.682          44.000  
  18705609.562    98298632.619        3555.785          44.000  
  21047434.135   110605003.347        3696.014          37.000  
  21502760.764                        4646.410          24.000  
  21712070.713                       -1816.029          24.000  
 16 10  2  8 36  3.9870000  0 12G26G21S20G16G20G29G10G27G18G 7G 8G 5
  16901688.904    88818991.860         -26.123          46.000  
  17565341.092    92306490.130         141.650          46.000  
  34863227.830   183207494.485        1372.693          38.000  
  16683472.444    87672260.640        2013.974          45.000  
  18378055.131    96577345.579         517.532          44.000  
  20183220.306   106063539.388       -1939.021          36.000  
  20658404.488   108560633.530        5018.324          27.000  
  18047505.966    94840277.822        3899.531          44.000  
  18704933.092    98295076.855        3555.389          44.000  
  21046730.653   110601307.483        3695.726          37.000  
  21501878.201                        4642.869          24.000  
  21712414.144                       -1815.585          25.000  
 16 10  2  8 36  4.9870000  0 12G26G21S20G16G20G29G10G27G18G 7G 8G 5
  16901693.717    88819018.086         -26.172          46.000  
  17565314.321    92306348.360         141.855          46.000  
  34862966.497   183206121.740        1372.986          38.000  
  16683089.461    87670246.705        2013.973          45.000  
  18377956.652    96576828.241         517.244          44.000  
  20183589.159   106065477.964       -1937.797          36.000  
  20657447.840   108555615.762        5017.379          27.000  
  18046763.671    94836378.171        3900.000          44.000  
  18704256.577    98291521.298        3555.888          44.000  
  21046027.368   110597611.900        3695.773          37.000  
  21500992.864                        4646.467          23.000  
  21712758.310                       -1816.294          25.000  
 16 10  2  8 36  5.9870000  0 11G26G21S20G16G20G29G27G18G 7G 8G 5
  16901698.599    88819044.610         -27.209          46.000  
  17565287.106    92306206.690         141.000          46.000  
  34862704.913   183204748.660        1372.797          38.000  
  16682706.352    87668233.099        2012.892          45.000  
  18377858.235    96576311.281         516.052          44.000  
  20183958.058   106067416.368       -1938.615          36.000  
  18046021.483    94832478.491        3899.146          44.000  
  18703579.940    98287965.840        3554.972          44.000  
  21045324.179   110593916.479        3694.838          37.000  
  21500108.305                        4647.325          22.000  
  21713103.079                       -1816.267          25.000  
 16 10  2  8 36  6.9870000  0 11G26G21S20G16G20G29G27G18G 7G 8G 5
  16901703.660    88819071.852         -27.350          46.000  
  17565260.126    92306065.536         140.981          46.000  
  34862443.726   183203375.716        1372.870          38.000  
  16682323.301    87666220.224        2012.589          45.000  
  18377760.061    96575795.080         516.161          44.000  
  20184326.747   106069354.972       -1938.338          36.000  
  18045279.593    94828579.175        3899.180          44.000  
  18702903.506    98284410.872        3554.890          44.000  
  21044620.886   110590221.641        3695.367          37.000  
  21499223.246                        4645.138          24.000  
  21713446.884                       -1817.789          26.000  
 16 10  2  8 36  7.9870000  0 12G26G21S20G16G20G29G10G27G18G 7G 8G 5
  16901709.297    88819099.812         -28.259          46.000  
  17565233.556    92305924.893         140.409          46.000  
  34862182.376   183202002.769        1373.285          38.000  
  16681940.516    87664208.071        2011.890          45.000  
  18377661.972    96575279.691         515.021          44.000  
  20184695.497   106071293.802       -1938.708          36.000  
  20654582.958   108540565.6373       5017.748          27.000  
  18044537.788    94824680.227        3899.027          44.000  
  18702227.136    98280856.422        3554.314          44.000  
  21043917.956   110586527.422        3693.387          38.000  
  21498340.094                        4647.414          24.000  
  21713793.932                       -1816.730          25.000  
 16 10  2  8 36  8.9870000  0 13G26G21S20G16G20G29G10G27G18G31G 7G 8
                                G 5
  16901715.168    88819128.449         -29.034          46.000  
  17565206.608    92305784.716         139.865          46.000  
  34861920.945   183200629.814        1373.071          38.000  
  16681557.865    87662196.620        2010.885          45.000  
  18377563.744    96574765.032         514.229          44.000  
  20185064.459   106073232.812       -1939.302          36.000  
  20653624.710   108535547.9582       5017.417          27.000  
  18043795.775    94820781.639        3898.151          44.000  
  18701550.729    98277302.440        3553.720          44.000  
  21646748.606                       -2182.055          19.000  
  21043214.871   110582833.684        3693.325          38.000  
  21497456.521                        4646.870          24.000  
  21714141.455                       -1817.153          26.000  
 16 10  2  8 36  9.9870000  0 13G26G21S20G16G20G29G10G27G18G31G 7G 8
                                G 5
  16901721.193    88819157.778         -29.767          46.000  
  17565179.969    92305645.025         139.441          46.000  
  34861659.903   183199257.081        1372.644          38.000  
  16681175.180    87660185.851        2010.553          45.000  
  18377465.940    96574251.149         513.243          44.000  
  20185433.500   106075171.954       -1939.061          36.000  
  20652669.274   108530530.4052       5017.375          27.000  
  18043054.026    94816883.371        3897.846          44.000  
  18700874.343    98273748.933        3553.193          44.000  
  21647156.253                       -2182.055          18.000  
  21042512.234   110579140.496        3692.882          38.000  
  21496571.641                        4647.459          25.000  
  21714486.001                       -1819.339          25.000  
 16 10  2  8 36 10.9870000  0 13G26G21S20G16G20G29G10G27G18G31G 7G 8
                                G 5
  16901726.222    88819187.615         -30.261          46.000  
  17565153.465    92305505.655         139.100          46.000  
  34861398.858   183197884.251        1372.644          38.000  
  16680792.518    87658175.646        2009.820          45.000  
  18377368.289    96573737.844         512.827          44.000  
  20185802.697   106077111.146       -1939.321          36.000  
  20651714.667   108525512.7742       5017.812          27.000  
  18042311.988    94812985.306        3897.727          45.000  
  18700198.430    98270195.738        3552.813          44.000  
  21647578.698                       -2182.055          18.000  
  21041809.424   110575447.718        3692.497          38.000  
  21495685.280                        4646.538          25.000  
  21714831.845                       -1819.328          26.000  
 16 10  2  8 36 11.9870000  0 12G26G21S20G16G20G29G10G27G18G 7G 8G 5
  16901731.733    88819218.207         -30.823          46.000  
  17565127.170    92305366.832         138.735          46.000  
  34861137.850   183196511.495        1372.534          38.000  
  16680410.082    87656166.188        2009.376          45.000  
  18377271.009    96573225.362         512.250          44.000  
  20186171.656   106079050.587       -1939.500          36.000  
  20650760.713   108520495.4162       5017.421          27.000  
  18041570.494    94809087.644        3897.485          45.000  
  18699522.366    98266643.075        3552.572          44.000  
  21041107.031   110571755.537        3691.801          38.000  
  21494800.676                        4647.238          25.000  
  21715179.161                       -1818.953          25.000  
 16 10  2  8 36 12.9870000  0 12G26G21S20G16G20G29G10G27G18G 7G 8G 5
  16901737.509    88819249.437         -31.818          47.000  
  17565100.764    92305228.425         138.220          46.000  
  34860876.729   183195138.813        1372.638          38.000  
  16680027.992    87654157.387        2008.360          45.000  
  18377173.502    96572713.573         511.159          44.000  
  20186540.994   106080990.103       -1939.505          36.000  
  20649806.720   108515478.0752       5016.807          27.000  
  18040829.005    94805190.271        3897.044          45.000  
  18698846.350    98263090.851        3551.997          44.000  
  21040404.899   110568063.835        3691.513          38.000  
  21493917.006                        4646.598          25.000  
  21715523.233                       -1817.396          25.000  
 16 10  2  8 36 13.9870000  0 12G26G21S20G16G20G29G10G27G18G 7G 8G 5
  16901743.518    88819281.316         -32.184          47.000  
  17565074.564    92305090.502         137.762          46.000  
  34860615.546   183193766.273        1372.778          38.000  
  16679645.678    87652149.258        2007.927          45.000  
  18377076.357    96572202.515         510.938          44.000  
  20186910.324   106082929.804       -1939.427          36.000  
  20648851.466   108510460.9062       5016.777          27.000  
  18040087.357    94801293.222        3897.114          45.000  
  18698170.370    98259539.083        3551.728          44.000  
  21039702.300   110564372.680        3691.167          37.000  
  21493033.155                        4647.309          26.000  
  21715868.032                       -1818.814          25.000  
 16 10  2  8 36 14.9870000  0 12G26G21S20G16G20G29G10G27G18G 7G 8G 5
  16901750.359    88819313.943         -32.892          47.000  
  17565048.409    92304953.074         137.341          46.000  
  34860354.304   183192393.862        1372.107          38.000  
  16679263.790    87650141.887        2007.030          45.000  
  18376979.197    96571692.264         510.155          44.000  
  20187279.690   106084869.747       -1940.060          36.000  
  20647897.808   108505443.8092       5017.329          27.000  
  18039345.754    94797396.568        3896.563          45.000  
  18697494.645    98255987.846        3551.057          44.000  
  21039000.121   110560682.131        3690.481          38.000  
  21492150.256                        4646.853          26.000  
  21716215.515                       -1815.088          24.000  
 16 10  2  8 36 15.9870000  0 11G26G21S20G16G20G29G10G27G18G 7G 8
  16901756.857    88819347.004         -33.313          47.000  
  17565022.024    92304815.897         137.269          46.000  
  34860093.148   183191021.242        1372.809          38.000  
  16678881.883    87648134.960        2006.814          45.000  
  18376882.404    96571182.542         509.324          44.000  
  20187648.946   106086809.632       -1940.190          36.000  
  20646943.410   108500426.8162       5016.053          28.000  
  18038604.415    94793500.017        3896.656          45.000  
  18696819.037    98252436.845        3550.885          44.000  
  21038297.790   110556991.894        3689.942          37.000  
  21491267.603                        4648.311          26.000  
 16 10  2  8 36 16.9870000  0 11G26G21S20G16G20G29G10G27G18G 7G 8
  16901762.933    88819380.706         -33.789          47.000  
  17564996.086    92304679.118         136.992          46.000  
  34859832.108   183189648.688        1372.778          38.000  
  16678500.069    87646128.685        2006.261          45.000  
  18376785.411    96570673.511         508.948          45.000  
  20188017.736                       -1940.625          28.000  
  20645987.924   108495409.6332       5017.745          28.000  
  18037863.089    94789603.748        3896.135          45.000  
  18696143.490    98248886.441        3548.672          33.000  
  21037595.843   110553302.109        3689.964          38.000  
  21490382.221                        4646.875          26.000  
 16 10  2  8 36 17.9870000  0 11G26G21S20G16G20G29G10G27G18G 7G 8
  16901769.177    88819414.855         -34.442          47.000  
  17564970.402    92304542.665         136.315          46.000  
  34859571.144   183188276.045        1372.607          37.000  
  16678118.164    87644122.898        2005.449          45.000  
  18376688.585    96570164.987         508.086          43.000  
  20188387.762   106090688.5783      -1939.886          36.000  
  20645034.513                        5016.629          27.000  
  18037121.478    94785707.627        3895.817          45.000  
  18695467.060    98245341.9403       3549.993          44.000  
  21036893.720   110549612.678        3689.505          37.000  
  21489492.018                        4645.762          26.000  
 16 10  2  8 36 18.9870000  0 11G26G21S20G16G20G29G10G27G18G 7G 8
  16901775.651    88819449.794         -35.626          47.000  
  17564944.615    92304406.738         135.419          46.000  
  34859309.774   183186903.607        1372.040          38.000  
  16677736.770    87642117.900        2004.257          45.000  
  18376592.021    96569657.318         506.959          43.000  
  20188757.933   106092628.7872      -1940.532          36.000  
  20644077.658   108485371.1153       5016.773          28.000  
  18036380.165    94781811.924        3895.181          45.000  
  18694791.012    98241792.1702       3549.208          44.000  
  21036191.362   110545923.906        3688.023          37.000  
  21488606.703                        4646.076          26.000  
 16 10  2  8 36 19.9870000  0 11G26G21S20G16G20G29G10G27G18G 7G 8
  16901782.669    88819485.482         -35.870          47.000  
  17564918.725    92304271.372         135.259          46.000  
  34859048.584   183185531.277        1372.699          38.000  
  16677355.120    87640113.657        2004.090          45.000  
  18376495.480    96569150.482         506.626          43.000  
  20189126.507   106094569.2752      -1940.449          36.000  
  20643127.611   108480354.4572       5016.146          28.000  
  18035639.042    94777916.641        3895.279          45.000  
  18694119.356    98238242.9612       3549.046          44.000  
  21035489.118   110542235.730        3687.816          37.000  
  21487726.909                        4645.633          27.000  
 16 10  2  8 36 20.9870000  0 11G26G21S20G16G20G29G10G27G18G 7G 8
  16901789.714    88819521.523         -36.469          47.000  
  17564892.863    92304136.154         134.675          46.000  
  34858787.675   183184158.557        1372.974          38.000  
  16676973.926    87638109.795        2003.334          45.000  
  18376399.174    96568644.056         506.114          43.000  
  20189495.696   106096509.5892      -1940.388          36.000  
  20642170.989   108475337.5532       5016.074          28.000  
  18034898.088    94774021.366        3895.006          45.000  
  18693440.715    98234693.8832       3548.781          44.000  
  21034787.199   110538547.777        3687.188          37.000  
  21486845.377                        4646.383          27.000  
 16 10  2  8 36 21.9870000  0 12G26G21S20G16G20G29G10G27G18G 7G 8G 5
  16901796.896    88819558.257         -36.993          47.000  
  17564867.268    92304001.417         134.529          46.000  
  34858526.739   183182785.906        1372.485          38.000  
  16676592.966    87636106.641        2002.910          45.000  
  18376303.006    96568138.406         505.363          43.000  
  20189865.761   106098450.1012      -1940.909          36.000  
  20641217.264   108470320.7602       5016.725          28.000  
  18034156.880    94770126.451        3894.816          45.000  
  18692766.390    98231145.3012       3548.345          44.000  
  21034085.373   110534860.340        3687.575          37.000  
  21485956.583   112909487.9413       4646.203          27.000  
  21718628.707                       -1822.953          25.000  
 16 10  2  8 36 22.9870000  0 11G26G21S20G16G20G29G10G27G18G 7G 8
  16901803.470    88819595.589         -37.677          47.000  
  17564841.400    92303867.075         134.086          46.000  
  34858265.496   183181413.356        1372.028          38.000  
  16676212.014    87634104.110        2002.168          45.000  
  18376206.797    96567633.417         504.650          43.000  
  20190235.751   106100390.6952      -1940.754          36.000  
  20640262.223   108465304.0972       5016.668          28.000  
  18033415.732    94766231.799        3894.425          45.000  
  18692090.415    98227597.0972       3547.996          44.000  
  21033383.720   110531173.414        3686.613          37.000  
  21485073.156   112904841.5212       4647.069          27.000  
 16 10  2  8 36 23.9870000  0 12G26G21S20G16G20G29G10G27G18G 7G 8G 5
  16901810.703    88819633.650         -38.580          46.000  
  17564816.160    92303733.252         133.450          46.000  
  34858004.493   183180040.960        1372.491          37.000  
  16675830.912    87632102.319        2001.254          45.000  
  18376110.761    96567129.216         503.807          43.000  
  20190603.671   106102331.5152      -1941.513          36.000  
  20639305.610   108460287.5022       5016.519          28.000  
  18032674.665    94762337.525        3893.971          45.000  
  18691415.975    98224049.4272       3547.286          44.000  
  21032682.012   110527487.046        3686.294          37.000  
  21484189.658   112900195.3622       4645.992          27.000  
  21719318.162                       -1822.580          25.000  
 16 10  2  8 36 24.9870000  0 12G26G21S20G16G20G29G10G27G18G 7G 8G 5
  16901818.019    88819672.405         -38.617          46.000  
  17564790.777    92303599.926         133.292          46.000  
  34857743.542   183178668.785        1372.406          38.000  
  16675450.111    87630101.236        2000.998          45.000  
  18376014.940    96566625.787         503.375          43.000  
  20190971.944   106104272.511       -1941.186          36.000  
  20638352.123   108455270.6761       5015.897          27.000  
  18031933.727    94758443.615        3893.901          45.000  
  18690741.051    98220502.227        3547.217          44.000  
  21031980.344   110523801.257        3685.824          37.000  
  21483307.184   112895549.2632       4645.450          26.000  
  21719671.243                       -1823.181          25.000  
 16 10  2  8 36 25.9870000  0 12G26G21S20G16G20G29G10G27G18G 7G 8G 5
  16901825.768    88819711.744         -39.844          46.000  
  17564765.458    92303466.969         132.708          45.000  
  34857482.590   183177296.552        1372.083          38.000  
  16675069.448    87628100.757        1999.850          45.000  
  18375919.524    96566123.006         502.252          43.000  
  20191341.522   106106213.578       -1941.485          36.000  
  20637398.469   108450254.219        5016.649          27.000  
  18031192.824    94754549.935        3893.541          45.000  
  18690065.978    98216955.412        3546.394          44.000  
  21031279.047   110520115.904        3685.110          37.000  
  21482421.944   112890903.0422       4646.665          27.000  
  21720010.963                       -1823.480          25.000  
 16 10  2  8 36 26.9870000  0 12G26G21S20G16G20G29G10G27G18G 7G 8G 5
  16901833.728    88819751.757         -40.436          46.000  
  17564740.080    92303334.488         132.280          46.000  
  34857221.347   183175924.453        1371.979          38.000  
  16674688.753    87626100.950        1999.459          45.000  
  18375824.263    96565620.970         501.588          43.000  
  20191711.106   106108154.808       -1941.292          36.000  
  20636441.937   108445238.103        5015.739          27.000  
  18030451.675    94750656.605        3893.172          45.000  
  18689391.241    98213409.066        3546.031          44.000  
  21030577.593   110516431.098        3684.584          37.000  
  21481538.610   112886257.0742       4646.103          27.000  
  21720357.722                       -1823.252          25.000  
 16 10  2  8 36 27.9870000  0 12G26G21S20G16G20G29G10G27G18G 7G 8G 5
  16901840.961    88819792.588         -41.296          46.000  
  17564715.043    92303202.629         131.481          46.000  
  34856960.224   183174552.482        1371.906          38.000  
  16674308.254    87624102.000        1998.537          45.000  
  18375728.844    96565119.826         500.813          43.000  
  20192080.249   106110096.380       -1941.778          35.000  
  20635487.242   108440222.136        5015.867          28.000  
  18029710.659    94746763.753        3892.543          45.000  
  18688716.532    98209863.338        3545.392          44.000  
  21029876.197   110512746.968        3683.954          37.000  
  21480655.744   112881611.2722       4646.345          27.000  
  21720707.372                       -1823.705          25.000  
 16 10  2  8 36 28.9870000  0 12G26G21S20G16G20G29G10G27G18G 7G 8G 5
  16901848.503    88819834.066         -41.986          46.000  
  17564689.987    92303071.205         131.018          46.000  
  34856699.044   183173180.439        1372.101          38.000  
  16673928.243    87622103.705        1997.986          45.000  
  18375633.586    96564619.394         499.912          43.000  
  20192449.918   106112038.060       -1941.762          35.000  
  20634532.870   108435206.211        5016.330          28.000  
  18028969.876    94742871.211        3892.200          45.000  
  18688041.935    98206318.037        3545.041          44.000  
  21029175.119   110509063.370        3683.393          37.000  
  21479772.192   112876965.5872       4646.060          27.000  
  21721051.782                       -1824.417          24.000  
 16 10  2  8 36 29.9870000  0 12G26G21S20G16G20G29G10G27G18G 7G 8G 5
  16901856.550    88819876.019         -42.352          46.000  
  17564665.129    92302940.041         130.931          46.000  
  34856437.912   183171808.294        1372.205          38.000  
  16673547.984    87620105.903        1997.341          45.000  
  18375538.443    96564119.499         499.647          43.000  
  20192819.664   106113979.728       -1941.532          35.000  
  20633576.674   108430190.391        5015.360          27.000  
  18028229.395    94738978.798        3892.271          45.000  
  18687367.569    98202773.012        3544.857          44.000  
  21028474.400   110505380.090        3683.045          37.000  
  21478887.861   112872319.7442       4646.100          26.000  
  21721399.904                       -1824.444          23.000  
 16 10  2  8 36 30.9870000  0 12G26G21S20G16G20G29G10G27G18G 7G 8G 5
  16901865.043    88819918.392         -42.670          46.000  
  17564640.152    92302809.113         130.537          46.000  
  34856176.519   183170435.928        1372.406          38.000  
  16673167.933    87618108.546        1996.911          45.000  
  18375443.359    96563620.107         499.072          43.000  
  20193188.959   106115921.343       -1941.964          35.000  
  20632624.781   108425174.275        5015.793          28.000  
  18027488.600    94735086.483        3892.155          45.000  
  18686693.218    98199228.198        3544.640          44.000  
  21027773.380   110501697.117        3682.749          36.000  
  21478004.714   112867673.828        4645.301          26.000  
  21721748.245                       -1824.510          23.000  
 16 10  2  8 36 31.9870000  0 12G26G21S20G16G20G29G10G27G18G 7G 8G 5
  16901873.559    88819961.576         -43.555          46.000  
  17564615.069    92302678.764         130.121          46.000  
  34855915.659   183169063.896        1371.704          38.000  
  16672787.996    87616111.992        1996.287          45.000  
  18375348.709    96563121.590         497.965          43.000  
  20193558.417   106117863.176       -1941.858          35.000  
  20631670.755   108420158.478        5015.918          28.000  
  18026747.856    94731194.618        3891.767          45.000  
  18686018.795    98195683.977        3544.117          44.000  
  21027072.424   110498014.792        3681.920          36.000  
  21477122.726   112863027.979        4646.061          26.000  
  21722094.970                       -1825.163          22.000  
 16 10  2  8 36 32.9870000  0 12G26G21S20G16G20G29G10G27G18G 7G 8G 5
  16901881.203    88820005.296         -43.811          46.000  
  17564590.572    92302548.757         130.117          45.000  
  34855654.687   183167691.833        1372.394          38.000  
  16672408.282    87614116.011        1996.022          45.000  
  18375253.867    96562623.665         497.803          43.000  
  20193927.726   106119805.107       -1941.584          35.000  
  20630718.071   108415142.745        5015.357          28.000  
  18026007.405    94727302.978        3891.546          45.000  
  18685344.603    98192140.099        3544.213          44.000  
  21026371.773   110494332.855        3682.462          36.000  
  21476238.030   112858382.156        4645.801          26.000  
  21722444.395                       -1832.286          21.000  
 16 10  2  8 36 33.9870000  0 12G26G21S20G16G20G29G10G27G18G 7G 8G 5
  16901889.476    88820049.564         -44.623          46.000  
  17564565.995    92302419.093         129.528          45.000  
  34855393.442   183166319.663        1371.759          38.000  
  16672028.638    87612120.589        1995.116          45.000  
  18375159.081    96562126.378         496.938          43.000  
  20194297.307   106121747.049       -1942.067          35.000  
  20629764.398   108410126.852        5016.051          28.000  
  18025266.796    94723411.524        3891.348          45.000  
  18684670.014    98188596.564        3543.268          44.000  
  21025671.228   110490651.372        3681.228          36.000  
  21475354.335   112853736.267        4645.985          26.000  
  21722793.819                       -1833.449          19.000  
 16 10  2  8 36 34.9870000  0 11G26G21S20G16G20G29G10G27G18G 7G 8
  16901898.178    88820094.565         -45.538          46.000  
  17564541.312    92302289.962         128.777          45.000  
  34855132.534   183164947.817        1371.588          38.000  
  16671649.191    87610125.920        1994.144          45.000  
  18375064.447    96561629.881         495.861          43.000  
  20194667.091   106123689.261       -1942.522          35.000  
  20628810.500   108405111.282        5015.387          28.000  
  18024526.347    94719520.475        3890.591          45.000  
  18683995.512    98185053.547        3542.508          44.000  
  21024970.616   110486970.475        3680.391          36.000  
  21474471.720   112849090.548        4645.400          26.000  
 16 10  2  8 36 35.9870000  0 11G26G21S20G16G20G29G10G27G18G 7G 8
  16901907.099    88820140.020         -45.667          46.000  
  17564516.901    92302161.089         128.627          45.000  
  34854871.689   183163575.847        1372.339          38.000  
  16671269.893    87608131.712        1994.006          45.000  
  18374970.486    96561133.924         495.488          43.000  
  20195036.443   106125631.360       -1941.966          35.000  
  20627856.323   108400095.545        5015.890          28.000  
  18023785.913    94715629.535        3890.831          45.000  
  18683321.161    98181510.778        3542.557          44.000  
  21024270.273   110483289.903        3680.346          36.000  
  21473587.250   112844444.707        4646.259          26.000  
 16 10  2  8 36 36.9870000  0 11G26G21S20G16G20G29G10G27G18G 7G 8
  16901915.673    88820186.217         -46.997          46.000  
  17564492.614    92302032.752         127.549          46.000  
  34854610.637   183162203.872        1372.083          38.000  
  16670890.778    87606138.276        1992.611          45.000  
  18374876.355    96560638.753         494.347          43.000  
  20195405.728   106127573.743       -1943.115          35.000  
  20626903.486   108395080.029        5015.167          29.000  
  18023045.553    94711738.997        3889.874          45.000  
  18682647.183    98177968.528        3541.690          44.000  
  21023569.963   110479609.882        3679.542          36.000  
  21472703.810   112839799.033        4644.991          26.000  
 16 10  2  8 36 37.9870000  0 11G26G21S20G16G20G29G10G27G18G 7G 8
  16901924.401    88820233.191         -47.693          46.000  
  17564468.223    92301904.976         127.124          46.000  
  34854349.616   183160831.828        1371.674          37.000  
  16670511.386    87604145.619        1992.113          45.000  
  18374781.996    96560144.431         493.596          44.000  
  20195775.089   106129516.349       -1942.767          35.000  
  20625949.521   108390064.730        5014.883          29.000  
  18022305.504    94707848.907        3889.448          45.000  
  18681973.513    98174426.878        3540.883          44.000  
  21022869.712   110475930.601        3678.367          36.000  
  21471820.499   112835153.536        4644.855          26.000  
 16 10  2  8 36 38.9870000  0 11G26G21S20G16G20G29G10G27G18G 7G 8
  16901933.729    88820280.814         -47.821          46.000  
  17564444.123    92301777.653         127.297          46.000  
  34854088.771   183159460.018        1371.875          37.000  
  16670132.444    87602153.649        1991.797          45.000  
  18374688.104    96559650.857         493.413          43.000  
  20196144.920   106131459.180       -1943.209          35.000  
  20624995.454   108385049.563        5015.333          28.000  
  18021565.372    94703959.132        3889.798          45.000  
  18681299.589    98170885.660        3541.121          44.000  
  21022169.624   110472251.793        3678.699          36.000  
  21470936.236   112830508.160        4645.004          27.000  
 16 10  2  8 36 39.9870000  0 11G26G21S20G16G20G29G10G27G18G 7G 8
  16901943.217    88820328.812         -48.322          46.000  
  17564419.932    92301650.493         126.906          46.000  
  34853827.488   183158088.073        1371.997          37.000  
  16669753.116    87600162.055        1991.316          45.000  
  18374594.174    96559157.694         492.844          43.000  
  20196514.665   106133401.809       -1942.801          35.000  
  20624038.032   108380034.188        5015.113          29.000  
  18020825.120    94700069.373        3889.593          45.000  
  18680625.835    98167344.595        3540.712          44.000  
  21021469.357   110468573.218        3678.138          36.000  
  21470051.963   112825862.437        4645.571          27.000  
 16 10  2  8 36 40.9870000  0 11G26G21S20G16G20G29G10G27G18G 7G 8
  16901952.071    88820377.534         -49.298          46.000  
  17564395.735    92301523.860         126.183          46.000  
  34853566.225   183156716.302        1371.667          38.000  
  16669374.199    87598171.209        1990.253          45.000  
  18374500.567    96558665.344         491.752          43.000  
  20196884.354   106135344.678       -1943.319          35.000  
  20623085.028   108375019.054        5014.180          29.000  
  18020085.042    94696180.012        3889.080          45.000  
  18679951.983    98163804.067        3539.923          44.000  
  21020769.118   110464895.221        3677.502          36.000  
  21469164.970   112821216.937        4645.825          27.000  
 16 10  2  8 36 41.9870000  0 11G26G21S20G16G20G29G10G27G18G 7G 8
  16901961.052    88820426.872         -49.615          46.000  
  17564371.663    92301397.654         125.958          46.000  
  34853305.077   183155344.559        1371.759          38.000  
  16668995.360    87596180.999        1989.837          45.000  
  18374407.212    96558173.676         491.361          44.000  
  20197254.021   106137287.624       -1942.861          35.000  
  20622128.320   108370003.893        5015.268          29.000  
  18019344.871    94692290.938        3889.059          45.000  
  18679278.144    98160263.953        3540.015          44.000  
  21020068.998   110461217.714        3677.195          36.000  
  21468280.773   112816571.486        4645.352          27.000  
 16 10  2  8 36 42.9870000  0 11G26G21S20G16G20G29G10G27G18G 7G 8
  16901970.672    88820476.730         -49.921          46.000  
  17564347.590    92301271.734         125.986          45.000  
  34853044.068   183153972.641        1371.930          38.000  
  16668616.731    87594191.311        1989.784          45.000  
  18374313.893    96557682.592         491.107          43.000  
  20197623.485   106139230.599       -1942.228          34.000  
  20621174.554   108364988.770        5015.423          29.000  
  18018604.859    94688402.041        3889.070          45.000  
  18678604.467    98156724.140        3540.049          44.000  
  21019369.395   110457540.600        3677.270          36.000  
  21467399.127   112811925.928        4645.659          27.000  
 16 10  2  8 36 43.9870000  0 11G26G21S20G16G20G29G10G27G18G 7G 8
  16901981.138    88820527.402         -50.879          46.000  
  17564323.905    92301146.436         125.073          45.000  
  34852782.932   183152601.094        1371.936          37.000  
  16668238.074    87592202.472        1988.616          45.000  
  18374220.784    96557192.385         489.986          43.000  
  20197993.233   106141173.887       -1942.845          34.000  
  20620221.557   108359973.883        5014.987          29.000  
  18017865.095    94684513.608        3888.383          45.000  
  18677930.924    98153184.948        3538.765          44.000  
  21018669.534   110453864.145        3676.174          36.000  
  21466516.955   112807280.600        4645.258          26.000  
 16 10  2  8 36 44.9870000  0 11G26G21S20G16G20G29G10G27G18G 7G 8
  16901990.756    88820578.436         -51.147          46.000  
  17564300.416    92301021.289         125.298          45.000  
  34852521.926   183151229.281        1371.857          37.000  
  16667859.656    87590214.015        1988.365          45.000  
  18374127.469    96556702.630         489.638          44.000  
  20198363.191   106143117.070       -1943.071          34.000  
  20619264.977   108354958.851        5015.450          29.000  
  18017124.644    94680625.219        3888.490          45.000  
  18677257.581    98149645.912        3539.078          44.000  
  21017969.904   110450187.964        3675.619          36.000  
  21465631.971   112802635.100        4645.752          26.000  
 16 10  2  8 36 45.9870000  0 11G26G21S20G16G20G29G10G27G18G 7G 8
  16902000.181    88820630.035         -51.831          46.000  
  17564276.500    92300896.517         124.635          45.000  
  34852260.984   183149857.233        1372.064          37.000  
  16667481.457    87588226.136        1987.554          45.000  
  18374034.211    96556213.496         488.849          43.000  
  20198732.771   106145060.262       -1943.017          34.000  
  20618310.250   108349943.891        5014.289          29.000  
  18016384.909    94676737.057        3888.041          45.000  
  18676584.191    98146107.243        3538.418          44.000  
  21017270.453   110446512.160        3675.490          35.000  
  21464748.511   112797989.589        4645.656          26.000  
 16 10  2  8 36 46.9870000  0 11G26G21S20G16G20G29G10G27G18G 7G 8
  16902010.153    88820682.317         -52.509          46.000  
  17564253.012    92300772.212         124.154          45.000  
  34851999.914   183148485.496        1371.460          38.000  
  16667103.109    87586238.953        1987.004          45.000  
  18373941.635    96555725.126         487.866          43.000  
  20199102.720   106147003.667       -1943.396          34.000  
  20617357.099   108344928.963        5014.691          29.000  
  18015645.159    94672849.241        3887.501          45.000  
  18675910.844    98142569.042        3537.852          44.000  
  21016570.979   110442836.974        3674.122          36.000  
  21463863.192   112793344.177        4645.398          27.000  
 16 10  2  8 36 47.9870000  0 11G26G21S20G16G20G29G10G27G18G 7G 8
  16902020.541    88820735.224         -52.783          47.000  
  17564229.162    92300648.327         124.166          46.000  
  34851738.722   183147113.778        1372.259          38.000  
  16666725.037    87584252.406        1986.554          45.000  
  18373848.574    96555237.430         487.587          43.000  
  20199472.733   106148947.157       -1943.128          34.000  
  20616401.464   108339914.105        5015.611          30.000  
  18014905.651    94668961.702        3887.444          45.000  
  18675237.582    98139031.254        3537.861          44.000  
  21015871.542   110439162.235        3674.252          36.000  
  21462975.368   112788698.848        4645.008          27.000  
 16 10  2  8 36 48.9870000  0 11G26G21S20G16G20G29G10G27G18G 7G 8
  16902030.344    88820788.851         -53.809          47.000  
  17564205.399    92300524.963         123.383          46.000  
  34851477.926   183145742.301        1371.698          38.000  
  16666347.318    87582266.606        1985.526          45.000  
  18373756.217    96554750.544         486.532          43.000  
  20199842.473   106150890.901       -1944.013          34.000  
  20615449.018   108334899.489        5015.620          30.000  
  18014165.963    94665074.546        3887.094          45.000  
  18674564.309    98135493.987        3537.023          44.000  
  21015172.363   110435488.069        3674.171          36.000  
  21462087.629   112784053.534        4645.423          28.000  
 16 10  2  8 36 49.9870000  0 11G26G21S20G16G20G29G10G27G18G 7G 8
  16902040.542    88820842.923         -54.535          47.000  
  17564182.469    92300401.844         122.845          46.000  
  34851216.761   183144370.511        1371.625          37.000  
  16665969.511    87580281.275        1984.700          45.000  
  18373663.578    96554264.155         485.976          43.000  
  20200212.403   106152834.525       -1943.754          34.000  
  20614492.522   108329884.759        5014.274          30.000  
  18013426.260    94661187.505        3886.596          45.000  
  18673891.511    98131956.961        3536.729          44.000  
  21014473.277   110431814.237        3673.339          36.000  
  21461202.167   112779408.115        4645.404          28.000  
 16 10  2  8 36 50.9870000  0 11G26G21S20G16G20G29G10G27G18G 7G 8
  16902051.101    88820897.672         -54.639          47.000  
  17564158.646    92300279.190         122.784          46.000  
  34850955.805   183142998.643        1372.455          37.000  
  16665591.983    87578296.629        1984.675          45.000  
  18373571.278    96553778.529         485.589          43.000  
  20200581.904   106154778.329       -1942.885          34.000  
  20613540.629   108324870.149        5014.839          30.000  
  18012686.655    94657300.787        3887.054          45.000  
  18673218.357    98128420.416        3536.747          44.000  
  21013774.263   110428140.924        3673.379          36.000  
  21460315.604   112774762.812        4645.840          28.000  
 16 10  2  8 36 51.9870000  0 11G26G21S20G16G20G29G10G27G18G 7G 8
  16902061.808    88820953.046         -55.731          47.000  
  17564135.262    92300156.957         121.934          46.000  
  34850694.698   183141626.760        1372.034          37.000  
  16665214.313    87576312.631        1983.585          45.000  
  18373478.793    96553293.582         484.614          43.000  
  20200951.977   106156722.310       -1944.505          34.000  
  20612585.070   108319855.560        5014.674          30.000  
  18011946.974    94653414.373        3886.073          45.000  
  18672545.492    98124884.282        3535.830          44.000  
  21013075.654   110424468.121        3672.541          36.000  
  21459431.265   112770117.546        4645.198          28.000  
 16 10  2  8 36 52.9870000  0 11G26G21S20G16G20G29G10G27G18G 7G 8
  16902072.215    88821009.239         -56.738          47.000  
  17564112.761    92300035.352         120.968          46.000  
  34850433.886   183140255.137        1371.564          37.000  
  16664836.871    87574329.466        1982.744          45.000  
  18373386.708    96552809.536         483.644          43.000  
  20201321.847   106158666.554       -1944.580          34.000  
  20611632.255   108314841.320        5014.896          30.000  
  18011207.476    94649528.439        3885.557          45.000  
  18671873.185    98121348.771        3535.158          44.000  
  21012376.928   110420796.013        3671.123          36.000  
  21458548.035   112765472.526        4644.857          27.000  
 16 10  2  8 36 53.9870000  0 11G26G21S20G16G20G29G10G27G18G 7G 8
  16902083.123    88821065.948         -57.007          47.000  
  17564089.459    92299914.037         121.296          46.000  
  34850172.713   183138883.645        1371.429          38.000  
  16664459.568    87572346.841        1982.435          45.000  
  18373294.485    96552326.074         483.199          43.000  
  20201691.799   106160610.823       -1944.071          34.000  
  20610680.914   108309827.024        5015.115          30.000  
  18010468.097    94645642.677        3885.734          45.000  
  18671200.323    98117813.577        3535.010          44.000  
  21011678.468   110417124.282        3671.148          36.000  
  21457661.617                        4644.588          27.000  
 16 10  2  8 36 54.9870000  0 11G26G21S20G16G20G29G10G27G18G 7G 8
  16902094.426    88821123.328         -57.959          47.000  
  17564066.708    92299793.209         120.317          46.000  
  34849912.052   183137512.305        1371.118          38.000  
  16664082.590    87570364.906        1981.333          45.000  
  18373202.874    96551843.351         482.082          43.000  
  20202062.011   106162555.269       -1944.955          34.000  
  20609725.462   108304812.916        5013.771          30.000  
  18009728.654    94641757.274        3884.724          45.000  
  18670527.663    98114278.838        3534.217          44.000  
  21010979.869   110413453.056        3670.994          36.000  
  21456775.844                        4644.271          27.000  
