     2.10           OBSERVATION DATA    M (MIXED)           RINEX VERSION / TYPE
RTKCONV-QT 2.4.3 b15                    20161002 103428 UTC PGM / RUN BY / DATE 
log: /home/max/rtklib_logs/rover_201610020757_outer.ubx     COMMENT             
format: u-blox                                              COMMENT             
                                                            MARKER NAME         
                                                            MARKER NUMBER       
                                                            OBSERVER / AGENCY   
                                                            REC # / TYPE / VERS 
                                                            ANT # / TYPE        
  3902542.6932   520396.0745  5001272.2429                  APPROX POSITION XYZ 
        0.0000        0.0000        0.0000                  ANTENNA: DELTA H/E/N
     1     1                                                WAVELENGTH FACT L1/2
     4    C1    L1    D1    S1                              # / TYPES OF OBSERV 
  2016    10     2     7    57   20.9930000     GPS         TIME OF FIRST OBS   
  2016    10     2     8     9   15.9920000     GPS         TIME OF LAST OBS    
                                                            END OF HEADER       
 16 10  2  7 57 20.9930000  0  7G26G21G16G27G18G31G25
  18315969.459    96251077.364        1381.948          37.000  
  18960047.121    99635738.311        1158.175          35.000  
  18979955.744    99740357.986        3275.793          35.000  
  21000093.745   110356212.571        4378.975          31.000  
  21554526.065   113269791.5802       4211.188          31.000  
  21783423.396                       -2160.605          18.000  
  23444541.558                       -2505.681          22.000  
 16 10  2  7 57 21.9930000  0  7G26G21G16G27G18G31G25
  18315706.534    96249695.720        1381.222          37.000  
  18959826.707    99634580.262        1157.710          35.000  
  18979332.497    99737082.615        3274.682          35.000  
  20999260.042   110351833.889        4378.952          32.000  
  21553724.470   113265580.3832       4210.531          31.000  
  21783830.728                       -2137.973          18.000  
  23445019.446                       -2507.344          21.000  
 16 10  2  7 57 22.9930000  0  7G26G21G16G27G18G31G25
  18315443.726    96248314.557        1380.721          36.000  
  18959606.351    99633422.597        1157.517          35.000  
  18978709.649    99733807.556        3274.986          35.000  
  20998433.590   110347455.271        4377.549          31.000  
  21552923.367   113261369.2552       4210.801          31.000  
  21784242.407                       -2139.182          19.000  
  23445496.042                       -2503.719          22.000  
 16 10  2  7 57 23.9930000  0  7G26G21G16G27G18G31G25
  18315181.111    96246933.909        1380.510          36.000  
  18959385.988    99632265.330        1157.161          35.000  
  18978086.407    99730532.948        3274.118          35.000  
  20997599.770   110343076.745        4377.603          31.000  
  21552122.036   113257158.2122       4210.968          31.000  
  21784652.401                       -2146.311          18.000  
  23445971.403                       -2505.253          21.000  
 16 10  2  7 57 24.9930000  0  7G26G21G16G27G18G31G25
  18314918.799    96245553.898        1379.847          36.000  
  18959165.861    99631108.546        1156.536          35.000  
  18977463.566    99727258.766        3274.316          35.000  
  20996765.676   110338698.340        4377.843          32.000  
  21551321.372   113252947.345        4210.661          31.000  
  21785063.170                       -2154.887          18.000  
  23446446.545                       -2498.709          21.000  
 16 10  2  7 57 25.9930000  0  7G26G21G16G27G18G31G25
  18314656.061    96244174.450        1378.934          36.000  
  18958946.216    99629952.233        1155.794          35.000  
  18976840.686    99723985.057        3273.566          35.000  
  20995932.123   110334320.111        4378.362          32.000  
  21550523.814   113248736.672        4209.927          31.000  
  21785472.192                       -2141.923          18.000  
  23446923.674                       -2492.034          21.000  
 16 10  2  7 57 26.9930000  0  7G26G21G16G27G18G31G25
  18314393.511    96242795.372        1379.038          38.000  
  18958726.125    99628796.158        1156.147          37.000  
  18976217.795    99720711.588        3273.506          37.000  
  20995098.198   110329941.807        4378.436          34.000  
  21549716.738   113244525.912        4210.752          33.000  
  21785882.348                       -2147.694          19.000  
  23447401.106                       -2494.684          20.000  
 16 10  2  7 57 27.9930000  0  7G26G21G16G27G18G31G25
  18314130.910    96241416.301        1378.531          39.000  
  18958506.193    99627639.962        1155.660          38.000  
  18975594.823    99717437.985        3273.002          38.000  
  20994265.097   110325563.080        4378.735          35.000  
  21548915.454   113240314.726        4211.350          34.000  
  21786292.290                       -2148.544          20.000  
  23447875.284                       -2505.342          22.000  
 16 10  2  7 57 28.9930000  0  7G26G21G16G27G18G31G25
  18313868.346    96240037.630        1378.146          39.000  
  18958286.362    99626484.078        1155.124          38.000  
  18974972.088    99714164.647        3272.885          38.000  
  20993431.582   110321184.356        4378.314          35.000  
  21548114.508   113236103.550        4211.059          34.000  
  21786700.963                       -2139.410          21.000  
  23448351.203                       -2498.554          23.000  
 16 10  2  7 57 29.9930000  0  7G26G21G16G27G18G31G25
  18313606.139    96238659.824        1377.790          40.000  
  18958066.373    99625328.927        1154.832          38.000  
  18974349.358    99710892.070        3272.565          38.000  
  20992598.550   110316806.029        4378.549          35.000  
  21547313.124   113231892.827        4210.834          34.000  
  21787114.951                       -2139.401          22.000  
  23448828.507                       -2493.839          23.000  
 16 10  2  7 57 30.9930000  0  7G26G21G16G27G18G31G25
  18313343.962    96237282.675        1376.626          39.000  
  18957846.785    99624174.269        1154.485          38.000  
  18973726.725    99707619.967        3271.890          38.000  
  20991765.836   110312427.908        4377.697          35.000  
  21546511.811   113227682.310        4209.924          34.000  
  21787526.341                       -2149.484          22.000  
  23449303.813                       -2501.597          23.000  
 16 10  2  7 57 31.9930000  0  7G26G21G16G27G18G31G25
  18313082.058    96235906.238        1375.935          40.000  
  18957627.288    99623020.230        1153.436          38.000  
  18973103.971    99704348.459        3271.248          38.000  
  20990932.724   110308050.041        4378.110          35.000  
  21545711.219   113223472.044        4210.162          34.000  
  21787937.716                       -2146.195          23.000  
  23449781.672                       -2502.919          22.000  
 16 10  2  7 57 32.9930000  0  7G26G21G16G27G18G31G25
  18312820.222    96234530.424        1375.241          39.000  
  18957407.789    99621866.699        1153.120          38.000  
  18972481.484    99701077.485        3269.847          38.000  
  20990099.883   110303672.400        4377.688          35.000  
  21544911.637   113219262.028        4209.511          34.000  
  21788348.723                       -2149.474          24.000  
  23450257.849                       -2503.546          22.000  
 16 10  2  7 57 33.9930000  0  7G26G21G16G27G18G31G25
  18312558.581    96233155.258        1374.981          40.000  
  18957188.317    99620713.693        1153.036          38.000  
  18971858.940    99697806.980        3270.350          38.000  
  20989266.708   110299295.010        4377.302          36.000  
  21544110.235   113215052.221        4210.241          35.000  
  21788758.712                       -2150.765          25.000  
  23450733.688                       -2500.383          21.000  
 16 10  2  7 57 34.9930000  0  7G26G21G16G27G18G31G25
  18312296.829    96231780.694        1374.164          40.000  
  18956968.842    99619561.157        1151.973          38.000  
  18971236.907    99694536.949        3269.827          38.000  
  20988433.956   110294917.696        4377.229          35.000  
  21543309.226   113210842.589        4209.348          35.000  
  21789168.280                       -2147.368          25.000  
  23451210.277                       -2507.499          21.000  
 16 10  2  7 57 35.9930000  0  7G26G21G16G27G18G31G25
  18312035.562    96230406.747        1373.630          40.000  
  18956749.735    99618409.102        1152.203          38.000  
  18970614.938    99691267.434        3269.265          38.000  
  20987601.342   110290540.605        4377.032          35.000  
  21542508.409   113206633.181        4208.954          34.000  
  21789577.764                       -2147.175          25.000  
  23451687.118                       -2491.692          21.000  
 16 10  2  7 57 36.9930000  0  6G26G21G16G27G18G25
  18311774.173    96229033.172        1373.356          40.000  
  18956530.355    99617257.350        1151.295          38.000  
  18969992.816    99687998.133        3269.195          38.000  
  20986768.450   110286163.486        4376.852          36.000  
  21541707.228   113202423.687        4209.559          35.000  
  23452160.796                       -2497.929          21.000  
 16 10  2  7 57 37.9930000  0  7G26G21G16G27G18G31G25
  18311513.103    96227660.204        1372.613          40.000  
  18956311.414    99616106.024        1151.012          38.000  
  18969370.693    99684729.321        3268.347          38.000  
  20985935.604   110281786.515        4376.372          36.000  
  21540906.511   113198214.396        4209.089          35.000  
  21790398.963                       -2148.934          26.000  
  23452638.189                       -2510.240          21.000  
 16 10  2  7 57 38.9930000  0  7G26G21G16G27G18G25G29
  18311252.153    96226287.948        1371.550          36.000  
  18956092.537    99614955.363        1149.956          34.000  
  18968748.938    99681461.115        3267.271          34.000  
  20985102.486   110277409.789        4376.401          31.000  
  21540105.553   113194005.379        4209.088          31.000  
  23453116.245                       -2511.771          20.000  
  20504500.379                       -1650.231          18.000  
 16 10  2  7 57 39.9930000  0  6G26G21G16G27G18G25
  18310991.362    96224916.805        1370.564          37.000  
  18955873.805    99613805.609        1149.536          35.000  
  18968127.100    99678193.848        3266.730          35.000  
  20984269.500   110273033.776        4375.552          32.000  
  21539304.788   113189797.079        4208.524          32.000  
  23453594.623                       -2504.112          19.000  
 16 10  2  7 57 40.9930000  0  6G26G21G16G27G18G25
  18310730.732    96223546.232        1370.008          37.000  
  18955655.024    99612656.329        1149.106          35.000  
  18967505.475    99674927.003        3267.141          35.000  
  20983436.890   110268657.844        4376.375          32.000  
  21538504.013   113185588.925        4208.264          32.000  
  23454069.754                       -2504.350          18.000  
 16 10  2  7 57 41.9930000  0  7G26G21G16G27G18G31G25
  18310470.339    96222176.227        1369.111          37.000  
  18955436.804    99611507.490        1148.274          36.000  
  18966883.983    99671660.632        3266.133          35.000  
  20982604.461   110264282.082        4375.509          33.000  
  21537703.229   113181380.918        4207.436          32.000  
  21792030.226                       -2145.683          22.000  
  23454546.045                       -2504.489          18.000  
 16 10  2  7 57 42.9930000  0  7G26G21G16G27G18G31G25
  18310210.038    96220806.601        1369.693          37.000  
  18955218.328    99610358.954        1148.551          36.000  
  18966262.370    99668394.556        3265.638          35.000  
  20981771.571   110259906.286        4376.092          32.000  
  21536902.562   113177172.850        4208.803          33.000  
  21792442.086                       -2151.380          22.000  
  23455021.479                       -2503.851          18.000  
 16 10  2  7 57 43.9930000  0  7G26G21G16G27G18G31G25
  18309949.534    96219437.388        1369.086          37.000  
  18954999.465    99609210.692        1148.098          36.000  
  18965640.973    99665128.695        3265.217          35.000  
  20980938.696   110255530.464        4375.559          32.000  
  21536101.835   113172964.812        4208.513          33.000  
  21792853.312                       -2145.541          23.000  
  23455497.607                       -2506.813          18.000  
 16 10  2  7 57 44.9930000  0  7G26G21G16G27G18G31G25
  18309688.867    96218068.759        1368.482          38.000  
  18954781.063    99608062.872        1147.413          36.000  
  18965019.672    99661863.257        3265.187          35.000  
  20980105.883   110251154.775        4375.463          32.000  
  21535301.062   113168756.900        4208.318          33.000  
  21793260.081                       -2149.857          22.000  
  23455974.551                       -2504.489          17.000  
 16 10  2  7 57 45.9930000  0  7G26G21G16G27G18G31G25
  18309428.756    96216700.886        1366.075          36.000  
  18954562.759    99606915.689        1146.427          36.000  
  18964398.291    99658598.446        3264.189          27.000  
  20979272.140                        4373.276          25.000  
  21534500.876   113164549.528        4205.582          28.000  
  21793667.779                       -2148.741          21.000  
  23456451.686                       -2494.534          17.000  
 16 10  2  7 57 46.9930000  0  6G26G21G16G27G18G25
  18309168.887    96215334.353        1365.846          36.000  
  18954344.857    99605770.000        1144.625          34.000  
  18963774.593                        3264.959          24.000  
  20978441.693                        4384.968          22.000  
  21533702.134   113160343.271        4206.217          27.000  
  23456929.415                       -2511.340          13.000  
 16 10  2  7 57 47.9930000  0  4G26G16G27G31
  18308908.871    96213968.378        1367.378          37.000  
  18963159.105    99652044.0763       3264.671          32.000  
  20977608.417                        4377.404          26.000  
  21794471.200   114530719.0632      -2147.473          27.000  
 16 10  2  7 57 48.9930000  0  7G26G21G16G27G18G31G25
  18308648.728    96212602.217        1363.941          34.000  
  18953909.436    99603466.0091       1143.497          38.000  
  18962536.407    99648781.2632       3257.736          27.000  
  20976776.225                        4377.586          26.000  
  21532099.591                        4204.873          29.000  
  21794867.209   114532865.2542      -2144.788          32.000  
  23457881.862                       -2500.717          17.000  
 16 10  2  7 57 49.9930000  0  7G26G21G16G27G18G31G25
  18308388.965    96211236.181        1367.048          37.000  
  18953691.713    99602320.817        1145.669          36.000  
  18961919.459    99645519.4452       3263.583          35.000  
  20975942.160                        4373.088          26.000  
  21531300.048   113147744.8543       4209.131          29.000  
  21795279.687                       -2148.334          27.000  
  23458356.738                       -2498.576          18.000  
 16 10  2  7 57 50.9930000  0  8G26G21G16G20G27G18G31G25
  18308129.625    96209870.327        1366.130          43.000  
  18953474.269    99601176.923        1143.157          41.000  
  18961294.867    99642256.4922       3262.977          40.000  
  20054535.093                        2046.356          24.000  
  20975110.510                        4384.729          26.000  
  21530499.869   113143537.9482       4205.730          35.000  
  21795691.995                       -2142.316          27.000  
  23458831.525                       -2501.915          20.000  
 16 10  2  7 57 51.9930000  0  7G26G21G16G20G18G31G25
  18307870.056    96208505.167        1364.190          45.000  
  18953256.727    99600034.105        1142.250          42.000  
  18960677.600    99638993.8402       3262.307          41.000  
  20054151.682                        2043.945          38.000  
  21529696.953   113139331.9622       4206.129          38.000  
  21796093.595   114539244.6743      -2143.964          36.000  
  23459308.147                       -2510.470          22.000  
 16 10  2  7 57 52.9930000  0  8G26G21G16G20G18G31G25G29
  18307610.706    96207140.225        1364.777          43.000  
  18953039.447    99598891.813        1142.538          41.000  
  18960054.992    99635730.9622       3262.838          39.000  
  20053762.869   105383234.3102       2044.395          40.000  
  21528900.157   113135126.5192       4204.710          41.000  
  21796505.187                       -2144.309          34.000  
  23459786.739                       -2499.611          22.000  
  20508876.410                       -1656.654          29.000  
 16 10  2  7 57 53.9930000  0  9G26G21G16G20G18G31G 5G25G29
  18307351.278    96205775.798        1364.906          39.000  
  18952822.538    99597750.350        1142.674          40.000  
  18959434.422    99632467.7652       3263.955          35.000  
  20053372.782   105381191.0112       2044.423          36.000  
  21528100.020   113130922.1162       4203.957          39.000  
  21796917.635                       -2150.756          24.000  
  22227597.339                        -856.175          30.000  
  23460262.325                       -2505.535          21.000  
  20509202.437   107776531.3122      -1658.087          29.000  
 16 10  2  7 57 54.9930000  0  8G26G21G16G20G18G31G25G29
  18307091.837    96204411.616        1364.912          40.000  
  18952605.691    99596609.027        1141.069          40.000  
  18958812.979    99629204.451        3263.847          35.000  
  20052983.470   105379147.8192       2043.167          37.000  
  21527301.025   113126717.8692       4203.701          34.000  
  21797320.876                       -2148.014          33.000  
  23460740.265                       -2493.810          20.000  
  20509516.502   107778236.6393      -1656.777          34.000  
 16 10  2  7 57 55.9930000  0  8G26G21G16G20G18G31G25G29
  18306832.701    96203047.780        1363.032          40.000  
  18952388.340    99595467.752        1140.055          40.000  
  18958192.207    99625972.4263       3262.772          35.000  
  20052594.798   105377105.0722       2042.233          37.000  
  21526499.127   113122514.1062       4201.232          33.000  
  21797729.471                       -2148.871          28.000  
  23461216.907                       -2513.450          18.000  
  20509829.775   107779894.6252      -1658.413          35.000  
 16 10  2  7 57 56.9930000  0  8G26G21G16G20G18G31G25G29
  18306573.347    96201684.872        1361.210          40.000  
  18952171.543    99594327.615        1139.194          40.000  
  18957571.362    99622709.3942       3261.291          35.000  
  20052209.743   105375063.5082       2039.174          29.000  
  21525699.871   113118312.2612       4200.382          34.000  
  21798136.502                       -2150.018          28.000  
  23461691.707                       -2513.450          15.000  
  20510142.912                       -1650.989          27.000  
 16 10  2  7 57 57.9930000  0  9G26G21G16G20G18G31G 5G25G29
  18306313.786    96200323.148        1362.171          42.000  
  18951954.763    99593188.302        1139.766          40.000  
  18956950.233    99619446.7782       3262.846          37.000  
  20051819.481   105373022.0033       2042.321          37.000  
  21524899.059   113114111.9882       4199.916          36.000  
  21798545.164   114552127.2412      -2149.524          33.000  
  22228242.110   116810200.2452       -857.824          32.000  
  23462169.406                       -2505.324          16.000  
  20510459.235   107783190.5643      -1657.364          32.000  
 16 10  2  7 57 58.9930000  0  9G26G21G16G20G18G31G 5G25G29
  18306055.133    96198962.769        1360.177          43.000  
  18951738.051    99592048.905        1138.841          41.000  
  18956330.674    99616185.6762       3260.930          41.000  
  20051432.866   105370978.6802       2042.911          34.000  
  21524102.315   113109911.2002       4201.007          37.000  
  21798956.653   114554278.9822      -2150.049          28.000  
  22228411.738   116811057.5392       -856.729          35.000  
  23462647.696                       -2536.574          16.000  
  20510775.025   107784846.1352      -1655.774          35.000  
 16 10  2  7 57 59.9930000  0  9G26G21G16G20G18G31G 5G25G29
  18305796.014    96197601.636        1360.423          40.000  
  18951521.125    99590909.301        1138.954          39.000  
  18955709.333    99612922.9432       3262.406          37.000  
  20051041.351   105368936.4392       2041.949          37.000  
  21523301.886   113105711.0532       4199.319          37.000  
  21799371.618                       -2151.239          28.000  
  22228577.157   116811961.0263       -854.706          35.000  
  23463124.882                       -2513.377          16.000  
  20511085.987   107786502.2312      -1655.351          40.000  
 16 10  2  7 58  0.9930000  0  9G26G21G16G20G18G31G 5G25G29
  18305537.379    96196241.872        1359.362          44.000  
  18951304.549    99589770.420        1139.277          40.000  
  18955089.058    99609661.4592       3261.310          42.000  
  20050654.000   105366893.8722       2042.173          35.000  
  21522503.131   113101510.0211       4201.160          38.000  
  21799773.243                       -2154.070          28.000  
  22228739.423   116812817.2232       -856.000          35.000  
  23463602.074                       -2510.228          18.000  
  20511402.662   107788157.4382      -1655.814          35.000  
 16 10  2  7 58  1.9930000  0  8G26G21G16G20G18G31G25G29
  18305278.506    96194882.127        1359.633          40.000  
  18951087.742    99588631.397        1139.183          39.000  
  18954466.680    99606399.9412       3261.258          37.000  
  20050264.342   105364851.6322       2043.191          37.000  
  21521701.431   113097309.659        4201.254          35.000  
  21800179.657   114560716.5913      -2151.105          35.000  
  23464081.077                       -2508.187          16.000  
  20511716.223   107789812.4282      -1653.862          36.000  
 16 10  2  7 58  2.9930000  0  9G26G21G16G20G18G31G 5G25G29
  18305019.884    96193523.115        1358.525          43.000  
  18950871.144    99587492.781        1138.457          37.000  
  18953845.941    99603139.3122       3260.179          38.000  
  20049875.418   105362809.6292       2041.733          34.000  
  21520904.662   113093108.902        4201.683          32.000  
  21800593.038                       -2152.802          28.000  
  22229055.845   116814476.1893       -856.569          32.000  
  23464558.914                       -2496.316          14.000  
  20512032.927   107791467.2512      -1653.748          33.000  
 16 10  2  7 58  3.9930000  0  8G26G21G16G20G18G31G 5G29
  18304761.421    96192164.585        1358.243          38.000  
  18950654.718    99586354.510        1139.204          35.000  
  18953225.243    99599879.1012       3259.364          35.000  
  20049489.736   105360768.3182       2040.778          32.000  
  21520101.183                        4201.567          25.000  
  21801007.739                       -2152.301          26.000  
  22229220.651   116815334.2432       -859.409          37.000  
  20512348.478   107793122.2292      -1654.399          33.000  
 16 10  2  7 58  4.9930000  0  7G26G21G16G20G31G 5G29
  18304503.126    96190807.031        1358.500          40.000  
  18950438.156    99585216.870        1138.758          38.000  
  18952605.068    99596620.1672       3259.475          38.000  
  20049097.295   105358727.5572       2040.796          32.000  
  21801427.148                       -2149.447          25.000  
  22229385.717   116816193.2002       -859.329          38.000  
  20512657.546   107794777.3692      -1654.035          32.000  
 16 10  2  7 58  5.9930000  0  9G26G21G16G20G27G18G31G 5G29
  18304244.993    96189450.053        1355.860          39.000  
  18950221.685    99584079.554        1136.338          35.000  
  18951985.086    99593361.6262       3258.204          37.000  
  20048710.456   105356687.1782       2038.843          30.000  
  20962659.492                        4370.688          25.000  
  21518506.081                        4199.515          26.000  
  21801845.304                       -2149.513          23.000  
  22229550.987   116817052.5492       -860.532          34.000  
  20512977.842   107796432.3982      -1655.003          34.000  
 16 10  2  7 58  6.9930000  0  8G26G21G16G20G27G18G31G29
  18303986.978    96188093.876        1355.196          39.000  
  18950005.236    99582943.051        1135.773          36.000  
  18951365.362    99590103.940        3256.181          36.000  
  20048324.603   105354656.4143       2037.860          34.000  
  20961820.582                        4370.688          24.000  
  21517708.314                        4199.973          26.000  
  21802260.234                       -2156.974          22.000  
  20513289.644   107798087.9962      -1655.298          30.000  
 16 10  2  7 58  7.9930000  0  8G26G21G16G20G27G18G31G29
  18303728.890    96186738.298        1355.531          40.000  
  18949788.990    99581806.864        1136.120          36.000  
  18950745.573    99586846.707        3257.938          39.000  
  20047936.805   105352617.4262       2037.408          34.000  
  20960983.914                        4370.688          23.000  
  21516908.882                        4201.467          27.000  
  21802667.401                       -2153.999          20.000  
  20513606.013   107799743.3932      -1654.549          35.000  
 16 10  2  7 58  8.9930000  0  8G26G21G16G27G18G31G 5G29
  18303470.933    96185382.965        1354.801          36.000  
  18949572.723    99580670.648        1135.662          34.000  
  18950126.051    99583589.864        3256.784          34.000  
  20960150.295                        4370.688          22.000  
  21516107.225                        4199.343          26.000  
  21803078.097                       -2155.362          20.000  
  22230046.752                        -856.965          21.000  
  20513917.626   107801398.5072      -1654.572          30.000  
 16 10  2  7 58  9.9930000  0  7G26G21G16G18G31G 5G29
  18303213.267    96184028.267        1355.266          39.000  
  18949356.653    99579534.812        1135.463          36.000  
  18949506.579    99580333.620        3257.354          39.000  
  21515303.827                        4200.702          27.000  
  21803488.505                       -2150.643          22.000  
  22230203.059                        -849.641          20.000  
  20514233.327   107803053.7572      -1658.649          31.000  
 16 10  2  7 58 10.9930000  0  7G26G21G16G20G18G31G29
  18302955.248    96182673.793        1354.186          39.000  
  18949140.626    99578399.012        1135.937          36.000  
  18948886.927    99577077.614        3256.022          39.000  
  20046774.725                        2038.905          32.000  
  21514506.002                        4202.193          28.000  
  21803900.887                       -2154.698          22.000  
  20514553.209   107804704.0533      -1655.905          35.000  
 16 10  2  7 58 11.9930000  0  7G26G21G16G20G18G31G29
  18302697.634    96181320.429        1353.447          39.000  
  18948924.769    99577264.207        1134.332          36.000  
  18948267.127    99573822.676        3255.176          39.000  
  20046387.875   105344478.3423       2036.820          35.000  
  21513709.046                        4200.418          30.000  
  21804312.869                       -2156.449          21.000  
  20514867.735   107806359.3752      -1655.377          34.000  
 16 10  2  7 58 12.9930000  0  6G26G21G16G18G31G29
  18302439.999    96179967.649        1351.773          40.000  
  18948708.659    99576129.595        1133.095          36.000  
  18947647.805    99570568.457        3253.047          37.000  
  21512911.311   113051079.2593       4199.258          29.000  
  21804723.305                       -2137.673          19.000  
  20515180.099   107808014.5842      -1656.425          32.000  
 16 10  2  7 58 13.9930000  0  6G26G21G16G18G31G 5
  18302182.706    96178615.507        1351.237          40.000  
  18948492.776    99574995.459        1132.983          36.000  
  18947028.488    99567314.463        3253.371          39.000  
  21512109.637   113046878.1712       4200.562          28.000  
  21805132.993                       -2155.053          21.000  
  22230863.016                        -852.000          22.000  
 16 10  2  7 58 14.9930000  0  5G26G21G16G31G 5
  18301925.491    96177264.179        1350.461          40.000  
  18948277.296    99573862.270        1132.328          36.000  
  18946409.399    99564061.232        3252.112          39.000  
  21805544.110                       -2160.788          22.000  
  22231034.091                        -852.000          22.000  
 16 10  2  7 58 15.9930000  0  6G26G21G16G31G29G 5
  18301668.353    96175913.398        1350.397          40.000  
  18948061.623    99572729.371        1132.330          37.000  
  18945790.712    99560808.375        3251.440          38.000  
  21805955.097                       -2153.867          22.000  
  20516131.016   107812995.6043      -1655.832          32.000  
  22231201.657                        -852.000          28.000  
 16 10  2  7 58 16.9930000  0  5G26G21G16G31G 5
  18301411.543    96174563.137        1350.340          40.000  
  18947845.926    99571596.792        1132.484          37.000  
  18945172.115    99557556.212        3252.380          38.000  
  21806365.404                       -2154.806          20.000  
  22231365.631                        -844.554          27.000  
 16 10  2  7 58 17.9930000  0  6G26G21G16G31G29G 5
  18301154.852    96173213.703        1349.469          40.000  
  18947630.264    99570465.187        1131.471          37.000  
  18944553.446    99554304.428        3252.030          39.000  
  21806775.466                       -2147.689          21.000  
  20516760.480   107816303.7422      -1657.822          31.000  
  22231535.429                        -867.137          24.000  
 16 10  2  7 58 18.9930000  0  5G26G21G16G31G 5
  18300898.375    96171864.929        1349.385          40.000  
  18947414.763    99569334.014        1131.610          37.000  
  18943934.768    99551053.168        3251.719          39.000  
  21807186.841                       -2149.267          20.000  
  22231703.442                        -867.137          22.000  
 16 10  2  7 58 19.9930000  0  6G26G21G16G31G29G 5
  18300641.992    96170516.800        1348.227          39.000  
  18947199.858    99568203.292        1130.600          37.000  
  18943316.266    99547802.381        3250.943          39.000  
  21807596.946                       -2154.092          20.000  
  20517383.416   107819576.6522      -1658.913          30.000  
  22231871.442                        -867.137          22.000  
 16 10  2  7 58 20.9930000  0  6G26G21G16G31G29G 5
  18300385.535    96169169.060        1347.170          40.000  
  18946984.793    99567072.862        1129.552          37.000  
  18942697.785    99544551.980        3250.255          39.000  
  21808006.790                       -2159.916          22.000  
  20517698.569   107821233.3652      -1657.215          29.000  
  22232040.115                        -867.137          22.000  
 16 10  2  7 58 21.9930000  0  6G26G21G16G31G29G 5
  18300129.469    96167821.781        1346.724          40.000  
  18946769.847    99565942.903        1129.567          37.000  
  18942079.113    99541301.889        3249.810          39.000  
  21808415.078                       -2137.276          21.000  
  20518018.188   107822890.7042      -1657.339          29.000  
  22232205.963                        -867.137          22.000  
 16 10  2  7 58 22.9930000  0  6G26G21G16G31G29G 5
  18299872.978    96166475.478        1345.641          40.000  
  18946554.806    99564813.518        1128.336          36.000  
  18941461.023    99538052.796        3248.083          38.000  
  21808822.965                       -2161.809          19.000  
  20518334.233   107824547.8192      -1656.577          33.000  
  22232374.123                        -875.250          25.000  
 16 10  2  7 58 23.9930000  0  6G26G21G16G18G31G29
  18299616.720    96165129.694        1345.396          40.000  
  18946340.210    99563684.719        1128.158          37.000  
  18940842.806    99534803.969        3248.415          38.000  
  21504115.722                        4198.533          28.000  
  21809234.168                       -2158.490          18.000  
  20518650.973   107826205.5212      -1657.046          31.000  
 16 10  2  7 58 24.9930000  0  6G26G21G16G18G31G29
  18299360.793    96163784.613        1344.857          40.000  
  18946125.597    99562556.335        1128.498          36.000  
  18940224.672    99531555.819        3247.527          38.000  
  21503314.956   113000682.1623       4198.888          28.000  
  21809645.887                       -2162.875          19.000  
  20518968.260   107827862.7781      -1657.122          34.000  
 16 10  2  7 58 25.9930000  0  6G26G21G16G18G31G29
  18299104.845    96162439.833        1344.334          40.000  
  18945911.105    99561428.160        1128.425          37.000  
  18939606.521    99528307.820        3247.478          39.000  
  21502517.542   112996483.2512       4198.236          29.000  
  21810056.012                       -2152.923          19.000  
  20519279.004   107829520.467       -1658.000          31.000  
 16 10  2  7 58 26.9930000  0  6G26G21G16G18G31G29
  18298848.900    96161095.841        1343.330          40.000  
  18945696.440    99560300.591        1127.394          37.000  
  18938988.723    99525060.605        3246.448          39.000  
  21501720.488   112992284.3812       4199.060          28.000  
  21810466.389                       -2143.901          20.000  
  20519597.242   107831178.259       -1657.690          32.000  
 16 10  2  7 58 27.9930000  0  7G26G21G16G20G18G31G29
  18298593.266    96159752.401        1342.923          40.000  
  18945481.898    99559173.649        1126.433          36.000  
  18938370.945    99521813.765        3246.142          40.000  
  20040201.798                        2029.812          33.000  
  21500920.094   112988085.7642       4197.151          29.000  
  21810876.039                       -2152.373          20.000  
  20519914.991   107832836.710       -1658.182          32.000  
 16 10  2  7 58 28.9930000  0  5G26G21G16G18G29
  18298337.471    96158409.618        1342.065          40.000  
  18945267.253    99558047.064        1126.647          36.000  
  18937753.238    99518567.418        3245.458          40.000  
  21500119.416   112983887.4702       4198.262          30.000  
  20520223.481   107834495.140       -1658.494          31.000  
 16 10  2  7 58 29.9930000  0  5G26G21G16G31G29
  18298081.748    96157067.521        1342.316          40.000  
  18945052.838    99556921.107        1126.146          35.000  
  18937135.529    99515321.557        3246.166          38.000  
  21811695.246                       -2146.081          21.000  
  20520541.935   107836153.464       -1657.822          28.000  
 16 10  2  7 58 30.9930000  0  5G26G21G16G31G29
  18297826.496    96155725.802        1340.932          39.000  
  18944838.235    99555795.212        1125.639          35.000  
  18936517.971    99512076.020        3244.749          39.000  
  21812106.066                       -2159.014          21.000  
  20520857.395   107837811.731       -1658.619          31.000  
 16 10  2  7 58 31.9930000  0  5G26G21G16G31G29
  18297571.256    96154384.688        1340.585          39.000  
  18944624.042    99554670.024        1125.276          35.000  
  18935900.599    99508830.949        3244.640          39.000  
  21812518.201                       -2153.121          19.000  
  20521173.794   107839470.621       -1660.453          31.000  
 16 10  2  7 58 32.9930000  0  7G26G21G16G27G18G31G29
  18297316.264    96153044.513        1339.113          37.000  
  18944409.975    99553545.381        1124.480          35.000  
  18935283.107    99505586.480        3244.432          37.000  
  20940157.155                        4368.639          30.000  
  21496929.964                        4197.356          27.000  
  21812929.489                       -2156.591          18.000  
  20521487.542                       -1657.275          29.000  
 16 10  2  7 58 33.9930000  0  6G26G21G16G27G31G29
  18297061.784    96151705.399        1339.057          35.000  
  18944196.057    99552420.969        1124.314          33.000  
  18934666.197    99502343.470        3243.171          36.000  
  20939316.937                        4368.318          29.000  
  21813342.589                       -2185.151          18.000  
  20521805.065   107842802.1433      -1657.136          30.000  
 16 10  2  7 58 34.9930000  0  5G26G21G16G27G29
  18296807.376    96150366.632        1338.925          30.000  
  18943985.141    99551296.565        1124.227          27.000  
  18934046.896    99499101.504        3241.605          30.000  
  20938484.419                        4367.964          27.000  
  20522120.353                       -1658.370          28.000  
 16 10  2  7 58 35.9930000  0  5G26G21G16G27G29
  18296555.434    96149047.1693       1335.950          30.000  
  18943770.886    99550174.648        1122.905          27.000  
  18933430.866    99495861.555        3241.420          29.000  
  20937648.421                        4367.369          26.000  
  20522435.899                       -1659.351          28.000  
 16 10  2  7 58 36.9930000  0  5G26G21G16G27G29
  18296302.645    96147710.8782       1338.198          29.000  
  18943558.472    99549052.793        1123.735          27.000  
  18932817.515    99492621.904        3241.805          29.000  
  20936818.541                        4367.654          24.000  
  20522750.796   107847787.7772      -1658.178          27.000  
 16 10  2  7 58 37.9930000  0  4G26G21G18G29
  18296044.057    96146374.1042       1337.186          28.000  
  18943344.752                        1124.692          25.000  
  21492939.301                        4231.077          21.000  
  20523068.443                       -1662.676          26.000  
 16 10  2  7 58 38.9930000  0  4G26G21G18G29
  18295790.994    96145038.0392       1336.203          26.000  
  18943128.594                        1124.267          23.000  
  21492134.760                        4229.399          18.000  
  20523381.013                       -1659.230          25.000  
 16 10  2  7 58 39.9930000  0  3G26G21G29
  18295535.967                        1336.698          25.000  
  18942915.599                        1119.815          22.000  
  20523700.339                       -1655.872          24.000  
 16 10  2  7 58 40.9930000  0  4G26G21G18G29
  18295284.621                        1335.483          26.000  
  18942702.313                        1126.771          21.000  
  21490535.233                        4199.304          17.000  
  20524015.874                       -1658.709          25.000  
 16 10  2  7 58 41.9930000  0  4G26G21G18G29
  18295032.569                        1333.920          26.000  
  18942489.215                        1116.870          21.000  
  21489734.947                        4189.492          16.000  
  20524334.533                       -1659.877          25.000  
 16 10  2  7 58 42.9930000  0  4G26G21G18G29
  18294779.858                        1331.833          26.000  
  18942276.306                        1113.982          21.000  
  21488936.401                        4210.451          15.000  
  20524649.975                       -1660.109          24.000  
 16 10  2  7 58 43.9930000  0  5G26G21G20G18G29
  18294524.721                        1331.948          26.000  
  18942062.504                        1125.200          21.000  
  20034046.223                        2021.133          23.000  
  21488134.919                        4200.542          15.000  
  20524966.060                       -1659.662          24.000  
 16 10  2  7 58 44.9930000  0  4G26G21G18G29
  18294270.529                        1335.030          26.000  
  18941850.772                        1114.579          20.000  
  21487339.335                        4195.213          15.000  
  20525283.421                       -1657.708          24.000  
 16 10  2  7 58 45.9930000  0  4G26G21G18G29
  18294015.485                        1330.843          26.000  
  18941637.192                        1121.689          21.000  
  21486542.776                        4191.623          16.000  
  20525600.798                       -1661.148          24.000  
 16 10  2  7 58 46.9930000  0  4G26G21G18G29
  18293762.874                        1330.866          26.000  
  18941425.630                        1118.808          22.000  
  21485743.207                        4194.737          17.000  
  20525916.591                       -1661.047          23.000  
 16 10  2  7 58 47.9930000  0  4G26G21G18G29
  18293511.386                        1331.131          26.000  
  18941214.079                        1114.224          21.000  
  21484944.191                        4199.293          16.000  
  20526230.869                       -1661.052          21.000  
 16 10  2  7 58 48.9930000  0  4G26G21G18G29
  18293258.589                        1329.966          26.000  
  18941002.859                        1117.449          21.000  
  21484145.201                        4188.814          14.000  
  20526548.283                       -1661.085          20.000  
 16 10  2  7 58 49.9930000  0  5G26G21G27G18G29
  18293005.495    96130393.4893       1329.607          27.000  
  18940790.598                        1114.995          22.000  
  20926020.233                        4364.852          26.000  
  21483346.778                        4201.011          13.000  
  20526865.718                       -1657.610          20.000  
 16 10  2  7 58 50.9930000  0  5G26G21G16G18G29
  18292755.127                        1332.354          26.000  
  18940578.725                        1117.669          29.000  
  18924192.015                        3236.705          26.000  
  21482547.807                        4190.985          14.000  
  20527180.833                       -1659.227          21.000  
 16 10  2  7 58 51.9930000  0  4G26G16G18G29
  18292500.324                        1313.937          24.000  
  18923575.406                        3246.821          25.000  
  21481749.524                        4210.795          13.000  
  20527495.763                       -1660.132          25.000  
 16 10  2  7 58 52.9930000  0  5G26G21G16G27G29
  18292241.756    96126379.1593       1327.611          39.000  
  18940150.297                        1117.047          34.000  
  18922960.091    99440825.4883       3233.279          35.000  
  20923530.426   109953893.8303       4364.561          36.000  
  20527810.366   107874378.6363      -1659.788          32.000  
 16 10  2  7 58 53.9930000  0  6G26G21G16G20G18G29
  18291990.883    96125051.1412       1328.024          30.000  
  18939936.719                        1115.594          29.000  
  18922341.854    99437591.8262       3233.969          26.000  
  20030209.942   105259463.6412       2011.470          36.000  
  21480156.714   112878985.3163       4196.994          32.000  
  20528120.593   107876039.8902      -1660.397          35.000  
 16 10  2  7 58 54.9930000  0  7G26G21G16G20G27G18G29
  18291733.856    96123723.6702       1327.609          31.000  
  18939722.482    99528923.6063       1115.656          24.000  
  18921730.170    99434358.4722       3233.077          32.000  
  20029827.899   105257452.6802       2011.832          34.000  
  20921870.519                        4363.690          27.000  
  21479358.894                        4193.559          25.000  
  20528439.220   107877676.0643      -1659.017          35.000  
 16 10  2  7 58 55.9930000  0  7G26G21G16G20G27G18G29
  18291481.391    96122396.9062       1326.252          37.000  
  18939508.883    99527808.8252       1114.565          36.000  
  18921114.198    99431125.7502       3232.025          35.000  
  20029446.788   105255442.3382       2009.921          39.000  
  20921043.300   109940806.8032       4364.816          31.000  
  21478553.355   112870559.5993       4195.861          34.000  
  20528756.403   107879336.9932      -1661.009          39.000  
 16 10  2  7 58 56.9930000  0  7G26G21G16G20G27G18G29
  18291232.236    96121070.7442       1326.289          41.000  
  18939303.631    99526694.4972       1114.385          44.000  
  18920504.475    99427893.2452       3232.606          37.000  
  20029065.870   105253432.4992       2009.616          46.000  
  20920209.832   109936442.5642       4364.794          32.000  
  21477755.890   112866364.3952       4195.716          39.000  
  20529071.610   107880997.8462      -1660.907          47.000  
 16 10  2  7 58 57.9930000  0  7G26G21G16G20G27G18G29
  18290982.526    96119744.8922       1324.324          30.000  
  18939088.243    99525579.8982       1115.055          32.000  
  18919886.659    99424674.9933       3230.365          24.000  
  20028679.760   105251422.4112       2011.987          32.000  
  20919375.514   109932078.9122       4360.236          29.000  
  21476961.015   112862168.2532       4197.103          33.000  
  20529388.245   107882658.0802      -1658.664          36.000  
 16 10  2  7 58 58.9930000  0  9G26G21G16G20G27G18G31G 5G29
  18290726.427    96118420.4212       1327.538          40.000  
  18938875.334                        1115.117          39.000  
  18919268.641    99421427.7062       3233.674          37.000  
  20028300.464   105249413.1152       2009.175          46.000  
  20918549.691   109927715.8142       4365.682          32.000  
  21476163.102   112857969.5392       4195.119          43.000  
  21823610.631                       -2148.000          24.000  
  22238386.566                        -891.430          28.000  
  20529702.749   107884318.5062      -1660.423          46.000  
 16 10  2  7 58 59.9930000  0  9G26G21G16G20G27G18G31G 5G29
  18290469.198    96117095.5272       1323.903          32.000  
  18938665.781    99523347.7473       1113.190          38.000  
  18918651.748    99418196.2212       3232.292          34.000  
  20027919.560   105247405.1842       2007.929          45.000  
  20917722.571   109923351.2642       4364.310          31.000  
  21475364.421   112853774.0732       4195.649          39.000  
  21824019.905                       -2158.132          24.000  
  22238573.164                        -888.584          28.000  
  20530021.694   107885979.8342      -1661.343          44.000  
 16 10  2  7 59  0.9930000  0  9G26G21G16G20G27G18G31G 5G29
  18290214.797    96115770.8311       1323.813          35.000  
  18938454.222    99522235.0142       1112.465          40.000  
  18918039.031    99414965.4852       3231.583          30.000  
  20027537.580   105245397.9682       2007.020          44.000  
  20916899.089   109918986.9812       4364.564          31.000  
  21474568.739   112849578.8182       4195.296          39.000  
  21824425.551                       -2158.132          22.000  
  22238754.612   116865443.9173       -888.230          28.000  
  20530337.311   107887641.3872      -1661.578          44.000  
 16 10  2  7 59  1.9930000  0 10G26G21G16G20G27G18G31G 5G25G29
  18289972.304    96114447.198        1322.779          37.000  
  18938238.271    99521122.9512       1111.708          39.000  
  18917433.079    99411735.0422       3230.787          34.000  
  20027154.214   105243391.8622       2005.547          42.000  
  20916062.064                        4364.977          26.000  
  21473769.491   112845384.0882       4194.459          38.000  
  21824849.483                       -2158.132          21.000  
  22238917.454   116866332.9872       -889.636          33.000  
  23492627.941                       -2505.738          21.000  
  20530653.245   107889303.5372      -1662.502          42.000  
 16 10  2  7 59  2.9930000  0 10G26G21G16G20G27G18G31G 5G25G29
  18289728.945    96113124.160        1322.605          34.000  
  18938030.007    99520011.6372       1110.992          34.000  
  18916815.483    99408504.4202       3230.822          31.000  
  20026772.434   105241386.9232       2004.594          42.000  
  20915233.230                        4365.605          27.000  
  21472970.880   112841190.7242       4193.000          35.000  
  21825245.362                       -2158.132          21.000  
  22239087.170   116867222.1102       -890.325          28.000  
  23493110.833                       -2508.148          22.000  
  20530967.334   107890966.3722      -1662.954          40.000  
 16 10  2  7 59  3.9930000  0  9G26G21G16G20G27G18G31G25G29
  18289471.779    96111801.163        1322.621          29.000  
  18937820.248    99518900.4742       1111.170          29.000  
  18916194.057    99405273.5722       3230.979          29.000  
  20026390.847   105239382.6902       2004.040          39.000  
  20914401.113                        4366.323          27.000  
  21472174.027   112836997.0622       4195.122          25.000  
  21825658.045                       -2158.132          20.000  
  23493591.463                       -2501.363          22.000  
  20531284.066   107892629.5272      -1663.447          39.000  
 16 10  2  7 59  4.9930000  0  8G26G21G16G20G18G31G25G29
  18289223.065    96110478.774        1322.935          29.000  
  18937605.680    99517789.6042       1110.751          33.000  
  18915581.550    99402043.2622       3230.924          29.000  
  20026009.394   105237378.3522       2004.303          40.000  
  21471373.995   112832803.5972       4192.173          31.000  
  21826073.640                       -2158.132          18.000  
  23494072.106                       -2500.758          21.000  
  20531600.445   107894292.0442      -1662.058          41.000  
 16 10  2  7 59  5.9930000  0  9G26G21G16G20G27G18G31G25G29
  18288961.111    96109156.664        1320.831          36.000  
  18937396.126    99516678.5012       1109.714          37.000  
  18914966.325    99398813.4692       3228.475          33.000  
  20025627.780   105235373.7762       2002.804          43.000  
  20912736.766   109897172.9693       4364.405          34.000  
  21470575.378   112828609.2442       4194.260          32.000  
  21826484.042                       -2158.132          20.000  
  23494559.910                       -2503.940          28.000  
  20531917.409   107895953.8132      -1663.063          45.000  
 16 10  2  7 59  6.9930000  0 10G26G21G16G20G27G18G31G 5G25G29
  18288713.235    96107836.049        1320.759          34.000  
  18937181.718    99515569.190        1109.734          36.000  
  18914354.510    99395584.6921       3227.868          28.000  
  20025246.917   105233371.7022       2003.055          42.000  
  20911905.642   109892808.7942       4363.160          33.000  
  21469777.459   112824415.6911       4193.793          38.000  
  21826891.845                       -2158.132          21.000  
  22239735.085                        -890.866          29.000  
  23495039.216                       -2503.335          27.000  
  20532234.180   107897617.1301      -1662.484          42.000  
 16 10  2  7 59  7.9930000  0  9G26G21G16G20G27G18G 5G25G29
  18288469.663    96106515.241        1320.208          32.000  
  18936973.724    99514458.982        1110.435          34.000  
  18913737.128    99392356.045        3228.434          26.000  
  20024865.753   105231368.0982       2002.965          41.000  
  20911070.454   109888444.6502       4364.629          32.000  
  21468978.579   112820221.063        4195.537          32.000  
  22239906.354                        -878.211          19.000  
  23495519.791                       -2506.182          25.000  
  20532550.536   107899278.883       -1662.238          39.000  
 16 10  2  7 59  8.9930000  0  9G26G21G16G20G27G18G 5G25G29
  18288217.694    96105194.788        1319.917          34.000  
  18936765.525    99513348.926        1110.450          35.000  
  18913113.427    99389127.984        3227.501          25.000  
  20024484.646   105229365.0152       2002.844          42.000  
  20910242.334   109884080.4622       4364.287          32.000  
  21468181.973   112816026.243        4194.960          37.000  
  22240081.006                        -899.781          18.000  
  23495996.517                       -2501.976          25.000  
  20532866.744   107900940.704       -1661.882          41.000  
 16 10  2  7 59  9.9930000  0  9G26G21G16G20G27G18G 5G25G29
  18287966.238    96103874.924        1319.801          34.000  
  18936552.646    99512239.518        1109.194          34.000  
  18912508.922    99385900.371        3226.988          24.000  
  20024103.484   105227362.9192       2000.862          41.000  
  20909412.711   109879716.1952       4364.125          32.000  
  21467384.146   112811831.933        4193.129          41.000  
  22240251.792                        -892.295          19.000  
  23496477.829                       -2503.262          25.000  
  20533183.167   107902603.010       -1662.752          41.000  
 16 10  2  7 59 10.9930000  0  9G26G21G16G20G27G18G 5G25G29
  18287710.030    96102555.440        1318.876          34.000  
  18936340.543    99511130.999        1108.704          40.000  
  18911894.844    99382671.842        3227.271          27.000  
  20023722.326   105225362.1222       2000.833          44.000  
  20908581.856   109875339.0933       4364.155          34.000  
  21466585.382   112807639.605        4193.082          37.000  
  22240417.912                        -886.668          28.000  
  23496954.980                       -2504.511          24.000  
  20533499.419   107904266.110       -1662.801          45.000  
 16 10  2  7 59 11.9930000  0  8G26G21G16G20G27G18G25G29
  18287459.653    96101236.735        1318.552          36.000  
  18936128.994    99510022.986        1107.989          41.000  
  18911286.066    99379444.295        3228.060          32.000  
  20023341.669   105223362.1682       2000.341          46.000  
  20907750.412   109870974.1262       4364.104          39.000  
  21465789.015   112803446.859        4193.557          41.000  
  23497441.763   123479889.1692      -2503.057          31.000  
  20533815.891   107905929.658       -1662.924          47.000  
 16 10  2  7 59 12.9930000  0  9G26G21G16G20G27G18G 5G25G29
  18287201.926    96099894.1733       1316.597          38.000  
  18935918.350    99508915.992        1105.459          38.000  
  18910668.549    99376233.5903       3225.010          36.000  
  20022960.796   105221363.044        1998.050          44.000  
  20906921.578   109866609.8362       4364.626          34.000  
  21464991.151   112799254.700        4191.633          43.000  
  22240764.904                        -888.279          30.000  
  23497920.636   123482393.6302      -2504.204          28.000  
  20534133.250   107907593.506       -1664.801          33.000  
 16 10  2  7 59 13.9930000  0  8G26G21G16G20G27G18G25G29
  18286957.422    96098575.5802       1318.793          36.000  
  18935707.602    99507808.476        1104.488          36.000  
  18910051.467    99373005.1012       3228.688          36.000  
  20022580.653   105219364.587        1995.248          42.000  
  20906092.734   109862244.0002       4370.622          31.000  
  21464195.813   112795063.769        4188.140          38.000  
  23498400.422                       -2509.402          18.000  
  20534450.371   107909257.481       -1667.108          41.000  
 16 10  2  7 59 14.9930000  0  9G26G21G16G20G27G18G 5G25G29
  18286705.239    96097258.5392       1318.014          34.000  
  18935497.322    99506710.0053       1106.915          38.000  
  18909439.987                        3227.274          33.000  
  20022201.645   105217368.657        1993.082          32.000  
  20905259.240                        4365.724          25.000  
  21463396.779                        4195.782          26.000  
  22241096.807                        -894.631          24.000  
  23498879.109                       -2521.032          17.000  
  20534767.393                       -1669.699          33.000  
 16 10  2  7 59 15.9930000  0  9G26G21G16G20G27G18G 5G25G29
  18286453.134    96095941.9952       1318.777          33.000  
  18935286.704    99505604.3602       1105.895          32.000  
  18908825.840    99366550.9042       3225.335          33.000  
  20021819.747   105215372.170        1996.669          32.000  
  20904426.570                        4364.449          27.000  
  21462591.603   112786679.2663       4192.003          31.000  
  22241263.308                        -893.513          24.000  
  23499352.189                       -2508.385          15.000  
  20535080.310   107912574.4093      -1665.442          33.000  
 16 10  2  7 59 16.9930000  0  8G26G21G16G20G27G18G 5G29
  18286203.009    96094626.0122       1315.553          31.000  
  18935077.272    99504498.6142       1103.985          31.000  
  18908211.775    99363324.9402       3223.985          30.000  
  20021441.338   105213375.319        1996.479          32.000  
  20903597.183                        4364.140          26.000  
  21461799.059   112782487.9202       4191.325          25.000  
  22241431.043                        -893.527          23.000  
  20535399.736   107914238.4792      -1663.065          29.000  
 16 10  2  7 59 17.9930000  0  8G26G21G16G20G27G18G 5G29
  18285956.153    96093310.3362       1315.123          30.000  
  18934867.009    99503393.1512       1105.140          30.000  
  18907595.867    99360099.3472       3224.844          30.000  
  20021060.421   105211379.087        1996.292          31.000  
  20902768.351                        4358.752          24.000  
  21461001.163                        4191.856          24.000  
  22241596.526                        -890.083          23.000  
  20535717.235   107915903.0622      -1663.984          29.000  
 16 10  2  7 59 18.9930000  0  8G26G21G16G20G27G18G 5G29
  18285701.096    96091995.4852       1314.160          29.000  
  18934655.500    99502288.3772       1104.034          30.000  
  18906985.963    99356874.3942       3223.540          29.000  
  20020680.803   105209383.560        1995.287          30.000  
  20901940.258                        4365.530          22.000  
  21460199.930                        4190.393          24.000  
  22241764.058                        -889.753          22.000  
  20536034.912   107917567.5042      -1663.194          30.000  
 16 10  2  7 59 19.9930000  0  8G26G21G16G20G27G18G 5G29
  18285451.638    96090681.0022       1313.743          29.000  
  18934447.166    99501183.9162       1104.160          29.000  
  18906373.970    99353649.5502       3224.150          28.000  
  20020300.160                        1995.125          28.000  
  20901113.803                        4360.226          20.000  
  21459406.978                        4188.433          23.000  
  22241933.692                        -898.006          29.000  
  20536353.480   107919232.2852      -1664.021          30.000  
 16 10  2  7 59 20.9930000  0  8G26G21G16G20G27G18G 5G29
  18285205.967    96089367.1392       1313.305          29.000  
  18934234.446    99500080.0312       1102.843          28.000  
  18905755.614    99350425.1762       3223.461          28.000  
  20019925.324   105205392.4013       1994.326          29.000  
  20900284.682                        4375.805          20.000  
  21458609.786                        4193.358          24.000  
  22242097.972                        -896.760          23.000  
  20536667.731   107920897.0892      -1664.646          29.000  
 16 10  2  7 59 21.9930000  0  7G26G21G16G20G27G18G 5
  18284953.703                        1312.337          28.000  
  18934026.366    99498976.4272       1102.109          28.000  
  18905140.332    99347201.1972       3222.818          28.000  
  20019539.686   105203398.6852       1994.252          30.000  
  20899452.393                        4372.023          20.000  
  21457814.610                        4187.241          24.000  
  22242273.830   116883937.4323       -897.983          31.000  
 16 10  2  7 59 22.9930000  0  8G26G21G16G20G27G18G 5G29
  18284704.823    96086767.1253       1312.063          29.000  
  18933818.935    99497873.3302       1103.142          29.000  
  18904527.234    99343978.0752       3222.281          28.000  
  20019163.385   105201412.7633       1993.103          23.000  
  20898621.351                        4365.318          21.000  
  21457017.564                        4198.937          23.000  
  22242442.679   116884835.1802       -897.715          29.000  
  20537301.320   107924245.9203      -1664.698          31.000  
 16 10  2  7 59 23.9930000  0  8G26G21G16G20G27G18G 5G29
  18284455.745    96085455.2092       1312.081          29.000  
  18933603.719    99496771.0202       1101.831          29.000  
  18903913.765    99340755.4392       3222.432          29.000  
  20018783.483   105199420.9652       1992.091          30.000  
  20897790.523                        4369.883          22.000  
  21456221.780                        4186.654          23.000  
  22242612.035   116885733.8712       -899.305          30.000  
  20537619.090   107925911.4602      -1665.014          25.000  
 16 10  2  7 59 24.9930000  0  8G26G21G16G20G27G18G 5G29
  18284205.957    96084143.7782       1311.647          29.000  
  18933392.480    99495668.3421       1101.974          29.000  
  18903300.896    99337533.245        3221.709          28.000  
  20018412.773   105197429.1642       1991.956          33.000  
  20896957.987                        4362.901          23.000  
  21455424.084                        4199.259          21.000  
  22242784.462   116886632.6452       -898.695          29.000  
  20537932.163   107927576.9192      -1664.480          26.000  
 16 10  2  7 59 25.9930000  0  8G26G21G16G20G27G18G 5G29
  18283952.929    96082832.9102       1312.335          28.000  
  18933187.653    99494566.680        1101.831          30.000  
  18902686.813    99334311.470        3223.354          28.000  
  20018027.574   105195438.4912       1988.297          27.000  
  20896128.645                        4361.945          23.000  
  21454626.905                        4186.215          20.000  
  22242963.595   116887532.4482       -900.577          30.000  
  20538252.456   107929242.7042      -1668.176          26.000  
 16 10  2  7 59 26.9930000  0  8G26G21G16G20G27G18G 5G29
  18283704.468    96081522.6722       1310.508          28.000  
  18932975.026    99493465.646        1101.044          29.000  
  18902074.643    99331090.248        3221.712          27.000  
  20017653.663                        1986.274          26.000  
  20895299.242                        4370.222          23.000  
  21453828.214                        4192.010          21.000  
  22243130.807   116888432.9482       -899.839          30.000  
  20538568.116   107930908.9592      -1666.276          25.000  
 16 10  2  7 59 27.9930000  0  7G26G21G16G27G18G 5G29
  18283455.327    96080213.0142       1309.117          29.000  
  18932763.407    99492365.081        1100.979          29.000  
  18901463.104    99327869.390        3220.689          28.000  
  20894470.164                        4387.425          21.000  
  21453031.104                        4194.949          21.000  
  22243303.103   116889334.0162       -901.482          30.000  
  20538888.501                       -1665.815          25.000  
 16 10  2  7 59 28.9930000  0  8G26G21G16G20G27G18G 5G29
  18283205.760    96078904.1912       1308.970          29.000  
  18932554.262    99491265.176        1100.078          29.000  
  18900849.755    99324649.326        3220.122          28.000  
  20016891.990                        1988.446          28.000  
  20893638.578                        4361.894          21.000  
  21452236.560                        4193.796          22.000  
  22243474.684   116890235.4802       -902.030          29.000  
  20539208.160   107934266.3853      -1665.892          31.000  
 16 10  2  7 59 29.9930000  0  8G26G21G16G20G27G18G 5G29
  18282957.374    96077595.9402       1307.157          30.000  
  18932351.733    99490165.609        1099.468          29.000  
  18900235.857    99321429.742        3218.970          27.000  
  20016509.351                        1987.864          27.000  
  20892807.768                        4368.061          20.000  
  21451438.435                        4192.257          22.000  
  22243646.608   116891137.5692       -901.777          29.000  
  20539518.423   107935933.1922      -1666.411          26.000  
 16 10  2  7 59 30.9930000  0  8G26G21G16G20G27G18G 5G29
  18282709.317    96076288.480        1306.383          30.000  
  18932140.193    99489066.809        1097.924          29.000  
  18899624.365    99318210.717        3218.130          28.000  
  20016136.957   105185478.6023       1988.674          26.000  
  20891979.708                        4360.282          20.000  
  21450640.867                        4184.162          22.000  
  22243815.191   116892039.5241       -903.470          29.000  
  20539837.863   107937600.0402      -1667.551          30.000  
 16 10  2  7 59 31.9930000  0  8G26G21G16G20G27G18G 5G29
  18282462.701    96074981.579        1306.572          30.000  
  18931929.898    99487968.414        1097.774          29.000  
  18899012.533    99314992.364        3217.477          29.000  
  20015757.760                        1985.998          27.000  
  20891150.732                        4372.752          21.000  
  21449842.550                        4181.837          22.000  
  22243990.914   116892942.934        -904.403          30.000  
  20540158.733   107939267.2302      -1667.631          29.000  
 16 10  2  7 59 32.9930000  0  7G26G21G16G20G18G 5G29
  18282210.673    96073675.266        1304.269          31.000  
  18931720.359    99486870.447        1097.061          29.000  
  18898398.256    99311774.275        3217.122          29.000  
  20015379.481                        1985.963          27.000  
  21449046.022                        4170.231          21.000  
  22244157.745                        -903.881          29.000  
  20540470.218   107940898.6223      -1669.063          29.000  
 16 10  2  7 59 33.9930000  0  7G26G21G16G20G27G18G 5
  18281964.065    96072369.377        1306.040          30.000  
  18931509.859    99485755.3643       1096.385          30.000  
  18897786.739    99308556.566        3217.988          28.000  
  20015009.435                        1985.093          28.000  
  20889485.325                        4364.109          21.000  
  21448250.423                        4188.944          20.000  
  22244330.972   116894741.3733       -904.261          29.000  
 16 10  2  7 59 34.9930000  0  7G26G21G16G20G27G18G 5
  18281710.401    96071064.596        1303.955          29.000  
  18931300.753    99484658.6022       1096.617          30.000  
  18897176.697    99305339.799        3216.984          27.000  
  20014627.096                        1984.587          27.000  
  20888654.237                        4357.960          20.000  
  21447455.800                        4195.751          18.000  
  22244505.518   116895646.2752       -904.743          28.000  
 16 10  2  7 59 35.9930000  0  8G26G21G16G20G27G18G 5G29
  18281467.596    96069760.384        1305.176          29.000  
  18931096.091    99483562.3932       1097.146          30.000  
  18896565.484    99302123.492        3217.653          27.000  
  20014250.795                        1984.105          31.000  
  20887823.344                        4360.090          20.000  
  21446658.055                        4164.501          15.000  
  22244676.997   116896551.7412       -906.037          27.000  
  20541425.638   107945919.5452      -1669.872          24.000  
 16 10  2  7 59 36.9930000  0  8G26G21G16G20G27G18G 5G29
  18281223.970    96068455.988        1304.391          29.000  
  18930885.970    99482465.9252       1096.415          29.000  
  18895953.026    99298906.930        3217.457          28.000  
  20013873.130                        1983.672          31.000  
  20886993.196                        4364.647          20.000  
  21445859.557                        4180.655          16.000  
  22244847.891   116897457.2922       -905.103          27.000  
  20541738.816   107947587.1482      -1668.460          26.000  
 16 10  2  7 59 37.9930000  0  8G26G21G16G20G27G18G 5G29
  18280972.080    96067152.248        1303.078          29.000  
  18930675.265    99481369.8632       1095.399          29.000  
  18895340.441    99295690.907        3215.280          27.000  
  20013496.377                        1982.631          25.000  
  20886161.515                        4358.262          22.000  
  21445060.740                        4159.214          17.000  
  22245015.703   116898363.2222       -905.822          27.000  
  20542056.016   107949254.7782      -1669.666          27.000  
 16 10  2  7 59 38.9930000  0  8G26G21G16G20G27G18G 5G29
  18280722.586    96065848.949        1302.193          29.000  
  18930464.898    99480274.2282       1095.392          29.000  
  18894728.678    99292469.1273       3216.274          27.000  
  20013116.629                        1981.837          26.000  
  20885334.426                        4362.051          24.000  
  21444263.359                        4184.404          17.000  
  22245198.588   116899269.7892       -907.191          28.000  
  20542376.019   107950922.5842      -1667.879          28.000  
 16 10  2  7 59 39.9930000  0  8G26G21G16G20G27G18G 5G29
  18280475.375    96064546.961        1300.323          29.000  
  18930262.474    99479179.5952       1093.751          29.000  
  18894116.255    99289254.6292       3213.665          27.000  
  20012741.097   105167668.9272       1979.822          26.000  
  20884504.670                        4361.713          25.000  
  21443470.526                        4176.494          17.000  
  22245367.329   116900177.1662       -909.930          29.000  
  20542693.443   107952590.9352      -1669.431          28.000  
 16 10  2  7 59 40.9930000  0  7G26G21G16G20G27G 5G29
  18280228.699    96063245.554        1301.521          29.000  
  18930053.757    99478085.6992       1093.496          29.000  
  18893506.482    99286040.8072       3213.499          27.000  
  20012355.620   105165688.5102       1980.272          27.000  
  20883674.671                        4351.751          25.000  
  22245543.203                        -908.441          28.000  
  20543012.818   107954259.8252      -1668.677          28.000  
 16 10  2  7 59 41.9930000  0  8G26G21G16G20G27G18G 5G29
  18279980.949    96061944.585        1300.966          30.000  
  18929848.376    99476992.0012       1093.858          30.000  
  18892891.615    99282827.0692       3212.957          28.000  
  20011977.439   105163708.7292       1980.370          26.000  
  20882844.671                        4360.834          25.000  
  21441876.158                        4193.828          18.000  
  22245713.359   116902012.4663       -908.892          28.000  
  20543326.484                       -1669.390          26.000  
 16 10  2  7 59 42.9930000  0  8G26G21G16G20G27G18G 5G29
  18279733.984    96060644.530        1299.501          32.000  
  18929636.430    99475898.5371       1092.294          31.000  
  18892280.116    99279614.3792       3211.865          29.000  
  20011599.607                        1980.033          25.000  
  20882014.549                        4358.581          27.000  
  21441075.458                        4177.088          19.000  
  22245887.581   116902922.4112       -910.353          33.000  
  20543643.783                       -1668.705          26.000  
 16 10  2  7 59 43.9930000  0  8G26G21G16G20G27G18G 5G29
  18279484.562    96059345.654        1297.752          32.000  
  18929431.051    99474806.389        1091.274          30.000  
  18891668.862    99276402.5802       3211.409          30.000  
  20011225.302                        1979.710          24.000  
  20881184.037                        4359.157          27.000  
  21440280.047                        4181.692          20.000  
  22246060.271   116903832.4832       -911.555          31.000  
  20543962.227                       -1671.535          26.000  
 16 10  2  7 59 44.9930000  0  8G26G21G16G20G27G18G 5G29
  18279237.392    96058047.792        1298.582          31.000  
  18929224.872    99473715.119        1090.984          30.000  
  18891056.845    99273191.7512       3212.308          30.000  
  20010849.905                        1977.103          26.000  
  20880353.758                        4365.110          27.000  
  21439482.239                        4187.804          21.000  
  22246230.925   116904743.4972       -911.110          30.000  
  20544280.733                       -1670.824          26.000  
 16 10  2  7 59 45.9930000  0  8G26G21G16G20G27G18G 5G29
  18278990.676    96056750.548        1296.194          35.000  
  18929015.425    99472623.138        1091.156          30.000  
  18890448.413    99269982.3352       3206.965          28.000  
  20010474.552   105155746.0243       1978.908          32.000  
  20879528.592                        4352.534          27.000  
  21438687.751                        4190.840          20.000  
  22246405.651   116905653.2052       -910.569          31.000  
  20544599.665   107962599.4533      -1667.282          32.000  
 16 10  2  7 59 46.9930000  0  8G26G21G16G20G27G18G 5G29
  18278743.812    96055454.105        1296.026          33.000  
  18928805.768    99471531.570        1091.950          29.000  
  18889832.962    99266774.0932       3208.216          27.000  
  20010096.888   105153767.3552       1980.393          31.000  
  20878699.936                        4353.839          27.000  
  21437892.007                        4191.915          22.000  
  22246582.115   116906577.3943       -910.958          31.000  
  20544914.812   107964267.0712      -1666.879          27.000  
 16 10  2  7 59 47.9930000  0  8G26G21G16G20G27G18G 5G29
  18278497.204    96054158.054        1295.861          32.000  
  18928599.520    99470439.838        1091.094          29.000  
  18889222.030    99263566.0162       3209.300          26.000  
  20009723.783   105151787.9852       1978.606          30.000  
  20877868.546                        4353.704          27.000  
  21437093.180                        4189.343          25.000  
  22246752.578   116907487.3812       -909.690          30.000  
  20545231.705   107965933.3632      -1666.353          28.000  
 16 10  2  7 59 48.9930000  0  8G26G21G16G20G27G18G 5G29
  18278252.973    96052862.531        1293.874          32.000  
  18928389.500    99469348.247        1091.174          29.000  
  18888611.455                        3205.330          25.000  
  20009346.773   105149808.7412       1978.358          29.000  
  20877041.811                        4354.266          27.000  
  21436295.415                        4188.079          27.000  
  22246924.898   116908397.3462       -911.531          33.000  
  20545552.427   107967599.2992      -1665.894          27.000  
 16 10  2  7 59 49.9930000  0  8G26G21G16G20G27G18G 5G29
  18278006.157    96051567.744        1293.867          32.000  
  18928178.265    99468257.360        1090.755          29.000  
  18888002.130                        3205.609          25.000  
  20008972.084   105147830.3832       1977.805          28.000  
  20876213.266   109705240.9573       4353.662          27.000  
  21435495.529   112644304.4072       4187.774          27.000  
  22247095.889   116909277.3103       -911.155          32.000  
  20545866.781                       -1666.831          27.000  
 16 10  2  7 59 50.9930000  0  8G26G21G16G20G27G18G 5G29
  18277759.840    96050273.556        1292.742          32.000  
  18927970.548    99467167.019        1089.881          29.000  
  18887391.805                        3205.437          25.000  
  20008593.148   105145852.9272       1977.074          28.000  
  20875381.896                        4354.583          25.000  
  21434700.330   112640116.5972       4188.131          28.000  
  22247273.440                        -912.186          24.000  
  20546189.934   107970955.8863      -1666.322          27.000  
 16 10  2  7 59 51.9930000  0  8G26G21G16G20G27G18G 5G29
  18277513.855    96048979.791        1293.147          32.000  
  18927767.323    99466077.076        1089.410          28.000  
  18886782.967                        3205.670          26.000  
  20008213.123   105143876.1092       1976.813          27.000  
  20874551.026                        4355.253          26.000  
  21433903.857   112635929.0722       4187.305          28.000  
  22247444.039   116911106.9323       -912.349          32.000  
  20546503.478   107972622.7662      -1666.696          27.000  
 16 10  2  7 59 52.9930000  0  8G26G21G16G20G27G18G 5G29
  18277267.816    96047686.861        1292.043          32.000  
  18927558.698    99464987.985        1088.327          28.000  
  18886172.795                        3204.120          26.000  
  20007838.723                        1974.644          27.000  
  20873722.400                        4355.431          25.000  
  21433105.974   112631742.0182       4186.294          28.000  
  22247620.645   116912019.9602       -914.400          26.000  
  20546817.648   107974290.3672      -1667.221          26.000  
 16 10  2  7 59 53.9930000  0  8G26G21G16G20G27G18G 5G29
  18277021.809    96046394.507        1292.251          32.000  
  18927352.583    99463899.320        1087.672          28.000  
  18885562.905                        3204.479          26.000  
  20007463.693                        1973.371          27.000  
  20872894.874                        4358.020          25.000  
  21432309.150   112627555.3722       4184.950          28.000  
  22247794.348                        -913.061          25.000  
  20547137.660                       -1671.933          26.000  
 16 10  2  7 59 54.9930000  0  8G26G21G16G20G27G18G 5G29
  18276775.875    96045102.636        1292.046          33.000  
  18927147.027    99462811.040        1088.110          32.000  
  18884957.339    99241097.1153       3205.316          32.000  
  20007092.424                        1973.474          33.000  
  20872065.775   109683445.1393       4354.581          27.000  
  21431510.586   112623369.3262       4186.477          30.000  
  22247968.299   116913862.3473       -913.353          31.000  
  20547458.738                       -1675.472          26.000  
 16 10  2  7 59 55.9930000  0  8G26G21G16G20G27G18G 5G29
  18276530.246    96043811.602        1289.990          33.000  
  18926940.789    99461723.021        1087.626          32.000  
  18884346.634    99237892.8312       3204.022          36.000  
  20006713.414                        1973.650          29.000  
  20871237.554   109679091.3922       4354.463          28.000  
  21430716.769   112619183.0322       4186.413          31.000  
  22248142.650                        -911.881          22.000  
  20547778.780   107979305.9113      -1667.155          31.000  
 16 10  2  7 59 56.9930000  0  8G26G21G16G20G27G18G 5G29
  18276284.757    96042521.453        1289.794          34.000  
  18926728.320    99460636.012        1086.640          32.000  
  18883739.330    99234689.2262       3202.966          35.000  
  20006338.482   105134014.6313       1973.195          32.000  
  20870409.779   109674738.2352       4353.259          27.000  
  21429916.861   112614997.3932       4185.123          29.000  
  22248315.876                        -914.991          30.000  
  20548091.599                       -1669.360          34.000  
 16 10  2  7 59 57.9930000  0  7G26G21G16G20G27G18G29
  18276039.263    96041232.003        1288.289          34.000  
  18926526.775    99459549.179        1085.627          33.000  
  18883128.866    99231486.4242       3202.179          35.000  
  20005966.928   105132041.5252       1971.059          32.000  
  20869581.651   109670385.6072       4352.767          27.000  
  21429119.644   112610811.4632       4185.229          29.000  
  20548405.318                       -1669.598          31.000  
 16 10  2  7 59 58.9930000  0  8G26G21G16G20G27G18G 5G29
  18275793.879    96039943.048        1287.849          35.000  
  18926321.585    99458462.915        1085.421          33.000  
  18882520.269    99228283.8482       3201.953          35.000  
  20005589.123   105130069.2362       1971.246          32.000  
  20868751.081   109666032.8332       4353.103          27.000  
  21428324.282   112606625.9982       4184.957          30.000  
  22248669.577                        -913.712          29.000  
  20548726.114                       -1670.466          26.000  
 16 10  2  7 59 59.9930000  0  8G26G21G16G20G27G18G 5G29
  18275548.398    96038654.641        1288.246          35.000  
  18926116.534    99457377.240        1085.148          33.000  
  18881909.674    99225081.8582       3201.983          36.000  
  20005213.056   105128098.0482       1969.663          32.000  
  20867923.974   109661680.2152       4353.182          27.000  
  21427526.322   112602440.6612       4184.376          31.000  
  22248843.031                        -917.750          28.000  
  20549043.286                       -1669.463          26.000  
 16 10  2  8  0  0.9930000  0  7G26G21G16G20G27G18G29
  18275303.227    96037366.720        1287.221          35.000  
  18925907.353    99456292.086        1084.650          34.000  
  18881301.004    99221879.4441       3201.465          36.000  
  20004837.429   105126127.5362       1970.909          32.000  
  20867097.543   109657327.2612       4352.467          28.000  
  21426734.235   112598255.3551       4184.592          31.000  
  20549360.529                       -1671.663          32.000  
 16 10  2  8  0  1.9930000  0  8G26G21G16G20G27G18G 5G29
  18275058.373    96036079.705        1286.406          36.000  
  18925699.445    99455207.504        1083.678          34.000  
  18880691.131    99218678.377        3201.123          37.000  
  20004464.195   105124157.6832       1967.827          36.000  
  20866272.521   109652974.9972       4352.314          28.000  
  21425937.122   112594070.711        4185.193          31.000  
  22249185.816   116920260.4123       -917.602          32.000  
  20549673.788   107989264.3632      -1670.289          32.000  
 16 10  2  8  0  2.9930000  0  9G26G21G16G20G27G18G31G 5G29
  18274813.600    96034793.352        1285.295          36.000  
  18925493.169    99454123.524        1082.581          35.000  
  18880082.373    99215477.751        3199.786          37.000  
  20004087.784   105122188.5602       1968.666          33.000  
  20865441.813   109648622.7222       4353.062          29.000  
  21425140.582   112589886.719        4182.141          31.000  
  21849904.979                       -2163.379          23.000  
  22249360.999   116921177.8362       -920.196          31.000  
  20549990.241   107990933.5952      -1671.127          33.000  
 16 10  2  8  0  3.9930000  0  9G26G21G16G20G27G18G31G 5G29
  18274569.057    96033507.800        1285.249          36.000  
  18925288.720    99453040.250        1083.016          34.000  
  18879473.152    99212277.795        3199.847          37.000  
  20003716.639   105120220.4562       1968.145          33.000  
  20864615.517   109644270.9262       4352.265          29.000  
  21424343.699   112585702.990        4182.688          31.000  
  21850315.217                       -2163.458          26.000  
  22249536.882   116922104.9273       -918.835          30.000  
  20550310.332   107992603.3472      -1669.990          34.000  
 16 10  2  8  0  4.9930000  0  9G26G21G16G20G27G18G31G 5G29
  18274324.665    96032222.810        1284.783          35.000  
  18925080.202    99451957.623        1081.820          35.000  
  18878864.133    99209078.165        3199.518          37.000  
  20003341.506   105118253.3432       1965.771          33.000  
  20863783.531   109639919.1052       4352.413          29.000  
  21423549.949   112581519.828        4182.519          31.000  
  21850726.668   114826343.4912      -2162.738          28.000  
  22249711.024   116923023.8112       -920.321          29.000  
  20550631.376   107994273.4492      -1670.757          34.000  
 16 10  2  8  0  5.9930000  0  9G26G21G16G20G27G18G31G 5G29
  18274080.380    96030938.767        1283.006          35.000  
  18924874.648    99450875.738        1081.618          34.000  
  18878255.505    99205879.369        3198.620          36.000  
  20002964.229   105116287.1812       1965.755          32.000  
  20862958.390   109635567.6962       4351.482          29.000  
  21422751.640   112577337.041        4182.856          31.000  
  21851133.012   114828506.7362      -2163.782          29.000  
  22249888.011   116923943.6092       -921.480          28.000  
  20550948.662   107995944.0992      -1671.413          30.000  
 16 10  2  8  0  6.9930000  0  9G26G21G16G20G27G18G31G 5G29
  18273836.212    96029655.401        1283.208          35.000  
  18924670.003    99449794.489        1081.495          34.000  
  18877647.279    99202681.092        3198.151          36.000  
  20002589.297   105114321.3521       1964.858          32.000  
  20862125.746   109631210.5013       4351.410          28.000  
  21421955.031   112573154.746        4181.866          31.000  
  21851546.665   114830670.2432      -2163.214          28.000  
  22250067.156   116924863.9852       -921.041          27.000  
  20551266.424   107997615.1672      -1671.527          31.000  
 16 10  2  8  0  7.9930000  0  9G26G21G16G20G27G18G31G 5G29
  18273592.157    96028372.542        1282.084          36.000  
  18924464.326    99448713.553        1080.964          35.000  
  18877038.835    99199483.142        3198.083          36.000  
  20002216.904   105112356.504        1963.239          29.000  
  20861301.186   109626859.3002       4351.735          28.000  
  21421160.971   112568972.468        4182.310          31.000  
  21851956.471   114832833.6002      -2163.751          29.000  
  22250241.205   116925784.5822       -920.878          27.000  
  20551582.335                       -1672.595          31.000  
 16 10  2  8  0  8.9930000  0  9G26G21G16G20G27G18G31G 5G29
  18273348.256    96027090.333        1281.944          35.000  
  18924258.517    99447633.147        1081.093          35.000  
  18876430.149    99196285.744        3198.010          36.000  
  20001842.669   105110392.358        1965.326          32.000  
  20860474.772   109622508.3802       4350.907          28.000  
  21420367.785   112564790.440        4182.024          30.000  
  21852368.435   114834997.2632      -2162.640          29.000  
  22250413.208   116926705.9002       -919.501          31.000  
  20551899.301                       -1671.204          26.000  
 16 10  2  8  0  9.9930000  0  8G26G21G16G20G27G18G 5G29
  18273104.134    96025808.764        1281.698          35.000  
  18924053.294    99446553.607        1079.651          35.000  
  18875822.110    99193088.904        3196.906          36.000  
  20001470.701   105108429.623        1963.958          31.000  
  20859648.011   109618157.3032       4351.308          28.000  
  21419565.518   112560608.917        4181.902          31.000  
  22250587.984   116927628.6402       -922.030          30.000  
  20552219.482                       -1647.478          26.000  
 16 10  2  8  0 10.9930000  0  8G26G21G16G20G27G18G 5G29
  18272860.219    96024527.573        1280.211          35.000  
  18923848.190    99445474.356        1078.770          35.000  
  18875213.771    99189892.360        3196.814          36.000  
  20001097.715                        1961.390          31.000  
  20858813.733   109613806.2642       4351.055          28.000  
  21418771.373   112556427.371        4180.404          30.000  
  22250768.554   116928552.1972       -924.366          32.000  
  20552543.016                       -1673.747          26.000  
 16 10  2  8  0 11.9930000  0  8G26G21G16G20G27G18G 5G29
  18272616.379    96023247.332        1279.986          37.000  
  18923642.915    99444396.033        1077.529          35.000  
  18874605.684    99186696.276        3195.514          37.000  
  20000723.904   105104516.0463       1961.120          33.000  
  20857991.116   109609455.3942       4350.721          35.000  
  21417982.139   112552246.925        4181.187          29.000  
  22250939.647   116929475.9242       -924.436          35.000  
  20552853.789                       -1675.136          26.000  
 16 10  2  8  0 12.9930000  0  8G26G21G16G20G27G18G 5G29
  18272372.885    96021968.137        1278.531          36.000  
  18923437.819    99443317.993        1076.544          34.000  
  18873997.547    99183501.481        3194.995          36.000  
  20000351.014   105102554.8402       1960.638          36.000  
  20857162.027   109605105.9662       4350.388          32.000  
  21417180.321   112548065.971        4179.716          28.000  
  22251110.215   116930399.731        -923.904          31.000  
  20553179.877                       -1674.206          26.000  
 16 10  2  8  0 13.9930000  0  8G26G21G16G20G27G18G 5G29
  18272129.432    96020689.629        1277.660          36.000  
  18923233.015    99442240.663        1076.968          34.000  
  18873389.593    99180306.962        3193.646          36.000  
  19999978.858   105100594.6342       1958.758          36.000  
  20856334.787   109600756.4782       4348.970          33.000  
  21416389.164   112543885.876        4180.500          29.000  
  22251288.033   116931324.005        -925.872          32.000  
  20553496.952                       -1671.475          24.000  
 16 10  2  8  0 14.9930000  0  8G26G21G16G20G27G18G 5G29
  18271886.129    96019411.749        1276.645          36.000  
  18923028.047    99441163.868        1075.552          34.000  
  18872781.842    99177113.114        3193.201          35.000  
  19999604.336   105098635.0692       1958.737          35.000  
  20855506.313   109596407.3672       4346.786          33.000  
  21415589.648   112539705.820        4179.650          28.000  
  22251471.608   116932249.165        -926.753          32.000  
  20553817.030                       -1668.615          24.000  
 16 10  2  8  0 15.9930000  0  8G26G21G16G20G27G18G 5G29
  18271643.150    96018134.744        1276.573          36.000  
  18922823.240    99440088.021        1075.925          33.000  
  18872174.216    99173919.724        3193.152          36.000  
  19999231.480   105096676.9112       1957.861          33.000  
  20854679.856   109592058.0322       4348.840          33.000  
  21414797.780                        4179.574          28.000  
  22251639.527   116933174.958        -925.437          32.000  
  20554140.699                       -1679.666          24.000  
 16 10  2  8  0 16.9930000  0  8G26G21G16G20G27G18G 5G29
  18271400.414    96016858.496        1276.702          37.000  
  18922615.983    99439012.740        1076.136          33.000  
  18871566.623    99170727.028        3192.371          36.000  
  19998860.945   105094719.3122       1958.610          32.000  
  20853849.506   109587709.3402       4348.959          33.000  
  21413999.611   112531342.2723       4180.431          28.000  
  22251818.624   116934101.256        -924.303          31.000  
  20554458.371                       -1674.889          24.000  
 16 10  2  8  0 17.9930000  0  8G26G21G16G20G27G18G 5G29
  18271157.741    96015582.925        1275.644          36.000  
  18922412.551    99437937.886        1075.016          33.000  
  18870959.228    99167534.938        3192.602          36.000  
  19998486.922   105092762.4952       1956.890          30.000  
  20853022.629   109583360.8282       4349.008          33.000  
  21413207.537   112527163.4882       4177.801          29.000  
  22251993.154   116935028.311        -926.038          30.000  
  20554777.285                       -1666.545          22.000  
 16 10  2  8  0 18.9930000  0  8G26G21G16G20G27G18G 5G29
  18270914.882    96014307.614        1274.587          36.000  
  18922207.624    99436863.338        1074.364          33.000  
  18870351.520    99164342.972        3191.559          36.000  
  19998115.622   105090805.6461       1956.844          28.000  
  20852195.834   109579011.6851       4348.061          32.000  
  21412413.384   112522984.8592       4178.125          29.000  
  22252172.863   116935955.787        -927.126          30.000  
  20555098.733                       -1668.778          21.000  
 16 10  2  8  0 19.9930000  0  8G26G21G16G20G27G18G 5G29
  18270672.252    96013032.904        1273.924          36.000  
  18922005.662    99435789.303        1073.649          33.000  
  18869744.285    99161151.436        3191.321          36.000  
  19997743.957                        1955.855          26.000  
  20851368.142   109574663.050        4349.570          32.000  
  21411618.224   112518806.3472       4179.203          31.000  
  22252346.146   116936883.799        -927.292          32.000  
  20555414.658                       -1676.351          19.000  
 16 10  2  8  0 20.9930000  0  8G26G21G16G20G27G18G 5G29
  18270429.799    96011758.682        1273.762          36.000  
  18921800.145    99434715.725        1073.089          32.000  
  18869136.826    99157960.245        3190.991          35.000  
  19997370.873                        1953.600          24.000  
  20850540.668   109570314.443        4348.563          32.000  
  21410818.699   112514628.0722       4177.439          31.000  
  22252524.072   116937812.497        -928.823          36.000  
  20555731.500                       -1675.930          19.000  
 16 10  2  8  0 21.9930000  0  8G26G21G16G20G27G18G 5G29
  18270187.540    96010485.391        1273.206          36.000  
  18921595.694    99433642.802        1072.142          33.000  
  18868529.986    99154769.870        3190.387          35.000  
  19997000.245                        1946.904          23.000  
  20849714.060   109565966.450        4347.842          32.000  
  21410022.366   112510450.1922       4177.736          32.000  
  22252699.636   116938741.733        -930.402          35.000  
  20556048.787                       -1676.947          19.000  
 16 10  2  8  0 22.9930000  0  8G26G21G16G20G27G18G 5G29
  18269945.448    96009212.684        1272.146          36.000  
  18921391.763    99432570.491        1071.993          33.000  
  18867922.633    99151579.767        3189.508          35.000  
  19996627.009                        1958.056          20.000  
  20848886.630   109561618.277        4347.667          33.000  
  21409228.590   112506273.0982       4176.260          32.000  
  22252882.116   116939671.536        -932.833          31.000  
  20556367.844                       -1666.470          18.000  
 16 10  2  8  0 23.9930000  0  8G26G21G16G20G27G18G 5G29
  18269703.499    96007940.887        1271.212          36.000  
  18921188.146    99431498.745        1071.864          33.000  
  18867315.704    99148390.491        3188.885          35.000  
  19996254.757                        1947.357          19.000  
  20848059.251   109557270.876        4347.947          33.000  
  21408433.384   112502095.9992       4178.152          32.000  
  22253055.571   116940601.315        -931.245          31.000  
  20556685.066                       -1680.333          17.000  
 16 10  2  8  0 24.9930000  0  7G26G21G16G20G27G18G 5
  18269461.821    96006669.986        1270.455          36.000  
  18920984.334    99430427.905        1069.143          33.000  
  18866709.064    99145201.767        3187.646          32.000  
  19995886.559                        1950.185          19.000  
  20847231.996   109552923.777        4345.764          33.000  
  21407640.553   112497919.3061       4176.324          31.000  
  22253230.542   116941532.005        -932.049          31.000  
 16 10  2  8  0 25.9930000  0  8G26G21G16G20G27G18G 5G25
  18269219.741    96005399.864        1270.050          36.000  
  18920784.823    99429357.563        1071.051          32.000  
  18866102.366    99142013.825        3187.799          34.000  
  19995514.557                        1966.669          18.000  
  20846403.801   109548577.151        4345.967          31.000  
  21406848.090                        4176.866          24.000  
  22253410.377   116942463.220        -933.007          29.000  
  23532679.317                       -2502.045          21.000  
 16 10  2  8  0 26.9930000  0  9G26G21G16G20G27G18G 5G25G29
  18268978.317    96004130.138        1269.540          37.000  
  18920576.339    99428287.772        1069.321          32.000  
  18865495.882    99138826.064        3187.506          35.000  
  19995143.530                        1945.781          16.000  
  20845575.451   109544230.188        4346.920          33.000  
  21406052.769                        4176.161          26.000  
  22253584.255                        -932.821          28.000  
  23533159.861                       -2502.045          20.000  
  20557640.821                       -1671.453          15.000  
 16 10  2  8  0 27.9930000  0  8G26G21G16G20G27G18G 5G25
  18268736.706    96002860.826        1268.870          39.000  
  18920374.459    99427218.019        1068.909          35.000  
  18864889.347    99135638.944        3186.749          35.000  
  19994772.820                        1947.079          17.000  
  20844751.748   109539883.805        4346.627          33.000  
  21405258.299                        4177.184          25.000  
  22253765.603                        -930.758          26.000  
  23533636.194                       -2502.045          18.000  
 16 10  2  8  0 28.9930000  0  8G26G21G16G20G27G18G 5G25
  18268495.365    96001592.478        1267.793          37.000  
  18920172.116    99426149.499        1068.120          34.000  
  18864282.894    99132452.126        3186.023          35.000  
  19994401.719                        1948.300          17.000  
  20843923.320   109535537.015        4346.304          35.000  
  21404463.415                        4173.673          31.000  
  22253941.704                        -934.289          27.000  
  23534115.265                       -2502.045          19.000  
 16 10  2  8  0 29.9930000  0  8G26G21G16G20G27G18G 5G25
  18268254.023    96000324.550        1267.585          38.000  
  18919967.466    99425081.051        1068.670          35.000  
  18863676.479    99129265.955        3185.974          35.000  
  19994028.178                        1965.129          15.000  
  20843098.594   109531190.667        4346.304          35.000  
  21403668.042   112477038.5423       4174.805          30.000  
  22254118.875   116946186.4723       -933.185          32.000  
  23534593.388                       -2502.045          17.000  
 16 10  2  8  0 30.9930000  0  8G26G21G16G20G27G18G 5G25
  18268013.016    95999057.714        1265.806          33.000  
  18919764.387    99424013.540        1066.014          36.000  
  18863070.259    99126080.945        3184.479          36.000  
  19993654.862                        1950.713          16.000  
  20842270.091   109526844.581        4344.990          35.000  
  21402872.382   112472862.9022       4176.502          31.000  
  22254298.857   116947121.8262       -934.840          31.000  
  23535072.846                       -2502.045          18.000  
 16 10  2  8  0 31.9930000  0  7G26G21G16G20G27G 5G25
  18267771.427    95997791.135        1265.594          31.000  
  18919562.893    99422946.399        1066.745          29.000  
  18862466.778    99122896.472        3184.393          29.000  
  19993281.077                        1959.832          15.000  
  20841440.571   109522498.479        4346.852          26.000  
  22254478.200                        -943.830          24.000  
  23535549.415                       -2502.045          16.000  
 16 10  2  8  0 32.9930000  0  8G26G21G16G20G27G18G 5G25
  18267529.687    95996524.647        1265.963          30.000  
  18919359.355    99421879.698        1066.709          30.000  
  18861856.717                        3184.675          28.000  
  19992908.651                        1959.832          12.000  
  20840612.025                        4342.312          25.000  
  21401278.885                        4170.391          23.000  
  22254654.115                        -945.077          23.000  
  23536025.914                       -2502.045          15.000  
 16 10  2  8  0 33.9930000  0  8G26G21G16G20G27G18G 5G25
  18267288.469    95995258.973        1265.089          29.000  
  18919149.737    99420813.587        1064.796          30.000  
  18861253.907    99116541.9503       3183.141          28.000  
  19992536.572                        1959.832           9.000  
  20839785.725                        4349.727          25.000  
  21400483.207                        4173.293          23.000  
  22254830.083                        -944.669          23.000  
  23536503.721                       -2502.045          12.000  
 16 10  2  8  0 34.9930000  0  6G26G21G16G27G18G 5
  18267045.553    95993993.904        1264.628          28.000  
  18918952.715    99419747.703        1065.644          30.000  
  18860647.290    99113358.4982       3183.239          28.000  
  20838957.881                        4344.904          25.000  
  21399692.445                        4175.134          24.000  
  22255012.855                        -938.816          25.000  
 16 10  2  8  0 35.9930000  0  6G26G21G16G27G18G 5
  18266804.015    95992729.417        1264.901          28.000  
  18918752.302    99418682.616        1063.729          30.000  
  18860036.871    99110175.6102       3183.066          28.000  
  20838131.131                        4347.818          24.000  
  21398898.258                        4173.391          24.000  
  22255192.153                        -938.864          26.000  
 16 10  2  8  0 36.9930000  0  6G26G21G16G27G18G 5
  18266562.639    95991465.857        1263.513          28.000  
  18918546.123    99417618.041        1064.088          30.000  
  18859434.061    99106993.4592       3181.654          28.000  
  20837302.376                        4340.603          24.000  
  21398105.112                        4173.006          25.000  
  22255371.309                        -940.017          26.000  
 16 10  2  8  0 37.9920000  0  7G26G21G16G27G18G 5G29
  18266324.165    95990204.350        1263.113          28.000  
  18918344.402    99416555.378        1062.976          30.000  
  18858830.711    99103815.1512       3181.527          28.000  
  20836477.459                        4339.137          24.000  
  21397311.010                        4170.572          25.000  
  22255550.912                        -941.154          26.000  
  20561214.622                       -1691.560          19.000  
 16 10  2  8  0 38.9920000  0  7G26G21G16G27G18G 5G29
  18266082.078    95988942.478        1261.603          28.000  
  18918137.055    99415492.302        1062.075          30.000  
  18858228.254    99100634.4562       3180.017          28.000  
  20835650.756                        4351.285          24.000  
  21396516.788                        4171.221          25.000  
  22255726.794                        -941.336          26.000  
  20561527.882                       -1691.560          18.000  
 16 10  2  8  0 39.9920000  0  7G26G21G16G27G18G 5G29
  18265842.379    95987681.112        1261.138          28.000  
  18917940.844    99414429.685        1062.047          29.000  
  18857621.674    99097454.1452       3179.626          27.000  
  20834823.815                        4351.085          24.000  
  21395721.701                        4172.152          25.000  
  22255904.854                        -944.102          25.000  
  20561853.451                       -1691.560          18.000  
 16 10  2  8  0 40.9920000  0  7G26G21G16G27G18G 5G29
  18265602.058    95986420.191        1260.115          28.000  
  18917737.014    99413367.224        1062.434          30.000  
  18857015.662    99094274.0212       3180.324          27.000  
  20833996.478                        4346.078          24.000  
  21394927.564                        4175.286          25.000  
  22256083.481                        -942.599          25.000  
  20562171.319                       -1691.560          18.000  
 16 10  2  8  0 41.9920000  0  7G26G21G16G27G18G 5G29
  18265360.468    95985160.083        1259.787          28.000  
  18917537.441                        1063.347          30.000  
  18856409.161    99091094.8182       3179.267          27.000  
  20833169.627                        4346.227          23.000  
  21394133.716                        4177.669          25.000  
  22256261.467   116957461.3552       -943.904          25.000  
  20562496.744                       -1691.560          18.000  
 16 10  2  8  0 42.9920000  0  6G21G16G27G18G 5G29
  18917334.752    99411264.8263       1059.594          29.000  
  18855803.247    99087916.290        3178.715          28.000  
  20832342.430                        4339.843          24.000  
  21393338.516                        4179.101          25.000  
  22256443.138   116958405.3682       -944.567          25.000  
  20562821.526                       -1691.560          17.000  
 16 10  2  8  0 43.9920000  0  6G21G16G27G18G 5G29
  18917131.810    99410204.5172       1059.840          29.000  
  18855199.211    99084738.351        3178.030          27.000  
  20831516.026                        4356.654          24.000  
  21392544.309                        4173.272          24.000  
  22256620.346   116959349.8902       -944.059          25.000  
  20563145.553                       -1691.560          16.000  
 16 10  2  8  0 44.9920000  0  6G21G16G27G18G 5G29
  18916929.627    99409144.6322       1059.614          29.000  
  18854593.875    99081560.865        3177.408          27.000  
  20830689.532                        4337.472          24.000  
  21391750.914                        4162.129          25.000  
  22256799.691   116960295.0942       -946.104          25.000  
  20563467.983                       -1691.560          14.000  
 16 10  2  8  0 45.9920000  0  4G21G16G18G 5
  18916729.240    99408085.3452       1059.368          29.000  
  18853987.721    99078383.963        3177.116          27.000  
  21390958.191                        4169.164          24.000  
  22256981.052   116961240.6152       -945.617          25.000  
 16 10  2  8  0 46.9920000  0  4G21G16G18G 5
  18916531.870    99407026.5932       1058.514          29.000  
  18853382.370    99075207.623        3176.396          27.000  
  21390163.130                        4176.370          24.000  
  22257161.208   116962186.8982       -946.635          26.000  
 16 10  2  8  0 47.9920000  0  4G21G16G18G 5
  18916327.271    99405968.5932       1057.437          29.000  
  18852778.910    99072032.027        3175.380          27.000  
  21389370.801                        4178.625          25.000  
  22257342.658   116963133.9002       -947.399          26.000  
 16 10  2  8  0 48.9920000  0  4G21G16G18G 5
  18916123.242    99404911.1192       1057.258          29.000  
  18852176.802    99068857.007        3174.648          27.000  
  21388579.449                        4172.393          24.000  
  22257523.718   116964080.9191       -947.220          26.000  
 16 10  2  8  0 49.9920000  0  4G21G16G18G 5
  18915922.168    99403854.3512       1056.045          29.000  
  18851574.689    99065682.597        3174.036          27.000  
  21387785.891                        4171.865          25.000  
  22257704.996   116965029.286        -948.597          26.000  
 16 10  2  8  0 50.9920000  0  4G21G16G18G 5
  18915722.725    99402798.1302       1054.602          30.000  
  18850972.991    99062508.779        3174.037          28.000  
  21386991.248                        4164.028          25.000  
  22257886.747   116965978.204        -948.956          25.000  
 16 10  2  8  0 51.9920000  0  4G21G16G18G 5
  18915526.581    99401742.6412       1055.164          29.000  
  18850370.912    99059335.781        3172.466          28.000  
  21386197.700                        4171.634          25.000  
  22258067.988   116966927.977        -950.198          25.000  
 16 10  2  8  0 52.9920000  0  4G21G16G18G 5
  18915319.658    99400687.5052       1054.391          30.000  
  18849763.969    99056163.051        3172.666          28.000  
  21385403.840                        4164.403          25.000  
  22258248.561   116967878.076        -950.908          25.000  
 16 10  2  8  0 53.9920000  0  4G21G16G18G 5
  18915120.354    99399632.6382       1054.900          29.000  
  18849158.657    99052990.729        3171.727          28.000  
  21384608.774                        4166.712          25.000  
  22258429.575                        -950.650          25.000  
 16 10  2  8  0 54.9920000  0  4G21G16G18G 5
  18914919.923    99398578.624        1053.752          29.000  
  18848555.659    99049819.140        3171.546          28.000  
  21383816.916                        4175.691          25.000  
  22258608.584                        -951.515          25.000  
 16 10  2  8  0 55.9920000  0  4G21G16G18G 5
  18914719.696    99397525.328        1052.755          29.000  
  18847953.162    99046648.319        3170.318          28.000  
  21383022.306                        4163.262          25.000  
  22258789.479                        -951.628          25.000  
 16 10  2  8  0 56.9920000  0  3G21G16G18
  18914520.102    99396472.678        1052.310          29.000  
  18847350.127    99043478.173        3170.071          28.000  
  21382229.163                        4168.953          25.000  
 16 10  2  8  0 57.9920000  0  3G21G16G18
  18914320.709    99395420.801        1051.118          29.000  
  18846745.085    99040308.766        3168.490          28.000  
  21381434.333                        4168.320          25.000  
 16 10  2  8  0 58.9920000  0  3G21G16G18
  18914120.505    99394369.534        1051.362          29.000  
  18846144.175    99037139.988        3168.968          28.000  
  21380639.404                        4166.657          25.000  
 16 10  2  8  0 59.9920000  0  4G26G21G16G18
  18261071.532    95962578.3111       1246.551          28.000  
  18913920.493    99393318.705        1051.768          29.000  
  18845540.302    99033971.796        3167.725          28.000  
  21379846.720                        4166.311          25.000  
 16 10  2  8  1  0.9920000  0  5G26G21G16G18G 5
  18260835.862    95961332.102        1245.742          28.000  
  18913716.543    99392268.367        1050.574          30.000  
  18844939.408    99030803.979        3167.564          28.000  
  21379054.140                        4166.161          25.000  
  22259698.378                        -955.246          25.000  
 16 10  2  8  1  1.9920000  0  4G21G16G18G 5
  18913522.650    99391218.581        1049.673          30.000  
  18844335.211    99027636.689        3167.073          28.000  
  21378262.070                        4166.718          25.000  
  22259881.988                        -955.213          25.000  
 16 10  2  8  1  2.9920000  0  5G26G21G16G18G 5
  18260365.535    95958868.4061       1244.938          28.000  
  18913320.720    99390169.391        1048.464          29.000  
  18843731.555    99024469.989        3166.731          28.000  
  21377468.285                        4164.580          25.000  
  22260063.727                        -955.205          25.000  
 16 10  2  8  1  3.9920000  0  5G26G21G16G18G 5
  18260129.241    95957624.117        1244.124          28.000  
  18913124.200    99389120.612        1048.624          30.000  
  18843127.917    99021303.855        3165.512          27.000  
  21376675.921                        4165.284          25.000  
  22260245.039                        -956.905          25.000  
 16 10  2  8  1  4.9920000  0  5G26G21G16G18G 5
  18259890.634    95956380.645        1243.530          28.000  
  18912920.922    99388072.563        1048.058          29.000  
  18842525.813    99018138.335        3165.258          27.000  
  21375884.575                        4166.600          26.000  
  22260428.013                        -960.000          25.000  
 16 10  2  8  1  5.9920000  0  5G26G21G16G18G 5
  18259654.869    95955137.987        1241.918          28.000  
  18912722.412    99387025.232        1046.659          29.000  
  18841923.668    99014973.571        3164.095          28.000  
  21375091.398                        4164.166          26.000  
  22260611.387                        -958.389          25.000  
 16 10  2  8  1  6.9920000  0  5G26G21G16G18G 5
  18259417.942    95953896.342        1240.925          28.000  
  18912526.091    99385978.708        1046.190          29.000  
  18841320.228    99011809.657        3163.965          27.000  
  21374299.512                        4164.647          26.000  
  22260794.718                        -958.412          26.000  
 16 10  2  8  1  7.9920000  0  5G26G21G16G18G 5
  18259182.872    95952655.289        1240.396          28.000  
  18912319.491    99384932.724        1045.804          29.000  
  18840718.786    99008646.266        3163.023          27.000  
  21373507.317                        4163.547          26.000  
  22260977.657                        -959.561          25.000  
 16 10  2  8  1  8.9920000  0  5G26G21G16G18G 5
  18258945.134    95951414.992        1240.099          28.000  
  18912127.155    99383887.307        1045.234          29.000  
  18840117.646    99005483.458        3162.791          27.000  
  21372715.773                        4163.500          26.000  
  22261158.084                        -961.309          25.000  
 16 10  2  8  1  9.9920000  0  4G21G16G18G 5
  18911927.828    99382842.690        1043.966          29.000  
  18839515.116    99002321.401        3161.899          27.000  
  21371923.633                        4163.898          26.000  
  22261340.038                        -962.115          25.000  
 16 10  2  8  1 10.9920000  0  5G21G16G27G18G 5
  18911726.502    99381798.224        1043.983          29.000  
  18838914.128    98999159.563        3161.298          27.000  
  20809220.092                        4338.505          24.000  
  21371132.331   112306052.5963       4163.171          26.000  
  22261523.880                        -961.110          26.000  
 16 10  2  8  1 11.9920000  0  6G26G21G16G27G18G 5
  18258238.720    95947692.0511       1238.008          28.000  
  18911527.070    99380754.349        1043.440          29.000  
  18838314.778    98995998.363        3160.967          27.000  
  20808393.612                        4337.740          24.000  
  21370339.678   112301889.1902       4162.787          26.000  
  22261706.741                        -961.771          26.000  
 16 10  2  8  1 12.9920000  0  5G21G16G27G18G 5
  18911330.321    99379711.007        1042.874          29.000  
  18837711.918    98992837.629        3160.409          27.000  
  20807568.248                        4344.663          23.000  
  21369547.991   112297725.9922       4163.263          26.000  
  22261889.377                        -963.844          25.000  
 16 10  2  8  1 13.9920000  0  5G21G16G27G18G 5
  18911128.880    99378668.351        1042.545          29.000  
  18837110.923    98989677.591        3160.586          27.000  
  20806744.364                        4330.755          23.000  
  21368755.340   112293563.2952       4162.518          26.000  
  22262071.821                        -962.680          25.000  
 16 10  2  8  1 14.9920000  0  5G21G16G27G18G 5
  18910933.418    99377626.187        1042.048          29.000  
  18836508.933    98986518.054        3159.730          28.000  
  20805919.506                        4328.974          23.000  
  21367963.688   112289400.7112       4162.970          26.000  
  22262254.239                        -963.514          25.000  
 16 10  2  8  1 15.9920000  0  5G21G16G27G18G 5
  18910734.932    99376584.689        1040.657          30.000  
  18835907.316    98983359.227        3158.403          28.000  
  20805096.126                        4334.939          24.000  
  21367170.197   112285238.5332       4161.517          26.000  
  22262438.799                        -965.950          25.000  
 16 10  2  8  1 16.9920000  0  5G21G16G27G18G 5
  18910537.608    99375543.716        1040.015          30.000  
  18835305.421    98980200.921        3158.093          28.000  
  20804270.367                        4329.545          24.000  
  21366377.811   112281076.6262       4162.079          27.000  
  22262622.159                        -965.466          25.000  
 16 10  2  8  1 17.9920000  0  5G21G16G27G18G 5
  18910336.799    99374503.239        1040.750          30.000  
  18834704.640    98977043.145        3157.323          28.000  
  20803445.754                        4333.970          23.000  
  21365586.675   112276915.1272       4160.889          27.000  
  22262807.512                        -966.207          25.000  
 16 10  2  8  1 18.9920000  0  5G21G16G27G18G 5
  18910141.723    99373463.382        1038.531          30.000  
  18834105.246    98973885.972        3156.608          28.000  
  20802622.185                        4333.572          23.000  
  21364795.040   112272753.2141       4161.316          27.000  
  22262990.774                        -967.875          25.000  
 16 10  2  8  1 19.9920000  0  5G21G16G27G18G 5
  18909940.274    99372424.066        1038.285          30.000  
  18833503.592    98970729.303        3156.657          28.000  
  20801797.967                        4333.679          24.000  
  21364004.168   112268592.143        4160.730          27.000  
  22263175.047                        -968.524          25.000  
 16 10  2  8  1 20.9920000  0  5G21G16G27G18G 5
  18909743.302    99371385.335        1038.317          30.000  
  18832902.817    98967573.355        3155.687          27.000  
  20800973.082                        4329.496          23.000  
  21363215.042   112264431.392        4160.614          26.000  
  22263358.686                        -968.058          25.000  
 16 10  2  8  1 21.9920000  0  4G21G16G27G18
  18909547.408    99370347.052        1037.949          29.000  
  18832302.807    98964417.810        3156.061          27.000  
  20800146.528                        4339.746          23.000  
  21362422.942   112260270.818        4160.828          26.000  
 16 10  2  8  1 22.9920000  0  4G21G16G27G18
  18909350.536    99369309.500        1036.987          29.000  
  18831701.232    98961263.089        3154.152          27.000  
  20799321.848                        4321.118          23.000  
  21361632.001   112256110.781        4159.558          26.000  
 16 10  2  8  1 23.9920000  0  4G21G16G27G18
  18909152.402    99368272.652        1036.223          29.000  
  18831102.021    98958108.955        3153.919          28.000  
  20798496.110                        4330.537          23.000  
  21360838.245                        4159.090          26.000  
 16 10  2  8  1 24.9920000  0  4G21G16G27G18
  18908956.460    99367235.754        1037.184          29.000  
  18830501.252    98954954.903        3154.099          28.000  
  20797673.137                        4330.902          23.000  
  21360045.670                        4159.350          26.000  
 16 10  2  8  1 25.9920000  0  4G21G16G27G18
  18908758.424    99366199.375        1036.669          29.000  
  18829902.252    98951801.347        3153.406          28.000  
  20796847.449                        4330.452          23.000  
  21359253.807                        4159.368          26.000  
 16 10  2  8  1 26.9920000  0  4G21G16G27G18
  18908560.077    99365163.706        1035.216          29.000  
  18829303.714    98948648.454        3152.698          28.000  
  20796024.394                        4328.402          24.000  
  21358463.498                        4159.092          26.000  
 16 10  2  8  1 27.9920000  0  4G21G16G27G18
  18908363.861    99364128.809        1034.625          29.000  
  18828704.596    98945496.415        3151.806          28.000  
  20795200.716                        4330.421          24.000  
  21357670.747                        4157.650          26.000  
 16 10  2  8  1 28.9920000  0  4G21G16G27G18
  18908169.778    99363094.363        1034.469          30.000  
  18828106.303    98942344.791        3151.754          28.000  
  20794376.476                        4333.797          24.000  
  21356879.261                        4158.008          27.000  
 16 10  2  8  1 29.9920000  0  3G21G16G18
  18907972.209    99362060.713        1033.403          28.000  
  18827505.317    98939193.936        3150.448          28.000  
  21356087.274                        4158.525          26.000  
 16 10  2  8  1 30.9920000  0  4G21G16G18G 5
  18907775.413    99361027.346        1033.932          27.000  
  18826905.362    98936043.744        3149.494          28.000  
  21355298.386                        4158.066          25.000  
  22265207.553                        -975.501          21.000  
 16 10  2  8  1 31.9920000  0  6G26G21G16G20G18G 5
  18253553.997    95923073.520        1224.119          33.000  
  18907575.929    99359995.199        1032.766          34.000  
  18826305.225    98932900.8423       3150.169          33.000  
  19971336.099                        1901.952          21.000  
  21354512.376                        4157.704          29.000  
  22265390.713   117005416.9253       -974.521          38.000  
 16 10  2  8  1 32.9920000  0  5G21G16G20G18G 5
  18907381.457    99358962.916        1032.495          36.000  
  18825703.220    98929752.0602       3149.788          29.000  
  19970973.245                        1907.587          20.000  
  21353721.008                        4159.101          28.000  
  22265577.281   117006392.2442       -975.199          30.000  
 16 10  2  8  1 33.9920000  0  6G26G21G16G20G18G31
  18253089.059    95920630.033        1222.198          33.000  
  18907187.676    99357930.881        1031.964          32.000  
  18825106.002    98926604.3252       3148.338          30.000  
  19970613.440                        1900.792          18.000  
  21352927.561   112210390.7193       4158.978          33.000  
  21887541.995                       -2186.999          24.000  
 16 10  2  8  1 34.9920000  0  6G21G16G20G18G 5G31
  18906989.425    99356899.109        1030.950          29.000  
  18824505.741    98923457.5412       3146.516          28.000  
  19970252.617                        1913.797          17.000  
  21352135.690   112206231.6532       4158.765          32.000  
  22265952.642                        -986.787          22.000  
  21887960.200                       -2186.999          25.000  
 16 10  2  8  1 35.9920000  0  6G26G21G20G27G18G 5
  18252623.581    95918183.635        1221.771          33.000  
  18906792.305    99355867.977        1031.702          31.000  
  19969893.501                        1894.663          16.000  
  20788626.473                        4331.651          25.000  
  21351343.562   112202072.7242       4158.001          32.000  
  22266141.902                        -974.069          21.000  
 16 10  2  8  1 36.9920000  0  5G26G21G27G18G31
  18252392.054    95916963.016        1219.833          33.000  
  18906599.363    99354837.650        1030.221          31.000  
  20787798.962                        4322.172          23.000  
  21350551.659   112197914.4652       4157.849          30.000  
  21888783.134                       -2184.219          25.000  
 16 10  2  8  1 37.9920000  0  7G26G21G20G27G18G 5G31
  18252161.047    95915742.900        1219.927          33.000  
  18906401.506    99353807.999        1028.801          31.000  
  19969179.665                        1864.332          14.000  
  20786978.158                        4327.134          31.000  
  21349762.021   112193756.6602       4155.066          31.000  
  22266507.583                        -983.577          25.000  
  21889202.786                       -2186.572          25.000  
 16 10  2  8  1 38.9920000  0  6G26G21G20G27G18G 5
  18251926.311    95914523.977        1218.834          29.000  
  18906202.227                        1028.613          30.000  
  19968821.926                        1899.252          14.000  
  20786148.959                        4327.173          25.000  
  21348964.798   112189598.8872       4157.953          29.000  
  22266694.155                        -983.187          23.000  
 16 10  2  8  1 39.9920000  0  7G26G21G20G27G18G 5G31
  18251694.018    95913305.469        1218.419          33.000  
  18906008.373    99351744.4073       1027.091          30.000  
  19968461.834                        1868.002          12.000  
  20785322.748                        4328.067          31.000  
  21348176.558   112185441.8752       4156.231          29.000  
  22266889.230                        -966.213          21.000  
  21890033.747                       -2182.898          26.000  
 16 10  2  8  1 40.9920000  0  6G26G21G20G27G18G 5
  18251463.521    95912087.650        1218.233          33.000  
  18905812.403    99350716.3972       1027.921          30.000  
  19968104.002                        1900.744          16.000  
  20784499.830                        4325.906          30.000  
  21347388.037   112181284.8762       4156.891          32.000  
  22267089.068                        -987.968          19.000  
 16 10  2  8  1 41.9920000  0  4G26G21G20G18
  18251228.468    95910869.962        1216.748          32.000  
  18905615.248    99349678.4963       1027.746          29.000  
  19967744.541                        1874.702          15.000  
  21346593.142   112177127.5142       4156.403          30.000  
 16 10  2  8  1 42.9920000  0  6G26G21G27G18G29G 5
  18251002.353    95909653.294        1215.474          33.000  
  18905424.538    99348651.4142       1028.372          29.000  
  20782853.812                        4325.167          25.000  
  21345807.814   112172970.3631       4157.123          30.000  
  20582061.585                       -1706.806          17.000  
  22267468.622                        -974.240          19.000  
 16 10  2  8  1 43.9920000  0  6G26G21G27G18G29G 5
  18250769.261    95908437.210        1215.883          31.000  
  18905223.872    99347624.6592       1027.616          30.000  
  20782031.098                        4319.108          24.000  
  21345012.296   112168813.825        4156.231          30.000  
  20582390.494                       -1706.806          16.000  
  22267652.256                        -972.812          17.000  
 16 10  2  8  1 44.9920000  0  4G26G21G29G 5
  18250537.774    95907222.219        1214.801          30.000  
  18905026.904    99346598.4562       1026.088          29.000  
  20582714.527                       -1706.806          17.000  
  22267838.640                        -981.184          17.000  
 16 10  2  8  1 45.9920000  0  4G21G27G29G 5
  18904831.225    99345573.1702       1025.443          29.000  
  20780386.896                        4321.770          23.000  
  20583046.697                       -1706.806          15.000  
  22268021.262                        -976.027          20.000  
 16 10  2  8  1 46.9920000  0  6G26G21G27G18G29G 5
  18250069.836    95904764.1843       1213.566          26.000  
  18904638.730    99344548.9842       1024.144          28.000  
  20779557.956   109197313.4643       4326.913          34.000  
  21342645.193                        4159.854          23.000  
  20583373.304                       -1706.806          13.000  
  22268207.212                        -977.856          22.000  
 16 10  2  8  1 47.9920000  0  7G26G21G16G27G18G29G 5
  18249840.293    95903551.0352       1212.769          29.000  
  18904439.649    99343525.7192       1022.761          27.000  
  18816736.533    98882616.9923       3140.170          33.000  
  20778734.244   109192987.5272       4325.744          32.000  
  21341849.924                        4140.590          21.000  
  20583696.670                       -1706.806          12.000  
  22268393.970                        -993.206          22.000  
 16 10  2  8  1 48.9920000  0  6G26G21G16G27G18G29
  18249610.474    95902337.5372       1212.284          36.000  
  18904249.962    99342501.3211       1022.767          33.000  
  18816139.139    98879476.3282       3140.257          34.000  
  20777913.119   109188661.6262       4327.464          31.000  
  21341056.342                        4151.883          30.000  
  20584020.643                       -1706.806          18.000  
 16 10  2  8  1 49.9920000  0  5G26G21G16G27G29
  18249381.155    95901125.4672       1210.906          31.000  
  18904051.297    99341478.861        1021.521          30.000  
  18815540.537    98876336.7762       3139.945          30.000  
  20777088.752                        4293.633          23.000  
  20584343.212                       -1706.806          20.000  
 16 10  2  8  1 50.9920000  0  4G26G16G27G29
  18249150.575    95899913.8332       1211.887          26.000  
  18814945.312    98873197.8272       3139.161          30.000  
  20776269.831                        4327.818          21.000  
  20584668.537                       -1706.806          18.000  
 16 10  2  8  1 51.9920000  0  5G26G21G16G27G29
  18248917.928    95898702.8042       1210.917          27.000  
  18903669.654                        1023.271          22.000  
  18814349.144    98870059.1642       3138.727          29.000  
  20775446.157                        4319.276          19.000  
  20584992.878                       -1706.806          17.000  
 16 10  2  8  1 52.9920000  0  5G26G21G16G27G29
  18248687.670    95897492.4422       1210.297          28.000  
  18903475.530                        1021.194          24.000  
  18813750.113    98866920.9902       3138.151          30.000  
  20774621.513                        4326.612          20.000  
  20585316.730                       -1706.806          16.000  
 16 10  2  8  1 53.9920000  0  4G26G21G16G27
  18248460.679    95896282.9822       1209.364          33.000  
  18903278.073    99337396.5133       1019.663          26.000  
  18813150.168    98863782.8372       3138.531          32.000  
  20773796.257                        4344.765          21.000  
 16 10  2  8  1 54.9920000  0  4G26G21G16G27
  18248233.318    95895073.1521       1208.983          31.000  
  18903085.977    99336376.7602       1019.433          27.000  
  18812554.925    98860643.6691       3138.962          31.000  
  20772973.677                        4322.763          21.000  
 16 10  2  8  1 55.9920000  0  5G26G21G16G27G 5
  18247999.778    95893864.184        1210.210          31.000  
  18902892.280    99335357.2732       1019.787          28.000  
  18811958.109    98857505.212        3139.780          31.000  
  20772151.664                        4338.949          20.000  
  22269878.493                        -986.413          26.000  
 16 10  2  8  1 56.9920000  0  5G26G21G16G27G 5
  18247770.769    95892655.959        1208.460          31.000  
  18902700.700    99334338.4822       1018.153          29.000  
  18811359.732    98854367.254        3138.223          31.000  
  20771330.500                        4324.300          19.000  
  22270059.652   117029987.9162       -986.299          31.000  
 16 10  2  8  1 57.9920000  0  5G26G21G16G27G 5
  18247541.583    95891448.439        1207.561          31.000  
  18902504.555    99333320.1882       1019.817          29.000  
  18810757.840    98851229.781        3139.310          31.000  
  20770506.924                        4325.476          19.000  
  22270243.441   117030975.0072       -985.106          27.000  
 16 10  2  8  1 58.9920000  0  4G26G21G16G27
  18247308.940    95890241.906        1205.858          31.000  
  18902310.573    99332302.7212       1018.414          29.000  
  18810162.363    98848093.329        3136.592          31.000  
  20769682.440                        4320.050          20.000  
 16 10  2  8  1 59.9920000  0  5G26G21G16G27G 5
  18247079.839    95889036.441        1204.877          32.000  
  18902114.522    99331286.0492       1016.582          29.000  
  18809567.661    98844958.177        3135.921          31.000  
  20768857.417                        4328.495          24.000  
  22270626.131                        -994.281          25.000  
 16 10  2  8  2  0.9920000  0  5G26G21G16G27G 5
  18246853.803    95887831.709        1204.862          32.000  
  18901920.353    99330269.734        1016.627          29.000  
  18808969.297    98841823.636        3135.472          32.000  
  20768034.612                        4323.696          25.000  
  22270818.371   117033939.5233       -990.122          28.000  
 16 10  2  8  2  1.9920000  0  5G26G21G16G27G 5
  18246623.367    95886627.211        1204.454          33.000  
  18901727.460    99329253.740        1015.401          29.000  
  18808372.033    98838689.298        3134.727          32.000  
  20767211.899                        4324.197          25.000  
  22271002.625                        -991.078          29.000  
 16 10  2  8  2  2.9920000  0  5G26G21G16G27G 5
  18246394.105    95885423.509        1202.489          31.000  
  18901536.997    99328238.290        1014.604          29.000  
  18807776.489    98835555.539        3133.617          31.000  
  20766391.609                        4312.022          22.000  
  22271189.759   117035891.9373       -992.291          32.000  
 16 10  2  8  2  3.9920000  0  5G26G21G16G27G 5
  18246166.479    95884220.040        1202.292          32.000  
  18901343.229    99327223.081        1014.929          29.000  
  18807183.378    98832422.063        3133.135          31.000  
  20765569.824                        4334.906          19.000  
  22271378.961   117036886.2783       -991.323          28.000  
 16 10  2  8  2  4.9920000  0  4G26G21G16G 5
  18245937.693    95883017.447        1201.345          32.000  
  18901145.357    99326208.199        1013.696          29.000  
  18806588.486    98829289.472        3130.328          31.000  
  22271562.998                        -992.050          27.000  
 16 10  2  8  2  5.9920000  0  5G26G21G16G27G 5
  18245709.698    95881815.895        1201.499          31.000  
  18900955.098    99325193.823        1013.654          27.000  
  18805989.205                        3132.341          25.000  
  20763925.400                        4322.864          28.000  
  22271758.784                        -991.816          26.000  
 16 10  2  8  2  6.9920000  0  4G26G21G16G27
  18245480.516    95880615.203        1199.119          31.000  
  18900758.880                        1015.257          26.000  
  18805397.727                        3119.168          25.000  
  20763104.539                        4324.305          25.000  
 16 10  2  8  2  7.9920000  0  5G26G21G16G27G18
  18245250.368    95879415.240        1198.760          32.000  
  18900569.404                        1011.824          26.000  
  18804803.565                        3130.438          25.000  
  20762280.757                        4323.788          24.000  
  21326058.724                        4146.414          24.000  
 16 10  2  8  2  8.9920000  0  4G26G21G16G27
  18245020.584                        1195.996          29.000  
  18900380.160                        1011.252          23.000  
  18804210.204                        3131.871          23.000  
  20761458.613                        4322.784          21.000  
 16 10  2  8  2  9.9920000  0  3G26G16G27
  18244794.278    95877040.1793       1198.351          34.000  
  18803609.426                        3128.194          23.000  
  20760637.045                        4320.736          21.000  
 16 10  2  8  2 10.9920000  0  6G26G21G16G27G 5G18
  18244567.090    95875842.1582       1198.061          35.000  
  18899997.638    99320157.1343       1011.945          28.000  
  18803010.361                        3128.404          27.000  
  20759816.191   109093569.6493       4320.826          26.000  
  22272700.801                        -994.666          25.000  
  21323694.769                        4146.062          25.000  
 16 10  2  8  2 11.9920000  0  6G26G21G16G27G 5G18
  18244338.031    95874644.7382       1196.949          36.000  
  18899801.659    99319146.1122       1010.426          30.000  
  18802416.870    98807358.1683       3127.499          29.000  
  20758993.806   109089249.1242       4320.146          27.000  
  22272890.537   117044828.9132       -995.112          26.000  
  21322905.770   112052625.1713       4145.013          31.000  
 16 10  2  8  2 12.9920000  0  6G26G21G16G27G 5G18
  18244112.531    95873448.0972       1195.213          36.000  
  18899610.229    99318135.6712       1009.822          31.000  
  18801819.670    98804230.5082       3126.670          29.000  
  20758171.494   109084928.7352       4319.734          29.000  
  22273082.651   117045824.2472       -996.307          32.000  
  21322114.431                        4145.721          25.000  
 16 10  2  8  2 13.9920000  0  6G26G21G16G27G 5G18
  18243884.351    95872252.3542       1195.384          36.000  
  18899417.724    99317125.8912       1009.042          30.000  
  18801226.882    98801103.7842       3126.273          29.000  
  20757348.827   109080609.0872       4319.484          29.000  
  22273270.083   117046819.8682       -996.415          27.000  
  21321328.126                        4145.343          27.000  
 16 10  2  8  2 14.9920000  0  6G26G21G16G27G 5G18
  18243655.630    95871056.8682       1195.089          35.000  
  18899222.981    99316116.5082       1008.640          31.000  
  18800629.510    98797976.9712       3126.447          31.000  
  20756522.766   109076288.8382       4320.266          30.000  
  22273456.791   117047816.5102       -997.368          26.000  
  21320542.041   112040177.8312       4144.812          27.000  
 16 10  2  8  2 15.9920000  0  7G26G21G16G20G27G 5G18
  18243429.888    95869861.9922       1194.491          35.000  
  18899028.789    99315107.3942       1007.753          31.000  
  18800037.583    98794850.7072       3125.904          30.000  
  19955566.209                        1865.114          16.000  
  20755696.646   109071968.9642       4319.450          29.000  
  22273649.034   117048812.9962       -996.428          31.000  
  21319748.531   112036033.4262       4143.689          27.000  
 16 10  2  8  2 16.9920000  0  7G26G21G16G20G27G 5G18
  18243202.335    95868668.1832       1193.622          36.000  
  18898841.826    99314099.2662       1006.980          31.000  
  18799443.124    98791725.5082       3123.159          30.000  
  19955212.380                        1857.784          16.000  
  20754878.712   109067649.7572       4319.394          28.000  
  22273836.016   117049810.4492       -998.771          27.000  
  21318956.409   112031889.5272       4143.500          28.000  
 16 10  2  8  2 17.9920000  0  7G26G21G16G20G27G 5G18
  18242975.151    95867474.8342       1193.478          34.000  
  18898649.267    99313091.5682       1007.552          30.000  
  18798846.887    98788600.3612       3124.165          30.000  
  19954857.452                        1866.258          15.000  
  20754053.911   109063330.2412       4320.970          29.000  
  22274025.917   117050808.3512       -998.103          28.000  
  21318169.318   112027746.0802       4142.743          27.000  
 16 10  2  8  2 18.9920000  0  6G26G21G16G20G27G 5
  18242748.222    95866282.069        1191.436          34.000  
  18898459.583    99312084.371        1007.212          31.000  
  18798256.957    98785475.2081       3123.385          29.000  
  19954502.979                        1868.216          15.000  
  20753234.034   109059010.821        4318.867          30.000  
  22274217.371   117051807.1012      -1000.394          27.000  
 16 10  2  8  2 19.9920000  0  6G26G21G16G20G27G 5
  18242521.405    95865090.141        1191.296          34.000  
  18898266.247    99311077.701        1006.221          31.000  
  18797656.006    98782351.386        3122.198          30.000  
  19954148.154                        1868.216          13.000  
  20752409.613   109054692.136        4318.043          29.000  
  22274408.135   117052804.6783      -1002.949          27.000  
 16 10  2  8  2 20.9920000  0  6G26G21G16G20G27G 5
  18242294.896    95863898.898        1190.573          33.000  
  18898072.728    99310071.721        1005.975          30.000  
  18797064.896    98779228.039        3122.921          29.000  
  19953792.988                        1870.949          14.000  
  20751586.128   109050373.523        4318.502          29.000  
  22274599.641   117053810.3332       -999.703          32.000  
 16 10  2  8  2 21.9920000  0  6G26G21G16G20G27G 5
  18242068.350    95862708.053        1190.274          34.000  
  18897885.558    99309065.753        1005.420          30.000  
  18796471.893    98776105.533        3121.252          29.000  
  19953438.596                        1876.135          15.000  
  20750761.060   109046055.501        4317.370          28.000  
  22274793.774   117054810.3492      -1000.844          26.000  
 16 10  2  8  2 22.9920000  0  6G26G21G16G20G27G 5
  18241841.977    95861518.356        1190.245          35.000  
  18897694.804    99308060.634        1004.568          29.000  
  18795877.504    98772984.067        3121.084          28.000  
  19953082.643                        1864.502          17.000  
  20749946.233                        4321.203          26.000  
  22274979.917   117055811.5412      -1002.071          27.000  
 16 10  2  8  2 23.9920000  0  6G26G21G16G20G27G 5
  18241615.649    95860329.575        1188.438          35.000  
  18897498.154    99307056.193        1003.800          29.000  
  18795282.916    98769863.306        3119.045          28.000  
  19952727.441                        1865.159          19.000  
  20749127.334                        4316.791          27.000  
  22275166.805   117056813.1052      -1002.324          29.000  
 16 10  2  8  2 24.9920000  0  6G26G21G16G20G27G 5
  18241389.498    95859141.117        1188.423          35.000  
  18897305.636    99306051.813        1003.736          29.000  
  18794688.389    98766742.767        3120.572          28.000  
  19952373.890                        1863.453          20.000  
  20748305.477   109033082.9083       4316.905          27.000  
  22275359.724                       -1028.504          26.000  
 16 10  2  8  2 25.9920000  0  6G26G21G16G20G27G 5
  18241163.245    95857953.367        1187.764          35.000  
  18897117.754    99305048.190        1004.338          30.000  
  18794092.185                        3120.135          28.000  
  19952020.289                        1858.662          19.000  
  20747481.641   109028766.3112       4316.973          27.000  
  22275554.743                       -1002.815          31.000  
 16 10  2  8  2 26.9920000  0  6G26G21G16G20G27G 5
  18240937.323    95856766.057        1186.955          35.000  
  18896926.316    99304044.802        1002.100          29.000  
  18793502.566    98760500.6263       3117.883          29.000  
  19951666.085                        1857.708          19.000  
  20746658.234                        4316.858          27.000  
  22275743.017   117059833.0153      -1002.510          29.000  
 16 10  2  8  2 27.9920000  0  6G26G21G16G20G27G 5
  18240711.212    95855579.785        1186.308          35.000  
  18896737.772    99303042.015        1004.052          30.000  
  18792903.518    98757382.2742       3118.056          29.000  
  19951311.223                        1856.923          19.000  
  20745839.210                        4314.336          26.000  
  22275936.274                       -1001.724          19.000  
 16 10  2  8  2 28.9920000  0  6G26G21G16G20G27G 5
  18240485.205    95854394.200        1185.071          35.000  
  18896546.663    99302039.778        1002.018          31.000  
  18792312.635    98754264.2712       3118.000          28.000  
  19950958.212                        1862.392          19.000  
  20745018.244                        4313.623          26.000  
  22276124.047                       -1008.186          19.000  
 16 10  2  8  2 29.9920000  0  5G26G21G16G20G27
  18240259.656    95853209.363        1185.594          35.000  
  18896356.859    99301038.184        1002.474          31.000  
  18791725.844    98751147.0172       3118.195          29.000  
  19950603.207                        1865.909          19.000  
  20744199.378                        4316.035          25.000  
 16 10  2  8  2 30.9920000  0  6G26G21G16G20G27G 5
  18240034.229    95852024.989        1184.658          35.000  
  18896165.137    99300037.080         999.890          30.000  
  18791129.872    98748030.0322       3116.949          28.000  
  19950247.437                        1854.858          19.000  
  20743372.655                        4314.756          24.000  
  22276509.462                       -1004.144          25.000  
 16 10  2  8  2 31.9920000  0  6G26G21G16G20G27G 5
  18239809.122    95850841.414        1183.229          35.000  
  18895971.995    99299036.471        1000.963          30.000  
  18790537.560    98744913.7692       3115.055          28.000  
  19949895.046                        1852.162          20.000  
  20742554.463                        4313.911          25.000  
  22276699.901                       -1020.138          24.000  
 16 10  2  8  2 32.9920000  0  6G26G21G16G20G27G 5
  18239583.907    95849658.559        1182.466          34.000  
  18895780.878    99298036.332        1000.446          30.000  
  18789941.029    98741798.2672       3115.040          27.000  
  19949540.656                        1856.239          19.000  
  20741740.153                        4316.349          25.000  
  22276890.319                       -1005.880          23.000  
 16 10  2  8  2 33.9920000  0  6G26G21G16G20G27G 5
  18239358.795    95848476.347        1181.719          35.000  
  18895593.698    99297036.693         999.950          30.000  
  18789348.476    98738683.3072       3114.174          28.000  
  19949189.772                        1857.635          20.000  
  20740917.307                        4313.424          25.000  
  22277083.092                       -1010.058          22.000  
 16 10  2  8  2 34.9920000  0  6G26G21G16G20G27G 5
  18239134.323    95847294.426        1182.026          35.000  
  18895402.603    99296037.154         999.072          29.000  
  18788757.559    98735568.5342       3114.962          28.000  
  19948836.599                        1855.248          20.000  
  20740095.120                        4311.995          25.000  
  22277273.464                       -1018.694          20.000  
 16 10  2  8  2 35.9920000  0  6G26G21G16G20G27G 5
  18238909.381    95846113.115        1181.070          35.000  
  18895213.339    99295038.183         998.828          29.000  
  18788162.396    98732454.1782       3113.295          27.000  
  19948481.490                        1848.499          20.000  
  20739273.759                        4320.797          24.000  
  22277464.391                       -1008.964          21.000  
 16 10  2  8  2 36.9920000  0  6G26G21G16G20G27G 5
  18238684.723    95844932.650        1179.740          34.000  
  18895026.257    99294039.767         997.963          29.000  
  18787569.882    98729339.9591       3113.948          27.000  
  19948128.885                        1857.887          20.000  
  20738453.272                        4316.366          24.000  
  22277654.896                       -1002.814          21.000  
 16 10  2  8  2 37.9920000  0  6G26G21G16G20G27G 5
  18238460.081    95843752.797        1179.624          34.000  
  18894830.138    99293042.035         997.576          28.000  
  18786979.511    98726226.865        3111.999          27.000  
  19947777.836                        1853.693          20.000  
  20737630.866                        4313.837          23.000  
  22277844.513                       -1011.112          21.000  
 16 10  2  8  2 38.9920000  0  6G26G21G16G20G27G 5
  18238235.590    95842573.513        1179.674          34.000  
  18894645.190    99292044.639         997.155          28.000  
  18786385.040    98723114.095        3112.541          28.000  
  19947425.476                        1834.422          18.000  
  20736810.582                        4312.187          24.000  
  22278037.520                       -1004.501          21.000  
 16 10  2  8  2 39.9920000  0  6G26G21G16G20G27G 5
  18238011.565    95841394.821        1177.965          33.000  
  18894455.939    99291047.929         995.748          28.000  
  18785794.896    98720018.3263       3110.565          30.000  
  19947077.159                        1846.816          17.000  
  20735989.893                        4311.388          26.000  
  22278230.471                       -1009.457          22.000  
 16 10  2  8  2 40.9920000  0  6G26G21G16G20G27G 5
  18237787.561    95840217.047        1177.614          34.000  
  18894265.851    99290051.740         995.068          28.000  
  18785203.631    98716907.1352       3110.874          29.000  
  19946724.831                        1854.995          18.000  
  20735170.760   108964049.3673       4312.861          26.000  
  22278423.490                       -1009.069          23.000  
 16 10  2  8  2 41.9920000  0  6G26G21G16G20G27G 5
  18237563.576    95839039.859        1176.080          34.000  
  18894071.341    99289056.109         994.631          28.000  
  18784608.566    98713796.1072       3111.493          29.000  
  19946373.036                        1848.541          21.000  
  20734349.788                        4312.037          26.000  
  22278616.789                       -1011.509          24.000  
 16 10  2  8  2 42.9920000  0  6G26G21G16G20G27G 5
  18237339.789    95837863.141        1177.110          34.000  
  18893884.963    99288060.895         995.229          28.000  
  18784021.996    98710685.5692       3110.339          29.000  
  19946021.953                        1846.386          23.000  
  20733529.795                        4312.095          27.000  
  22278811.215                       -1012.138          26.000  
 16 10  2  8  2 43.9920000  0  6G26G21G16G20G27G 5
  18237116.047    95836687.380        1175.601          34.000  
  18893694.755    99287066.319         993.590          28.000  
  18783424.772    98707576.1072       3108.763          28.000  
  19945669.452                        1847.071          24.000  
  20732708.941                        4311.125          26.000  
  22279003.425   117076955.0132      -1014.110          27.000  
 16 10  2  8  2 44.9920000  0  6G26G21G16G20G27G 5
  18236892.347    95835512.075        1175.422          34.000  
  18893508.195    99286072.154         993.659          28.000  
  18782832.909    98704466.5722       3109.058          28.000  
  19945315.650                        1852.389          24.000  
  20731891.264                        4312.555          26.000  
  22279196.511                       -1013.982          26.000  
 16 10  2  8  2 45.9920000  0  6G26G21G16G20G27G 5
  18236668.718    95834337.194        1175.166          33.000  
  18893319.501    99285078.452         992.877          28.000  
  18782244.445    98701357.4412       3108.711          30.000  
  19944963.761                        1842.656          25.000  
  20731068.736   108942511.3293       4311.842          27.000  
  22279389.133                       -1012.798          26.000  
 16 10  2  8  2 46.9920000  0  6G26G21G16G20G27G 5
  18236445.334    95833163.070        1173.610          36.000  
  18893130.270    99284085.201         991.447          29.000  
  18781651.870    98698248.9832       3109.052          31.000  
  19944611.455                        1847.024          26.000  
  20730249.744   108938199.8872       4312.731          33.000  
  22279582.282                       -1013.691          26.000  
 16 10  2  8  2 47.9920000  0  6G26G21G16G20G27G 5
  18236222.045    95831989.558        1173.513          36.000  
  18892937.978    99283092.381         992.648          33.000  
  18781061.756    98695141.0122       3107.296          32.000  
  19944257.322   104807792.7693       1847.367          29.000  
  20729421.592   108933888.6972       4310.298          31.000  
  22279775.456                       -1015.472          25.000  
 16 10  2  8  2 48.9920000  0  6G26G21G16G20G27G 5
  18235998.793    95830816.844        1172.490          37.000  
  18892753.950    99282100.006         991.553          33.000  
  18780468.973    98692033.5031       3106.264          32.000  
  19943904.202   104805946.1462       1845.791          31.000  
  20728608.222   108929578.0862       4309.004          32.000  
  22279965.717   117082009.4593      -1016.650          25.000  
 16 10  2  8  2 49.9920000  0  6G26G21G16G20G27G 5
  18235775.969    95829644.751        1171.144          37.000  
  18892566.565    99281108.464         990.098          32.000  
  18779876.748    98688926.647        3105.326          32.000  
  19943555.480   104804100.6672       1845.479          33.000  
  20727787.547   108925267.1652       4310.763          33.000  
  22280159.916   117083024.6632      -1017.195          25.000  
 16 10  2  8  2 50.9920000  0  6G26G21G16G20G27G 5
  18235553.299    95828473.228        1170.555          39.000  
  18892377.174    99280117.118         990.782          33.000  
  18779285.964    98685820.504        3105.402          33.000  
  19943205.166   104802255.5322       1844.185          33.000  
  20726964.613   108920956.9042       4307.508          30.000  
  22280353.971   117084040.3532      -1016.581          26.000  
 16 10  2  8  2 51.9920000  0  6G26G21G16G20G27G 5
  18235330.517    95827302.375        1170.762          38.000  
  18892186.767    99279126.500         990.381          34.000  
  18778694.885    98682714.622        3106.336          36.000  
  19942851.872   104800411.3152       1844.353          33.000  
  20726148.274   108916646.3282       4311.175          34.000  
  22280547.300   117085056.3972      -1016.861          32.000  
 16 10  2  8  2 52.9920000  0  8G26G21G16G20G27G29G 5G31
  18235107.558    95826131.431        1169.868          41.000  
  18891996.701    99278136.955         988.666          37.000  
  18778104.816    98679607.997        3104.966          39.000  
  19942504.686   104798570.0642       1840.700          35.000  
  20725327.470   108912333.7602       4311.451          31.000  
  20604738.715                       -1712.663          22.000  
  22280735.790   117086056.1573      -1019.537          32.000  
  21920490.066                       -2196.155          34.000  
 16 10  2  8  2 53.9920000  0  8G26G21G16G20G27G29G 5G31
  18234884.833    95824961.383        1170.215          38.000  
  18891810.481    99277148.508         988.271          37.000  
  18777514.259    98676502.204        3105.854          37.000  
  19942153.060   104796730.3362       1839.339          35.000  
  20724503.972                        4316.953          26.000  
  20605059.312                       -1712.663          22.000  
  22280935.672   117087076.2532      -1021.196          33.000  
  21920894.902   115195079.2683      -2196.918          34.000  
 16 10  2  8  2 54.9920000  0  8G26G21G16G20G27G29G 5G31
  18234662.416    95823792.352        1168.639          38.000  
  18891622.200    99276160.916         987.471          35.000  
  18776923.402    98673397.041        3105.130          37.000  
  19941802.864   104794891.1921       1838.922          35.000  
  20723687.551                        4314.348          27.000  
  20605383.769                       -1712.663          22.000  
  22281128.404   117088096.6912      -1020.170          32.000  
  21921312.010   115197276.8222      -2198.308          34.000  
 16 10  2  8  2 55.9920000  0  7G26G21G16G20G27G 5G31
  18234440.259    95822623.808        1167.971          32.000  
  18891432.696    99275173.873         986.534          31.000  
  18776332.555    98670292.485        3103.789          33.000  
  19941453.899   104793053.592        1836.860          28.000  
  20722865.842                        4311.618          29.000  
  22281324.362   117089118.4222      -1022.133          31.000  
  21921731.935   115199473.7712      -2195.912          29.000  
 16 10  2  8  2 56.9920000  0  7G26G21G16G20G27G 5G31
  18234217.947    95821455.925        1167.973          34.000  
  18891251.227    99274186.918         986.266          36.000  
  18775741.744    98667189.596        3102.148          34.000  
  19941100.693   104791215.935        1836.529          34.000  
  20722042.619   108895083.8673       4310.126          34.000  
  22281515.289                       -1021.713          24.000  
  21922149.704                       -2196.167          28.000  
 16 10  2  8  2 57.9920000  0  7G26G21G16G20G27G 5G31
  18233995.828    95820288.477        1167.980          34.000  
  18891056.633    99273200.414         986.732          36.000  
  18775151.469    98664087.042        3102.374          33.000  
  19940754.210   104789379.233        1837.202          33.000  
  20721220.937   108890772.8582       4311.056          33.000  
  22281706.114                       -1019.839          21.000  
  21922569.107   115203878.0573      -2195.188          29.000  
 16 10  2  8  2 58.9920000  0  7G26G21G16G20G27G 5G31
  18233773.911    95819120.886        1167.156          35.000  
  18890870.979    99272213.740         986.750          37.000  
  18774560.959    98660984.263        3102.529          33.000  
  19940402.528   104787542.776        1836.614          32.000  
  20720402.626   108886461.3242       4310.329          34.000  
  22281907.099                       -1023.845          19.000  
  21922985.644   115206072.9582      -2194.832          28.000  
 16 10  2  8  2 59.9920000  0  6G26G21G16G20G27G31
  18233551.858    95817953.674        1166.954          35.000  
  18890684.286    99271227.548         986.083          37.000  
  18773970.765    98657881.743        3101.533          34.000  
  19940057.248   104785707.266        1835.202          32.000  
  20719585.182   108882149.4602       4311.091          36.000  
  21923399.913   115208267.5192      -2194.766          28.000  
 16 10  2  8  3  0.9920000  0  7G26G21G16G20G27G 5G31
  18233329.759    95816787.149        1166.112          35.000  
  18890496.637    99270241.673         985.730          37.000  
  18773380.595    98654779.795        3102.262          34.000  
  19939707.785   104783871.992        1834.311          31.000  
  20718764.769   108877838.1172       4309.919          34.000  
  22282297.702                       -1023.475          20.000  
  21923819.697   115210462.6012      -2197.389          29.000  
 16 10  2  8  3  1.9920000  0  7G26G21G16G20G27G 5G31
  18233107.770    95815621.359        1166.595          35.000  
  18890308.070    99269256.497         985.607          37.000  
  18772790.602    98651678.557        3101.653          34.000  
  19939357.564   104782037.592        1834.682          32.000  
  20717942.305   108873526.9162       4312.299          35.000  
  22282492.409                       -1013.982          20.000  
  21924241.432   115212657.5772      -2193.283          28.000  
 16 10  2  8  3  2.9920000  0  7G26G21G16G20G27G 5G31
  18232885.955    95814456.265        1164.604          35.000  
  18890121.039    99268271.722         984.427          37.000  
  18772200.564    98648577.804        3100.451          34.000  
  19939004.536   104780203.789        1832.944          31.000  
  20717124.435   108869216.1512       4311.081          35.000  
  22282687.969                       -1033.776          21.000  
  21924657.524   115214853.0002      -2193.782          29.000  
 16 10  2  8  3  3.9920000  0  7G26G21G16G20G27G 5G31
  18232664.241    95813291.813        1164.489          34.000  
  18889934.406    99267287.614         983.502          37.000  
  18771610.762    98645477.618        3100.191          34.000  
  19938660.110   104778370.900        1831.911          30.000  
  20716305.468   108864905.5772       4309.827          35.000  
  22282884.878                       -1026.885          21.000  
  21925078.881                       -2195.870          28.000  
 16 10  2  8  3  4.9920000  0  7G26G21G16G20G27G 5G31
  18232442.735    95812127.961        1163.680          34.000  
  18889746.901    99266303.898         982.921          37.000  
  18771021.302    98642377.931        3098.974          34.000  
  19938314.064   104776538.470        1832.208          30.000  
  20715483.203   108860595.1362       4311.380          33.000  
  22283081.005                       -1026.605          22.000  
  21925490.522   115219229.8263      -2196.321          28.000  
 16 10  2  8  3  5.9920000  0  7G26G21G16G20G27G 5G31
  18232221.431    95810964.992        1162.284          35.000  
  18889559.770    99265320.894         982.527          37.000  
  18770431.420    98639278.865        3097.845          33.000  
  19937964.134   104774707.026        1830.796          29.000  
  20714661.655   108856285.2242       4309.806          33.000  
  22283274.208                       -1028.003          22.000  
  21925902.965                       -2195.909          27.000  
 16 10  2  8  3  6.9920000  0  7G26G21G16G20G27G 5G31
  18232000.165    95809802.560        1161.600          35.000  
  18889372.827    99264338.261         982.312          37.000  
  18769841.527    98636180.298        3098.018          34.000  
  19937613.573   104772876.148        1830.150          29.000  
  20713843.737   108851974.8431       4309.237          34.000  
  22283472.092                       -1027.320          22.000  
  21926322.733                       -2195.927          27.000  
 16 10  2  8  3  7.9920000  0  7G26G21G16G20G27G 5G31
  18231779.059    95808640.609        1161.800          35.000  
  18889185.793    99263356.119         982.656          37.000  
  18769251.716    98633082.057        3098.184          33.000  
  19937262.406   104771046.019        1830.449          28.000  
  20713017.706   108847664.930        4310.043          33.000  
  22283670.715                       -1032.011          21.000  
  21926742.807   115225818.1182      -2196.976          28.000  
 16 10  2  8  3  8.9920000  0  7G26G21G16G20G27G 5G31
  18231558.031    95807479.236        1160.977          35.000  
  18888998.754    99262374.424         980.961          38.000  
  18768662.107    98629984.425        3097.479          33.000  
  19936912.858   104769216.610        1828.775          27.000  
  20712190.534   108843355.239        4309.946          32.000  
  22283866.824                       -1029.176          22.000  
  21927162.705                       -2196.813          28.000  
 16 10  2  8  3  9.9920000  0  7G26G21G16G20G27G 5G31
  18231337.196    95806318.762        1159.654          35.000  
  18888811.876    99261393.505         980.497          37.000  
  18768072.725    98626887.412        3097.036          33.000  
  19936567.281   104767387.974        1829.282          26.000  
  20711377.691   108839045.836        4309.424          31.000  
  22284063.389                       -1038.697          20.000  
  21927580.749                       -2197.092          28.000  
 16 10  2  8  3 10.9920000  0  6G26G21G16G20G27G31
  18231116.419    95805158.948        1159.162          35.000  
  18888625.292    99260412.932         980.245          37.000  
  18767483.552    98623791.217        3095.794          33.000  
  19936221.497   104765550.5353       1826.685          25.000  
  20710557.284   108834737.003        4308.755          31.000  
  21927998.879   115232410.7223      -2197.782          28.000  
 16 10  2  8  3 11.9920000  0  6G26G21G16G20G27G31
  18230895.880    95803999.619        1159.151          35.000  
  18888439.088    99259432.825         980.588          37.000  
  18766894.230    98620695.295        3095.961          33.000  
  19935873.376   104763723.1952       1827.699          25.000  
  20709742.265   108830428.106        4308.182          32.000  
  21928417.997   115234607.1442      -2196.688          28.000  
 16 10  2  8  3 12.9920000  0  6G26G21G16G20G27G31
  18230675.483    95802840.968        1157.856          36.000  
  18888252.567    99258453.090         979.220          37.000  
  18766305.094    98617599.995        3095.115          34.000  
  19935523.994   104761896.2182       1826.871          26.000  
  20708923.513   108826119.575        4308.190          32.000  
  21928836.507   115236803.9532      -2198.026          28.000  
 16 10  2  8  3 13.9920000  0  6G26G21G16G20G27G31
  18230455.220    95801683.025        1157.198          35.000  
  18888066.066    99257474.245         978.091          37.000  
  18765716.342    98614505.207        3094.295          35.000  
  19935180.372   104760070.6622       1825.840          27.000  
  20708101.733   108821811.079        4309.573          32.000  
  21929256.009   115239000.5502      -2196.486          28.000  
 16 10  2  8  3 14.9920000  0  7G26G21G16G20G27G 5G31
  18230235.084    95800525.741        1156.824          34.000  
  18887879.800    99256495.737         978.243          37.000  
  18765127.611    98611410.998        3093.788          35.000  
  19934834.059   104758245.5552       1825.500          27.000  
  20707283.626   108817503.063        4307.950          31.000  
  22285050.310                       -1032.938          19.000  
  21929673.668                       -2197.681          27.000  
 16 10  2  8  3 15.9920000  0  6G26G21G16G20G27G31
  18230014.944    95799369.084        1156.859          35.000  
  18887693.524    99255517.801         977.775          37.000  
  18764538.833    98608317.280        3094.015          34.000  
  19934487.316   104756421.1952       1824.513          26.000  
  20706458.211   108813195.015        4309.258          31.000  
  21930090.466                       -2196.911          26.000  
 16 10  2  8  3 16.9920000  0  6G26G21G16G20G27G31
  18229794.864    95798213.159        1155.768          35.000  
  18887507.718    99254540.285         978.014          38.000  
  18763950.248    98605224.293        3093.038          34.000  
  19934140.091   104754597.2962       1824.789          27.000  
  20705637.370   108808887.486        4307.865          30.000  
  21930509.613                       -2196.406          26.000  
 16 10  2  8  3 17.9920000  0  6G26G21G16G20G27G31
  18229575.169    95797057.846        1155.689          35.000  
  18887321.644    99253563.485         977.060          37.000  
  18763361.440    98602131.636        3093.171          34.000  
  19933791.850                        1821.123          27.000  
  20704817.118   108804579.787        4308.830          29.000  
  21930926.646                       -2195.777          26.000  
 16 10  2  8  3 18.9920000  0  6G26G21G16G20G27G31
  18229355.549    95795902.846        1155.245          35.000  
  18887135.887    99252586.892         976.610          38.000  
  18762772.652    98599039.199        3091.967          33.000  
  19933445.994                        1821.978          26.000  
  20703996.790   108800272.121        4307.078          30.000  
  21931344.360   115249994.3453      -2196.429          27.000  
 16 10  2  8  3 19.9920000  0  7G26G21G16G20G27G 5G31
  18229135.958    95794748.478        1154.568          35.000  
  18886950.029    99251610.840         976.029          37.000  
  18762184.274    98595947.287        3091.714          33.000  
  19933098.290                        1821.534          26.000  
  20703176.841   108795964.422        4308.843          30.000  
  22286036.269                       -1035.448          20.000  
  21931761.971   115252191.4202      -2196.692          27.000  
 16 10  2  8  3 20.9920000  0  7G26G21G16G20G27G 5G31
  18228916.248    95793594.955        1154.034          35.000  
  18886764.612    99250635.180         976.270          37.000  
  18761595.959    98592856.338        3091.556          34.000  
  19932751.712   104747317.2003       1821.259          27.000  
  20702358.536   108791657.653        4308.260          29.000  
  22286231.850                       -1035.416          20.000  
  21932178.203   115254388.9252      -2197.911          27.000  
 16 10  2  8  3 21.9920000  0  6G26G21G16G20G27G31
  18228697.056    95792441.858        1153.713          34.000  
  18886578.913    99249659.874         975.938          37.000  
  18761007.956    98589765.778        3091.194          34.000  
  19932405.216   104745496.6062       1820.071          28.000  
  20701543.577   108787351.082        4307.381          30.000  
  21932598.083                       -2197.469          27.000  
 16 10  2  8  3 22.9920000  0  7G26G21G16G20G27G 5G31
  18228477.681    95791289.620        1152.617          34.000  
  18886393.478    99248685.054         974.133          36.000  
  18760420.025    98586675.857        3089.901          34.000  
  19932055.523   104743676.2892       1819.356          30.000  
  20700724.928   108783044.904        4306.185          31.000  
  22286624.178                       -1039.118          24.000  
  21933015.030   115258778.2663      -2196.940          27.000  
 16 10  2  8  3 23.9920000  0  7G26G21G16G20G27G 5G31
  18228258.659    95790138.154        1150.655          33.000  
  18886208.114    99247710.714         973.502          36.000  
  18759832.326    98583586.585        3088.834          34.000  
  19931711.678   104741856.6232       1818.926          29.000  
  20699903.203   108778739.132        4305.124          31.000  
  22286820.021                       -1037.705          24.000  
  21933433.613   115260976.5342      -2198.226          28.000  
 16 10  2  8  3 24.9920000  0  7G26G21G16G20G27G 5G31
  18228039.786    95788986.966        1149.744          36.000  
  18886022.978    99246737.046         972.927          36.000  
  18759244.557    98580497.030        3089.727          35.000  
  19931366.681   104740038.3112       1818.149          29.000  
  20699084.943   108774432.582        4305.250          32.000  
  22287019.367                       -1035.692          26.000  
  21933850.928   115263175.0142      -2201.053          28.000  
 16 10  2  8  3 25.9920000  0  7G26G21G16G20G27G 5G31
  18227820.856    95787837.883        1147.765          37.000  
  18885837.902    99245763.856         972.270          35.000  
  18758656.833    98577408.926        3087.429          35.000  
  19931018.802   104738218.6932       1818.589          29.000  
  20698262.923   108770128.908        4303.005          28.000  
  22287209.325   117120074.8413      -1036.653          39.000  
  21934270.823   115265377.6122      -2203.650          34.000  
 16 10  2  8  3 26.9920000  0  7G26G21G16G20G27G 5G31
  18227602.161    95786689.474        1147.938          41.000  
  18885652.908    99244791.557         971.900          37.000  
  18758069.343    98574321.213        3087.701          37.000  
  19930671.706   104736400.2282       1817.084          30.000  
  20697444.076   108765824.886        4304.033          35.000  
  22287408.661   117121110.4892      -1036.100          35.000  
  21934692.968   115267579.9362      -2203.033          32.000  
 16 10  2  8  3 27.9920000  0  7G26G21G16G20G27G 5G31
  18227383.677    95785541.103        1148.320          42.000  
  18885467.927    99243819.498         972.153          36.000  
  18757481.710    98571233.131        3087.927          37.000  
  19930327.045   104734582.6462       1817.154          33.000  
  20696623.610   108761519.943        4305.493          35.000  
  22287603.667   117122146.6162      -1036.374          36.000  
  21935105.916                       -2188.818          28.000  
 16 10  2  8  3 28.9920000  0  7G26G21G16G20G27G 5G31
  18227165.706    95784393.131        1147.606          42.000  
  18885283.276    99242847.823         971.161          38.000  
  18756894.032    98568145.127        3087.233          39.000  
  19929981.493   104732765.8702       1816.326          36.000  
  20695802.422   108757214.825        4304.341          36.000  
  22287802.699   117123183.1362      -1036.456          34.000  
  21935529.649   115271985.5913      -2201.464          33.000  
 16 10  2  8  3 29.9920000  0  7G26G21G16G20G27G 5G31
  18226947.295    95783245.990        1146.764          40.000  
  18885098.363    99241876.767         970.569          34.000  
  18756306.504    98565057.976        3085.944          34.000  
  19929636.301   104730949.7092       1816.112          34.000  
  20694983.252   108752910.061        4303.798          33.000  
  22287996.871   117124220.2772      -1037.749          29.000  
  21935946.938   115274187.7602      -2202.693          27.000  
 16 10  2  8  3 30.9920000  0  7G26G21G16G20G27G 5G31
  18226729.077    95782099.435        1145.650          41.000  
  18884913.463    99240906.131         969.914          38.000  
  18755719.001    98561971.273        3085.398          37.000  
  19929290.698   104729134.196        1814.711          37.000  
  20694168.759   108748605.613        4303.975          36.000  
  22288192.991   117125257.9672      -1037.669          32.000  
  21936365.121   115276390.2502      -2202.714          35.000  
 16 10  2  8  3 31.9920000  0  7G26G21G16G20G27G 5G31
  18226511.111    95780953.436        1145.947          40.000  
  18884729.093    99239936.207         970.045          37.000  
  18755131.688    98558884.868        3086.618          34.000  
  19928945.574   104727319.920        1813.831          36.000  
  20693349.463   108744300.874        4305.473          38.000  
  22288389.562   117126296.3932      -1038.523          26.000  
  21936784.436   115278592.4802      -2201.228          35.000  
 16 10  2  8  3 32.9920000  0  7G26G21G16G20G27G 5G31
  18226293.006    95779808.482        1144.294          36.000  
  18884544.561    99238966.846         968.066          32.000  
  18754544.494    98555799.535        3084.027          33.000  
  19928600.639   104725505.902        1812.628          32.000  
  20692530.311   108739997.203        4303.090          33.000  
  22288591.388   117127335.2362      -1041.394          34.000  
  21937205.521   115280795.5152      -2202.933          31.000  
 16 10  2  8  3 33.9920000  0  7G26G21G16G20G27G 5G31
  18226075.150    95778664.081        1144.511          39.000  
  18884360.279    99237998.236         969.047          36.000  
  18753957.297    98552714.504        3084.727          38.000  
  19928253.805   104723693.328        1814.015          32.000  
  20691711.458   108735693.186        4303.593          37.000  
  22288785.287   117128375.1452      -1041.056          36.000  
  21937623.548   115282998.4132      -2203.140          32.000  
 16 10  2  8  3 34.9920000  0  7G26G21G16G20G27G 5G31
  18225857.218    95777519.951        1143.679          35.000  
  18884176.022    99237029.649         967.591          33.000  
  18753370.439    98549629.564        3083.823          35.000  
  19927911.474   104721880.710        1810.892          31.000  
  20690892.320   108731389.281        4302.856          34.000  
  22288984.754   117129414.5402      -1041.292          33.000  
  21938041.890   115285201.5432      -2202.751          32.000  
 16 10  2  8  3 35.9920000  0  7G26G21G16G20G27G 5G31
  18225639.804    95776376.642        1142.837          33.000  
  18883991.810    99236061.810         966.854          32.000  
  18752783.666    98546545.247        3084.352          30.000  
  19927567.787   104720069.059        1811.609          29.000  
  20690073.426   108727085.350        4304.346          32.000  
  22289179.720   117130454.8982      -1041.048          34.000  
  21938465.035   115287404.5512      -2203.870          26.000  
 16 10  2  8  3 36.9920000  0  8G26G21G16G20G27G29G 5G31
  18225422.093    95775233.564        1143.385          35.000  
  18883807.656    99235094.108         967.035          32.000  
  18752197.764    98543461.176        3084.132          32.000  
  19927220.537   104718258.045        1812.588          31.000  
  20689254.285   108722781.518        4303.642          33.000  
  20619108.891                       -1718.998          24.000  
  22289378.276   117131495.3241      -1041.142          33.000  
  21938888.266   115289606.7141      -2202.354          27.000  
 16 10  2  8  3 37.9920000  0  8G26G21G16G20G27G29G 5G31
  18225204.643    95774091.611        1142.435          35.000  
  18883623.837    99234127.373         967.222          33.000  
  18751611.719    98540378.086        3083.876          33.000  
  19926871.645   104716448.280        1808.220          32.000  
  20688435.348   108718478.158        4304.094          33.000  
  20619437.631                       -1720.099          26.000  
  22289582.886   117132537.292       -1042.424          32.000  
  21939305.371   115291809.960       -2203.447          28.000  
 16 10  2  8  3 38.9920000  0  8G26G21G16G20G27G29G 5G31
  18224987.400    95772950.062        1141.612          35.000  
  18883439.779    99233160.946         966.617          33.000  
  18751024.297    98537295.424        3082.934          34.000  
  19926530.824   104714638.794        1809.147          32.000  
  20687616.359   108714175.013        4302.952          33.000  
  20619765.756                       -1721.643          27.000  
  22289776.376   117133579.597       -1043.086          32.000  
  21939723.878   115294013.016       -2202.173          28.000  
 16 10  2  8  3 39.9920000  0  8G26G21G16G20G27G29G 5G31
  18224770.250    95771809.209        1140.700          36.000  
  18883256.088    99232194.987         965.766          34.000  
  18750437.792    98534213.597        3081.222          35.000  
  19926188.075   104712829.969        1808.192          33.000  
  20686797.860   108709872.198        4303.457          34.000  
  20620094.461   108359318.0423      -1722.353          29.000  
  22289982.140   117134622.662       -1043.539          33.000  
  21940137.903                       -2202.099          28.000  
 16 10  2  8  3 40.9920000  0  8G26G21G16G20G27G29G 5G31
  18224553.268    95770668.532        1140.629          35.000  
  18883071.878    99231229.119         966.484          33.000  
  18749850.397    98531131.654        3082.124          34.000  
  19925844.933   104711021.555        1808.755          31.000  
  20685979.087   108705569.070        4303.730          32.000  
  20620427.245   108361039.2772      -1721.384          29.000  
  22290177.347   117135666.008       -1043.446          32.000  
  21940557.726   115298408.2563      -2202.285          28.000  
 16 10  2  8  3 41.9920000  0  8G26G21G16G20G27G29G 5G31
  18224336.901    95769527.709        1140.690          37.000  
  18882888.041    99230262.959         966.301          35.000  
  18749263.854    98528049.527        3081.492          35.000  
  19925500.736   104709212.944        1808.552          33.000  
  20685159.802   108701265.402        4304.624          30.000  
  20620754.445   108362759.6282      -1720.352          31.000  
  22290374.118   117136708.722       -1042.723          32.000  
  21940975.030   115300610.5032      -2202.086          28.000  
 16 10  2  8  3 42.9920000  0  8G26G21G16G20G27G29G 5G31
  18224118.284    95768387.010        1140.135          37.000  
  18882704.215    99229296.953         965.421          35.000  
  18748677.426    98524967.154        3080.956          35.000  
  19925155.336   104707404.886        1807.616          34.000  
  20684342.084   108696961.123        4303.083          28.000  
  20621079.556   108364504.1903      -1721.167          32.000  
  22290577.896   117137751.814       -1043.644          32.000  
  21941394.165   115302812.0752      -2200.117          30.000  
 16 10  2  8  3 43.9920000  0  8G26G21G16G20G27G29G 5G31
  18223904.812    95767247.147        1140.008          34.000  
  18882520.467    99228331.433         965.970          33.000  
  18748091.785    98521885.514        3081.013          34.000  
  19924812.202   104705597.328        1807.982          30.000  
  20683522.117                        4307.952          16.000  
  20621408.124                       -1718.701          31.000  
  22290768.032   117138795.059       -1043.218          31.000  
  21941817.781   115305014.5602      -2202.137          30.000  
 16 10  2  8  3 44.9920000  0  9G26G21G16G20G27G29G18G 5G31
  18223685.477    95766107.755        1139.009          34.000  
  18882336.576    99227366.384         964.536          32.000  
  18747505.112    98518804.237        3081.595          32.000  
  19924467.114   104703790.399        1807.198          29.000  
  20682700.766                        4305.618          20.000  
  20621734.483                       -1720.524          30.000  
  21249745.960                        4122.727          18.000  
  22290968.133   117139838.839       -1044.546          30.000  
  21942233.610   115307216.6952      -2201.547          29.000  
 16 10  2  8  3 45.9920000  0  8G26G21G16G20G29G18G 5G31
  18223468.963    95764968.838        1138.081          37.000  
  18882153.078    99226401.685         964.371          33.000  
  18746918.935    98515723.465        3080.083          36.000  
  19924123.643   104701984.176        1806.654          34.000  
  20622062.871   108369666.1972      -1720.939          30.000  
  21248962.043                        4122.727          20.000  
  22291166.985   117140883.267       -1045.192          29.000  
  21942652.545   115309418.7662      -2200.559          30.000  
 16 10  2  8  3 46.9920000  0  9G26G21G16G20G27G29G18G 5G31
  18223252.250    95763830.674        1138.278          37.000  
  18881969.680    99225437.663         964.475          36.000  
  18746332.576    98512643.267        3080.146          37.000  
  19923782.531   104700178.910        1804.492          35.000  
  20681063.449   108679721.4873       4303.242          32.000  
  20622389.882   108371387.4642      -1721.634          32.000  
  21248176.815                        4122.727          22.000  
  22291366.858                       -1054.688          33.000  
  21943069.502   115311621.0042      -2203.053          31.000  
 16 10  2  8  3 47.9920000  0  9G26G21G16G20G27G29G18G 5G31
  18223036.533    95762692.867        1137.682          38.000  
  18881786.325    99224473.997         963.246          38.000  
  18745746.289    98509563.174        3080.234          37.000  
  19923437.040   104698374.212        1804.752          35.000  
  20680244.179   108675417.8282       4304.066          32.000  
  20622717.549   108373108.8182      -1721.291          36.000  
  21247385.632                        4122.727          22.000  
  22291565.999   117142969.8493      -1043.156          29.000  
  21943491.630   115313823.0842      -2203.734          31.000  
 16 10  2  8  3 48.9920000  0  8G26G21G16G20G27G29G 5G31
  18222820.181    95761555.686        1137.810          41.000  
  18881603.293    99223510.644         963.386          38.000  
  18745160.075    98506483.877        3080.436          38.000  
  19923093.084   104696569.997        1804.481          35.000  
  20679427.167   108671114.6052       4303.215          32.000  
  20623044.185   108374830.2642      -1722.453          32.000  
  22291768.354   117144016.2532      -1046.561          34.000  
  21943909.538   115316024.2431      -2201.738          35.000  
 16 10  2  8  3 49.9920000  0  8G26G21G16G20G27G29G 5G31
  18222605.040    95760418.719        1136.765          40.000  
  18881419.909    99222547.408         963.227          38.000  
  18744574.150    98503404.667        3079.588          38.000  
  19922749.773   104694766.219        1802.877          36.000  
  20678608.378   108666811.2742       4301.977          31.000  
  20623374.295   108376551.4032      -1721.393          35.000  
  22291966.945   117145062.5382      -1046.369          31.000  
  21944328.414   115318225.986       -2201.835          35.000  
 16 10  2  8  3 50.9920000  0  9G26G21G16G20G27G29G18G 5G31
  18222386.255    95759282.799        1136.706          40.000  
  18881236.530    99221585.309         962.214          38.000  
  18743988.239    98500326.048        3079.664          38.000  
  19922407.200   104692963.814        1802.312          36.000  
  20677792.986                        4304.675          26.000  
  20623702.327   108378273.7032      -1722.613          34.000  
  21245031.325                        4121.944          25.000  
  22292162.343   117146109.7132      -1048.749          31.000  
  21944748.071   115320428.483       -2202.141          34.000  
 16 10  2  8  3 51.9920000  0  9G26G21G16G20G27G29G18G 5G31
  18222171.082    95758147.155        1134.821          39.000  
  18881053.750    99220623.584         961.521          38.000  
  18743402.412    98497247.333        3078.538          38.000  
  19922063.515   104691162.233        1802.074          36.000  
  20676970.702                        4304.722          27.000  
  20624029.626   108379996.2072      -1723.318          33.000  
  21244246.554                        4122.647          25.000  
  22292366.095   117147157.0342      -1046.093          30.000  
  21945168.582   115322631.559       -2210.730          23.000  
 16 10  2  8  3 52.9920000  0  8G26G21G16G20G27G29G 5G31
  18221954.641    95757012.266        1135.334          39.000  
  18880871.072    99219662.603         961.472          38.000  
  18742816.515    98494169.293        3078.711          38.000  
  19921720.125   104689361.761        1799.954          35.000  
  20676150.944   108653927.2513       4305.816          29.000  
  20624357.463   108381719.3002      -1723.871          37.000  
  22292565.209                       -1048.007          30.000  
  21945589.651   115324851.4663      -2201.936          34.000  
 16 10  2  8  3 53.9920000  0  8G26G21G16G20G27G29G 5G31
  18221738.804    95755877.881        1133.842          39.000  
  18880688.143    99218702.289         960.088          37.000  
  18742230.853    98491091.335        3077.071          39.000  
  19921377.818   104687562.320        1800.521          35.000  
  20675330.694   108649623.2252       4303.717          33.000  
  20624686.075   108383442.9672      -1722.989          35.000  
  22292767.585                       -1053.929          22.000  
  21946007.768   115327053.5462      -2203.829          34.000  
 16 10  2  8  3 54.9920000  0  8G26G21G16G20G27G29G 5G31
  18221523.066    95754744.096        1133.516          39.000  
  18880505.416    99217742.186         959.699          37.000  
  18741645.279    98488013.835        3076.719          39.000  
  19921035.503   104685763.200        1798.573          35.000  
  20674512.732   108645319.4632       4304.760          34.000  
  20625013.633   108385166.4292      -1723.210          34.000  
  22292963.548                       -1048.747          30.000  
  21946425.381   115329255.9272      -2201.964          34.000  
 16 10  2  8  3 55.9920000  0  9G26G21G16G20G27G29G18G 5G31
  18221307.534    95753610.668        1131.735          39.000  
  18880322.955    99216782.569         958.177          37.000  
  18741059.872    98484936.538        3075.906          37.000  
  19920693.742   104683964.896        1797.584          35.000  
  20673695.210   108641015.3652       4304.433          37.000  
  20625341.707   108386890.2352      -1724.043          31.000  
  21241109.506                        4126.661          24.000  
  22293162.154                       -1040.391          25.000  
  21946846.269   115331458.0642      -2201.725          36.000  
 16 10  2  8  3 56.9920000  0  9G26G21G16G20G27G29G18G 5G31
  18221091.814    95752477.663        1133.158          40.000  
  18880140.562    99215823.263         959.238          37.000  
  18740474.205    98481859.897        3077.174          35.000  
  19920351.935   104682167.423        1796.457          34.000  
  20672875.115   108636711.6092       4303.978          37.000  
  20625669.599   108388614.3432      -1724.464          33.000  
  21240324.100                        4118.838          24.000  
  22293360.879                       -1050.464          27.000  
  21947263.155   115333659.7592      -2201.761          35.000  
 16 10  2  8  3 57.9920000  0  9G26G21G16G20G27G29G18G 5G31
  18220876.079    95751345.025        1133.325          38.000  
  18879957.947    99214864.149         958.796          37.000  
  18739888.779    98478783.398        3077.311          37.000  
  19920010.113   104680370.153        1796.091          33.000  
  20672058.009   108632407.6412       4305.329          34.000  
  20626001.044   108390338.2072      -1724.663          32.000  
  21239544.966   111614561.6093       4120.966          28.000  
  22293562.829   117153462.7323      -1052.551          32.000  
  21947680.618   115335861.6882      -2201.156          33.000  
 16 10  2  8  3 58.9920000  0  9G26G21G16G20G27G29G18G 5G31
  18220660.674    95750212.435        1132.865          38.000  
  18879775.226    99213904.992         959.602          36.000  
  18739303.168    98475706.902        3077.725          38.000  
  19919667.943   104678573.216        1798.067          32.000  
  20671236.566   108628103.3912       4305.114          37.000  
  20626325.166                       -1722.864          30.000  
  21238758.572   111610441.0322       4120.651          28.000  
  22293762.023   117154513.6022      -1050.305          35.000  
  21948099.970   115338063.0172      -2202.433          35.000  
 16 10  2  8  3 59.9920000  0  9G26G21G16G20G27G29G18G 5G31
  18220444.984    95749080.621        1132.507          38.000  
  18879592.804    99212946.310         959.415          36.000  
  18738718.086    98472631.360        3076.031          37.000  
  19919326.218   104676776.736        1797.625          31.000  
  20670417.452   108623799.8012       4303.990          37.000  
  20626644.199   108393793.5933      -1724.174          29.000  
  21237969.565   111606320.1222       4121.290          28.000  
  22293958.372   117155565.3852      -1052.596          34.000  
  21948520.201   115340264.1152      -2200.592          33.000  
 16 10  2  8  4  0.9920000  0  9G26G21G16G20G27G29G18G 5G31
  18220229.828    95747949.394        1131.104          36.000  
  18879410.384    99211987.929         958.791          32.000  
  18738133.039    98469556.163        3075.197          33.000  
  19918980.590   104674980.636        1796.434          30.000  
  20669598.775   108619496.527        4302.862          34.000  
  20626980.642   108395516.9512      -1722.458          29.000  
  21237188.664   111602199.5802       4121.203          29.000  
  22294161.527   117156617.0102      -1050.795          34.000  
  21948944.395   115342465.4171      -2201.812          27.000  
 16 10  2  8  4  1.9920000  0  9G26G21G16G20G27G29G18G 5G31
  18220014.759    95746818.787        1130.475          36.000  
  18879228.152    99211030.079         957.630          33.000  
  18737547.945    98466481.736        3073.694          34.000  
  19918641.204   104673185.304        1795.720          30.000  
  20668780.212   108615193.429        4303.364          33.000  
  20627303.687   108397240.7532      -1723.030          28.000  
  21236405.633   111598078.9932       4120.765          29.000  
  22294360.919   117157669.9102      -1054.255          30.000  
  21949359.895                       -2209.485          19.000  
 16 10  2  8  4  2.9920000  0  8G26G21G16G20G27G29G18G 5
  18219799.634    95745688.954        1129.303          36.000  
  18879046.015    99210072.545         957.198          34.000  
  18736963.126    98463408.118        3072.949          35.000  
  19918303.187   104671390.290        1794.127          31.000  
  20667960.268   108610891.054        4302.160          34.000  
  20627634.497   108398964.1532      -1723.603          29.000  
  21235618.991   111593958.2482       4120.294          28.000  
  22294558.282   117158722.6852      -1052.824          29.000  
 16 10  2  8  4  3.9920000  0  9G26G21G16G20G27G29G18G 5G31
  18219585.016    95744560.455        1128.643          36.000  
  18878864.059    99209116.166         956.046          35.000  
  18736378.421    98460335.813        3073.085          35.000  
  19917963.596   104669596.566        1791.951          31.000  
  20667147.046   108606589.653        4302.275          34.000  
  20627962.251   108400688.3712      -1724.403          29.000  
  21234839.051   111589838.1362       4119.815          28.000  
  22294766.541   117159776.9682      -1054.009          30.000  
  21950197.040   115349063.3853      -2200.518          30.000  
 16 10  2  8  4  4.9920000  0  9G26G21G16G20G27G29G18G 5G31
  18219370.366    95743432.586        1128.781          37.000  
  18878681.881    99208160.297         956.168          34.000  
  18735793.976    98457264.249        3072.361          35.000  
  19917619.000   104667803.526        1792.674          31.000  
  20666324.241   108602288.545        4302.596          35.000  
  20628294.825   108402412.8722      -1726.179          28.000  
  21234052.206   111585718.0532       4118.625          32.000  
  22294962.737                       -1053.923          30.000  
  21950613.096   115351265.7222      -2201.521          32.000  
 16 10  2  8  4  5.9920000  0  9G26G21G16G20G27G29G18G 5G31
  18219155.656    95742303.941        1128.900          36.000  
  18878499.833    99207203.626         956.948          35.000  
  18735209.254    98454191.688        3073.072          36.000  
  19917281.365   104666010.041        1793.903          30.000  
  20665505.868   108597986.212        4302.481          35.000  
  20628620.483                       -1721.260          20.000  
  21233267.414   111581597.1102       4122.003          31.000  
  22295163.108   117161874.0803      -1053.793          30.000  
  21951033.469   115353466.6742      -2200.587          32.000  
 16 10  2  8  4  6.9920000  0  9G26G21G16G20G27G29G18G 5G31
  18218941.059    95741175.807        1127.032          38.000  
  18878317.983    99206246.963         955.321          36.000  
  18734625.006    98451119.733        3071.028          34.000  
  19916935.999   104664216.483        1792.178          35.000  
  20664689.034   108593684.347        4301.630          34.000  
  20628947.499   108405850.2683      -1723.664          34.000  
  21232484.813   111577475.9342       4120.794          30.000  
  22295366.848   117162928.2042      -1055.385          24.000  
  21951455.370   115355667.9932      -2200.688          34.000  
 16 10  2  8  4  7.9920000  0  9G26G21G16G20G27G29G18G 5G31
  18218726.642    95740048.322        1127.274          38.000  
  18878136.355    99205291.025         956.216          35.000  
  18734040.356    98448048.467        3071.140          34.000  
  19916595.051   104662423.983        1791.681          31.000  
  20663870.588   108589382.430        4301.944          32.000  
  20629282.018   108407573.6102      -1723.528          28.000  
  21231700.340   111573354.6032       4121.708          29.000  
  22295568.041                       -1055.411          25.000  
  21951871.457   115357868.7652      -2200.588          33.000  
 16 10  2  8  4  8.9920000  0  9G26G21G16G20G27G29G18G 5G31
  18218512.275    95738920.925        1127.301          38.000  
  18877954.408    99204335.168         955.988          35.000  
  18733456.084    98444976.991        3071.645          36.000  
  19916255.117   104660631.850        1792.212          32.000  
  20663047.886   108585080.069        4302.910          32.000  
  20629603.950   108409296.9792      -1722.266          27.000  
  21230916.068   111569233.4532       4121.605          31.000  
  22295769.011   117165056.1093      -1054.432          27.000  
  21952289.282   115360069.2402      -2200.548          33.000  
 16 10  2  8  4  9.9920000  0  9G26G21G16G20G27G29G18G 5G31
  18218297.572    95737793.884        1126.459          37.000  
  18877772.345    99203379.509         955.749          35.000  
  18732871.766    98441905.504        3071.222          34.000  
  19915914.353   104658840.116        1791.975          32.000  
  20662232.079   108580777.460        4301.969          31.000  
  20629932.289   108411020.2172      -1723.609          29.000  
  21230132.121   111565112.5502       4121.065          33.000  
  22295962.649   117166111.5102      -1055.030          28.000  
  21952708.205   115362269.7782      -2200.167          35.000  
 16 10  2  8  4 10.9920000  0  9G26G21G16G20G27G29G18G 5G31
  18218083.355    95736667.098        1126.443          37.000  
  18877590.026    99202424.096         954.778          34.000  
  18732287.191    98438834.324        3069.887          33.000  
  19915570.318   104657048.950        1790.609          31.000  
  20661412.344   108576474.649        4301.652          31.000  
  20630261.263   108412743.5582      -1724.684          27.000  
  21229346.726   111560991.3832       4121.448          32.000  
  22296169.821   117167167.5492      -1057.624          27.000  
  21953128.219   115364469.7932      -2200.038          33.000  
 16 10  2  8  4 11.9920000  0  9G26G21G16G20G27G29G18G 5G31
  18217868.999    95735540.768        1125.910          37.000  
  18877408.262    99201468.845         954.882          34.000  
  18731702.745    98435763.586        3070.091          34.000  
  19915230.416   104655258.021        1790.839          31.000  
  20660595.275   108572172.129        4301.799          32.000  
  20630590.814   108414466.4752      -1722.622          28.000  
  21228561.875   111556870.0322       4121.549          32.000  
  22296370.081   117168214.6133      -1056.091          27.000  
  21953546.957   115366669.6572      -2199.445          33.000  
 16 10  2  8  4 12.9920000  0  9G26G21G16G20G27G29G18G 5G31
  18217654.774    95734414.504        1126.132          37.000  
  18877226.820    99200513.536         954.706          35.000  
  18731118.462    98432692.720        3070.086          33.000  
  19914894.981   104653467.183        1790.351          32.000  
  20659774.870   108567869.033        4304.008          31.000  
  20630916.592   108416188.9992      -1722.702          28.000  
  21227777.320   111552748.4032       4121.638          32.000  
  22296569.898   117169270.5442      -1056.153          29.000  
  21953965.469   115368869.147       -2199.409          33.000  
 16 10  2  8  4 13.9920000  0  9G26G21G16G20G27G29G18G 5G31
  18217440.560    95733288.753        1125.042          35.000  
  18877045.333    99199558.589         954.290          34.000  
  18730534.177    98429622.372        3069.147          33.000  
  19914548.862   104651676.866        1789.864          32.000  
  20658956.181   108563566.242        4303.402          30.000  
  20631241.776   108417911.6542      -1723.042          28.000  
  21226993.731   111548626.7822       4121.808          31.000  
  22296772.796   117170327.0082      -1057.212          28.000  
  21954384.044   115371068.486       -2198.143          33.000  
 16 10  2  8  4 14.9920000  0  9G26G21G16G20G27G29G18G 5G31
  18217226.243    95732163.260        1125.440          36.000  
  18876863.796    99198603.722         955.001          34.000  
  18729949.931    98426552.335        3070.207          33.000  
  19914209.623   104649887.092        1790.297          30.000  
  20658133.071   108559263.397        4302.804          31.000  
  20631570.627   108419634.2122      -1721.900          28.000  
  21226207.126   111544504.7542       4122.424          31.000  
  22296971.438   117171384.2462      -1056.981          28.000  
  21954802.684   115373267.385       -2198.710          34.000  
 16 10  2  8  4 15.9920000  0  9G26G21G16G20G27G29G18G 5G31
  18217012.112    95731038.510        1123.723          36.000  
  18876682.157    99197649.486         953.674          33.000  
  18729365.585    98423482.772        3068.801          34.000  
  19913864.406   104648097.874        1789.395          30.000  
  20657317.459   108554960.654        4302.274          31.000  
  20631899.355   108421356.8652      -1722.430          29.000  
  21225427.593   111540383.3222       4121.260          32.000  
  22297173.388   117172441.4052      -1056.487          28.000  
  21955220.950   115375466.745       -2199.086          34.000  
 16 10  2  8  4 16.9920000  0  9G26G21G16G20G27G29G18G 5G31
  18216797.945    95729914.450        1124.138          36.000  
  18876500.631    99196695.749         954.302          34.000  
  18728781.701    98420413.782        3069.635          34.000  
  19913526.228   104646309.426        1788.583          30.000  
  20656499.467   108550658.282        4303.002          31.000  
  20632227.387   108423079.7762      -1723.557          28.000  
  21224641.794   111536262.0082       4121.237          33.000  
  22297377.282   117173499.3822      -1058.121          28.000  
  21955639.331   115377666.220       -2198.851          33.000  
 16 10  2  8  4 17.9920000  0  9G26G21G16G20G27G29G18G 5G31
  18216584.151    95728790.977        1123.252          36.000  
  18876319.263    99195742.477         952.733          34.000  
  18728197.727    98417345.589        3068.190          34.000  
  19913183.434   104644521.568        1787.205          30.000  
  20655677.968   108546356.191        4302.844          31.000  
  20632556.029   108424802.7192      -1723.788          28.000  
  21223856.533   111532140.7422       4120.663          32.000  
  22297577.428   117174557.9112      -1059.151          29.000  
  21956057.941   115379865.589       -2198.965          33.000  
 16 10  2  8  4 18.9920000  0  9G26G21G16G20G27G29G18G 5G31
  18216370.603    95727668.098        1121.606          35.000  
  18876137.963    99194789.554         951.955          33.000  
  18727613.950    98414277.715        3067.169          35.000  
  19912844.158   104642734.212        1785.993          30.000  
  20654860.834   108542054.314        4302.857          31.000  
  20632881.841   108426525.648       -1723.919          28.000  
  21223072.206   111528019.638        4119.859          30.000  
  22297778.748   117175616.3201      -1059.037          28.000  
  21956476.322   115382065.135       -2199.403          34.000  
 16 10  2  8  4 19.9920000  0  9G26G21G16G20G27G29G18G 5G31
  18216157.234    95726545.814        1122.207          35.000  
  18875956.625    99193837.180         952.451          33.000  
  18727030.235    98411210.343        3067.155          35.000  
  19912506.820   104640947.602        1786.686          31.000  
  20654045.962   108537752.602        4301.063          31.000  
  20633213.490   108428248.963       -1722.607          28.000  
  21222288.797   111523898.742        4121.934          31.000  
  22297981.260   117176675.966       -1059.760          28.000  
  21956895.014   115384264.767       -2199.404          33.000  
 16 10  2  8  4 20.9920000  0  9G26G21G16G20G27G29G18G 5G31
  18215943.907    95725423.651        1121.697          36.000  
  18875775.300    99192884.676         952.207          34.000  
  18726446.527    98408142.959        3067.356          35.000  
  19912167.905   104639161.069        1786.391          30.000  
  20653228.075   108533450.553        4302.397          31.000  
  20633542.874   108429971.689       -1722.668          27.000  
  21221504.074   111519777.615        4121.161          31.000  
  22298181.991   117177735.098       -1058.893          28.000  
  21957314.681   115386464.082       -2200.438          32.000  
 16 10  2  8  4 21.9920000  0  9G26G21G16G20G27G29G18G 5G31
  18215730.424    95724302.174        1121.435          35.000  
  18875593.993    99191932.693         951.115          34.000  
  18725862.649    98405076.284        3066.096          34.000  
  19911828.256   104637374.950        1785.929          30.000  
  20652406.737   108529148.864        4302.381          31.000  
  20633868.540   108431694.471       -1723.885          28.000  
  21220718.070   111515656.507        4121.039          31.000  
  22298377.990   117178794.948       -1061.197          29.000  
  21957731.826   115388663.494       -2199.348          31.000  
 16 10  2  8  4 22.9920000  0  9G26G21G16G20G27G29G18G 5G31
  18215517.032    95723181.062        1120.932          35.000  
  18875412.703    99190980.911         952.296          34.000  
  18725278.948    98402009.893        3066.099          35.000  
  19911492.010   104635589.662        1785.323          30.000  
  20651591.138   108524847.199        4301.406          32.000  
  20634197.648   108433417.430       -1723.034          26.000  
  21219931.113   111511535.380        4121.531          31.000  
  22298582.734   117179855.323       -1060.307          29.000  
  21958149.954   115390862.546       -2198.724          31.000  
 16 10  2  8  4 23.9920000  0  9G26G21G16G20G27G29G18G 5G31
  18215303.412    95722059.926        1120.526          36.000  
  18875231.579    99190029.103         952.569          34.000  
  18724695.593    98398943.414        3065.933          35.000  
  19911148.642   104633804.627        1784.263          31.000  
  20650770.583   108520545.014        4302.152          32.000  
  20634526.441   108435139.937       -1721.191          29.000  
  21219147.664   111507413.865        4122.216          32.000  
  22298785.202   117180915.870       -1059.606          30.000  
  21958566.898   115393060.889       -2197.642          30.000  
 16 10  2  8  4 24.9920000  0  9G26G21G16G20G27G29G18G 5G31
  18215090.169    95720939.308        1119.832          36.000  
  18875050.718    99189077.596         952.224          34.000  
  18724112.057    98395877.325        3066.562          35.000  
  19910806.636   104632019.863        1784.817          32.000  
  20649951.047   108516242.926        4301.422          33.000  
  20634854.155   108436862.606       -1722.676          31.000  
  21218365.272   111503292.320        4121.367          32.000  
  22298988.153   117181976.675       -1061.816          30.000  
  21958982.207                       -2197.439          23.000  
 16 10  2  8  4 25.9920000  0  9G26G21G16G20G27G29G18G 5G31
  18214877.213    95719819.161        1120.726          36.000  
  18874869.780    99188126.449         951.076          33.000  
  18723528.844    98392811.650        3066.408          34.000  
  19910470.253   104630235.468        1784.309          32.000  
  20649131.806   108511940.969        4301.959          32.000  
  20635176.813   108438584.895       -1722.571          31.000  
  21217579.070   111499170.903        4120.928          31.000  
  22299190.825   117183037.505       -1060.731          29.000  
  21959405.123                       -2197.357          23.000  
 16 10  2  8  4 26.9920000  0  9G26G21G16G20G27G29G18G 5G31
  18214663.931    95718699.425        1118.922          35.000  
  18874688.742    99187175.460         950.610          34.000  
  18722945.756    98389746.116        3065.787          34.000  
  19910129.137   104628451.548        1783.649          31.000  
  20648313.251   108507638.829        4302.597          33.000  
  20635502.069   108440307.220       -1722.582          31.000  
  21216795.511   111495049.578        4121.739          32.000  
  22299398.316   117184098.491       -1061.948          28.000  
  21959824.885                       -2199.142          25.000  
 16 10  2  8  4 27.9920000  0  9G26G21G16G20G27G29G18G 5G31
  18214450.801    95717580.418        1118.324          35.000  
  18874508.033    99186225.180         950.246          34.000  
  18722362.703    98386681.399        3064.383          35.000  
  19909790.223   104626668.760        1782.405          31.000  
  20647494.686   108503337.210        4301.127          33.000  
  20635833.172   108442030.100       -1722.533          31.000  
  21216017.007   111490928.616        4120.854          31.000  
  22299597.893   117185160.694       -1062.063          28.000  
  21960237.807                       -2199.349          26.000  
 16 10  2  8  4 28.9920000  0  9G26G21G16G20G27G29G18G 5G31
  18214238.004    95716462.286        1116.731          35.000  
  18874327.150    99185275.820         948.127          34.000  
  18721779.689    98383617.285        3063.007          35.000  
  19909451.127   104624887.006        1781.745          32.000  
  20646675.870   108499035.649        4300.472          32.000  
  20636159.276   108443753.571       -1722.664          32.000  
  21215228.249   111486808.385        4119.373          30.000  
  22299798.296   117186223.630       -1063.169          28.000  
  21960661.206   115404027.0513      -2199.382          27.000  
 16 10  2  8  4 29.9920000  0  9G26G21G16G20G27G29G18G 5G31
  18214025.263    95715345.211        1116.783          35.000  
  18874146.634    99184327.220         948.299          34.000  
  18721196.894    98380554.277        3063.279          35.000  
  19909113.325   104623106.242        1780.272          33.000  
  20645857.339   108494734.931        4300.188          32.000  
  20636487.923   108445477.575       -1724.072          31.000  
  21214446.285   111482688.342        4120.458          30.000  
  22300000.049   117187287.680       -1064.295          28.000  
  21961082.400                       -2198.945          26.000  
 16 10  2  8  4 30.9920000  0  9G26G21G16G20G27G29G18G 5G31
  18213812.882    95714229.297        1116.107          35.000  
  18873966.259    99183379.626         947.837          35.000  
  18720614.137    98377492.411        3062.134          35.000  
  19908775.182   104621326.647        1778.572          32.000  
  20645039.152   108490435.075        4300.532          32.000  
  20636819.794   108447202.134       -1725.565          32.000  
  21213659.952   111478569.115        4118.816          31.000  
  22300199.194   117188352.687       -1066.286          28.000  
  21961501.666                       -2199.543          26.000  
 16 10  2  8  4 31.9920000  0  9G26G21G16G20G27G29G18G 5G31
  18213600.762    95713113.957        1115.363          35.000  
  18873786.044    99182432.356         947.631          35.000  
  18720031.655    98374430.891        3061.404          35.000  
  19908436.653   104619547.433        1778.633          33.000  
  20644220.896   108486135.321        4298.659          32.000  
  20637145.806   108448926.542       -1724.109          33.000  
  21212878.233   111474449.953        4119.260          32.000  
  22300405.312   117189417.795       -1065.460          30.000  
  21961918.932                       -2200.367          26.000  
 16 10  2  8  4 32.9920000  0  9G26G21G16G20G27G29G18G 5G31
  18213388.999    95711998.942        1114.195          35.000  
  18873605.931    99181485.315         946.865          35.000  
  18719449.004    98371369.804        3060.863          35.000  
  19908098.305   104617768.709        1778.917          33.000  
  20643402.906   108481835.541        4299.833          32.000  
  20637473.029   108450650.995       -1723.978          33.000  
  21212093.797   111470330.511        4120.246          31.000  
  22300610.826   117190483.565       -1064.657          29.000  
  21962334.722                       -2200.086          26.000  
 16 10  2  8  4 33.9920000  0  9G26G21G16G20G27G29G18G 5G31
  18213176.796    95710883.745        1114.810          35.000  
  18873425.829    99180538.220         946.757          35.000  
  18718866.161    98368308.237        3061.944          35.000  
  19907759.876   104615990.299        1779.337          33.000  
  20642584.472   108477534.845        4300.058          33.000  
  20637798.981   108452375.280       -1723.881          32.000  
  21211309.028   111466211.020        4119.652          30.000  
  22300810.250   117191549.357       -1065.513          27.000  
  21962754.061                       -2198.909          26.000  
 16 10  2  8  4 34.9920000  0  9G26G21G16G20G27G29G18G 5G31
  18212964.422    95709768.877        1114.791          35.000  
  18873245.566    99179590.965         946.926          35.000  
  18718283.683    98365247.115        3060.890          34.000  
  19907421.574   104614211.747        1778.154          32.000  
  20641765.674   108473234.421        4300.933          33.000  
  20638129.487   108454098.814       -1723.176          31.000  
  21210524.980   111462090.785        4120.402          31.000  
  22301015.321   117192614.929       -1066.701          27.000  
  21963172.861                       -2197.477          26.000  
 16 10  2  8  4 35.9920000  0  9G26G21G16G20G27G29G18G 5G31
  18212752.188    95708654.529        1114.545          36.000  
  18873065.503    99178644.181         946.774          35.000  
  18717702.579    98362186.360        3061.359          33.000  
  19907082.780   104612433.826        1777.026          31.000  
  20640948.266   108468934.042        4301.214          32.000  
  20638457.992   108455822.499       -1725.354          30.000  
  21209742.073   111457970.888        4119.771          32.000  
  22301215.977                       -1064.355          25.000  
  21963589.362                       -2199.291          26.000  
 16 10  2  8  4 36.9920000  0  9G26G21G16G20G27G29G18G 5G31
  18212540.396    95707540.439        1113.253          36.000  
  18872885.291    99177697.518         945.760          35.000  
  18717115.505    98359125.673        3059.385          34.000  
  19906741.543   104610656.304        1776.734          31.000  
  20640129.332   108464633.494        4298.695          31.000  
  20638786.296   108457546.017       -1723.709          30.000  
  21208953.516   111453850.973        4120.352          32.000  
  22301424.741                       -1067.674          23.000  
  21964004.899                       -2197.379          26.000  
 16 10  2  8  4 37.9920000  0  9G26G21G16G20G27G29G18G 5G31
  18212328.376    95706426.455        1113.818          35.000  
  18872704.863    99176751.091         945.366          34.000  
  18716535.086    98356064.922        3060.325          33.000  
  19906403.337   104608879.439        1776.902          31.000  
  20639312.351   108460332.399        4300.059          29.000  
  20639113.417   108459269.812       -1724.457          30.000  
  21208174.654   111449731.013        4119.736          28.000  
  22301625.583                       -1068.398          22.000  
  21964422.483                       -2197.485          25.000  
 16 10  2  8  4 38.9920000  0  9G26G21G16G20G27G29G18G 5G31
  18212116.818    95705313.544        1112.363          35.000  
  18872525.169    99175805.401         945.809          35.000  
  18715952.339    98353005.219        3058.630          33.000  
  19906068.849   104607103.559        1776.688          32.000  
  20638492.240                        4299.163          30.000  
  20639443.315   108460994.082       -1724.147          30.000  
  21207388.803   111445611.705        4119.024          27.000  
  22301826.128                       -1067.108          22.000  
  21964840.897                       -2198.013          26.000  
 16 10  2  8  4 39.9920000  0  9G26G21G16G20G27G29G18G 5G31
  18211905.181    95704201.250        1111.900          35.000  
  18872345.173    99174860.151         944.956          35.000  
  18715371.709    98349946.160        3058.303          33.000  
  19905726.605   104605299.0103       1775.125          31.000  
  20637673.403   108451707.9813       4300.285          30.000  
  20639769.237   108462718.094       -1725.167          30.000  
  21206607.837   111441492.297        4118.871          27.000  
  22302029.447                       -1068.815          23.000  
  21965261.281                       -2197.461          26.000  
 16 10  2  8  4 40.9920000  0  9G26G21G16G20G27G29G18G 5G31
  18211693.524    95703089.510        1111.747          35.000  
  18872165.334    99173915.196         944.689          35.000  
  18714788.104    98346887.424        3058.797          32.000  
  19905392.763   104603544.8913       1774.642          31.000  
  20636855.104   108447408.1522       4300.083          31.000  
  20640101.360   108464442.088       -1725.261          29.000  
  21205821.298   111437373.024        4118.502          28.000  
  22302235.411                       -1071.268          22.000  
  21965680.017   115430425.2243      -2198.806          27.000  
 16 10  2  8  4 41.9920000  0  9G26G21G16G20G27G29G18G 5G31
  18211481.920    95701978.068        1111.198          35.000  
  18871985.521    99172970.536         944.765          35.000  
  18714207.024    98343828.832        3058.522          33.000  
  19905054.276   104601770.4902       1774.516          30.000  
  20636038.049   108443108.0592       4299.696          31.000  
  20640426.638   108466166.165       -1723.433          29.000  
  21205036.495   111433253.918        4119.843          29.000  
  22302437.621                       -1076.675          22.000  
  21966098.990   115432623.7692      -2199.702          28.000  
 16 10  2  8  4 42.9920000  0  9G26G21G16G20G27G29G18G 5G31
  18211270.261    95700866.555        1111.850          35.000  
  18871805.488    99172025.622         945.407          34.000  
  18713624.848    98340770.294        3058.320          32.000  
  19904715.555   104599995.9362       1775.452          30.000  
  20635218.122   108438807.5892       4301.600          30.000  
  20640754.243   108467889.711       -1722.272          27.000  
  21204254.361   111429134.082        4120.749          30.000  
  22302642.868                       -1063.062          21.000  
  21966517.147   115434821.5412      -2198.031          29.000  
 16 10  2  8  4 43.9920000  0  9G26G21G16G20G27G29G18G 5G31
  18211058.450    95699755.242        1111.901          35.000  
  18871625.553    99171080.660         944.940          35.000  
  18713043.020    98337711.652        3059.033          33.000  
  19904379.470   104598221.4042       1774.235          29.000  
  20634402.097   108434506.9202       4301.821          31.000  
  20641079.743   108469612.645       -1723.429          27.000  
  21203469.881   111425014.107        4119.409          30.000  
  22302844.332                       -1077.499          20.000  
  21966938.478   115437019.1622      -2196.324          30.000  
 16 10  2  8  4 44.9920000  0  9G26G21G16G20G27G29G18G 5G31
  18210847.255    95698644.278        1110.167          35.000  
  18871445.688    99170135.931         943.749          34.000  
  18712461.219    98334653.329        3057.424          33.000  
  19904043.513   104596447.2522       1773.731          29.000  
  20633588.708   108430206.1942       4300.684          31.000  
  20641408.149   108471335.622       -1723.553          27.000  
  21202686.054   111420894.144        4119.512          32.000  
  22303050.494                       -1064.507          21.000  
  21967352.184   115439216.8252      -2198.191          30.000  
 16 10  2  8  4 45.9920000  0  9G26G21G16G20G27G29G18G 5G31
  18210635.785    95697533.793        1110.252          35.000  
  18871265.965    99169191.752         943.703          35.000  
  18711879.436    98331595.270        3057.883          32.000  
  19903705.132   104594674.3122       1772.845          29.000  
  20632764.267   108425905.4252       4299.187          31.000  
  20641736.070   108473059.081       -1722.841          27.000  
  21201900.440   111416774.461        4120.379          31.000  
  22303251.346                       -1074.190          21.000  
  21967772.821   115441414.1332      -2197.573          31.000  
 16 10  2  8  4 46.9920000  0  9G26G21G16G20G27G29G18G 5G31
  18210424.669    95696423.866        1109.319          35.000  
  18871086.251    99168247.874         942.921          34.000  
  18711297.715    98328537.946        3056.399          31.000  
  19903368.256   104592901.6012       1772.864          29.000  
  20631948.663   108421604.8102       4300.143          30.000  
  20642063.123   108474782.428       -1723.172          28.000  
  21201123.457   111412654.672        4118.816          31.000  
  22303454.338                       -1069.629          21.000  
  21968188.530   115443611.4082      -2198.988          30.000  
 16 10  2  8  4 47.9920000  0  9G26G21G16G20G27G29G18G 5G31
  18210213.776    95695315.048        1108.758          35.000  
  18870906.827    99167304.855         942.402          34.000  
  18710712.991    98325481.669        3055.974          31.000  
  19903029.337   104591129.9712       1771.021          29.000  
  20631130.401   108417305.0982       4299.275          31.000  
  20642390.933   108476506.310       -1723.916          28.000  
  21200336.163   111408535.185        4119.107          31.000  
  22303659.646                       -1071.664          20.000  
  21968610.537   115445809.0542      -2197.360          30.000  
 16 10  2  8  4 48.9920000  0  9G26G21G16G20G27G29G18G 5G31
  18210002.706    95694206.835        1108.722          35.000  
  18870727.368    99166362.418         942.345          34.000  
  18710135.196    98322425.794        3055.597          31.000  
  19902693.438                        1770.068          30.000  
  20630309.553   108413005.285        4300.678          31.000  
  20642722.332   108478230.410       -1725.510          29.000  
  21199551.813   111404416.301        4118.316          32.000  
  22303860.880                       -1063.799          20.000  
  21969027.056   115448006.3751      -2197.156          28.000  
 16 10  2  8  4 49.9920000  0  9G26G21G16G20G27G29G18G 5G31
  18209792.004    95693099.079        1106.682          35.000  
  18870548.200    99165420.269         941.329          35.000  
  18709552.192    98319370.188        3054.820          32.000  
  19902353.424   104587572.2543       1769.620          30.000  
  20629488.992   108408705.550        4299.684          31.000  
  20643049.792   108479954.461       -1724.175          30.000  
  21198766.348   111400297.337        4119.821          32.000  
  22304061.290                       -1062.533          18.000  
  21969445.323   115450204.104       -2198.093          27.000  
 16 10  2  8  4 50.9920000  0  9G26G21G16G20G27G29G18G 5G31
  18209581.414    95691991.810        1106.889          35.000  
  18870369.073    99164478.539         941.367          34.000  
  18708971.277    98316315.234        3054.172          32.000  
  19902017.947   104585802.6362       1770.047          31.000  
  20628672.035   108404406.094        4299.119          31.000  
  20643378.796   108481678.797       -1724.278          31.000  
  21197984.074   111396178.486        4118.351          32.000  
  22304266.950                       -1077.527          18.000  
  21969863.798                       -2199.752          26.000  
 16 10  2  8  4 51.9920000  0  9G26G21G16G20G27G29G18G 5G31
  18209370.870    95690885.195        1105.899          35.000  
  18870190.272    99163537.302         940.769          34.000  
  18708390.282    98313260.616        3055.415          32.000  
  19901683.725   104584033.7282       1768.980          32.000  
  20627852.199   108400106.695        4298.833          31.000  
  20643703.634   108483403.313       -1723.438          32.000  
  21197196.140   111392059.995        4118.661          30.000  
  22304473.678                       -1072.114          19.000  
  21970276.844                       -2201.259          25.000  
 16 10  2  8  4 52.9920000  0  9G26G21G16G20G27G29G18G 5G31
  18209160.801    95689779.241        1106.126          35.000  
  18870011.118    99162596.561         941.204          35.000  
  18707811.456    98310206.907        3053.944          32.000  
  19901345.579   104582265.5592       1767.870          33.000  
  20627037.096   108395807.689        4299.634          31.000  
  20644033.151   108485128.065       -1724.286          32.000  
  21196413.009   111387941.317        4120.199          30.000  
  22304678.209                       -1070.194          19.000  
  21970696.724                       -2197.233          24.000  
 16 10  2  8  4 53.9920000  0  9G26G21G16G20G27G29G18G 5G31
  18208950.353    95688674.115        1106.292          35.000  
  18869832.289    99161656.414         940.449          35.000  
  18707229.714    98307153.903        3054.222          32.000  
  19901008.760   104580497.9372       1766.666          33.000  
  20626219.108   108391509.246        4298.759          30.000  
  20644362.456   108486852.788       -1724.506          33.000  
  21195628.680                        4117.619          24.000  
  22304880.313                       -1072.676          20.000  
  21971115.860                       -2201.477          23.000  
 16 10  2  8  4 54.9920000  0  9G26G21G16G20G27G29G18G 5G31
  18208740.238    95687569.580        1104.018          35.000  
  18869653.338    99160716.648         938.740          35.000  
  18706648.238    98304101.159        3052.558          32.000  
  19900673.673   104578730.8222       1765.032          33.000  
  20625401.263   108387210.879        4297.899          32.000  
  20644692.247   108488577.567       -1725.078          32.000  
  21194845.196   111379663.0863       4118.489          25.000  
  22305084.314                       -1085.595          20.000  
  21971534.386                       -2196.848          22.000  
 16 10  2  8  4 55.9920000  0  8G26G21G16G20G27G29G18G31
  18208530.374    95686465.645        1102.640          36.000  
  18869474.594    99159777.489         937.817          35.000  
  18706065.574    98301049.003        3050.484          32.000  
  19900336.545   104576964.6602       1765.584          33.000  
  20624585.045   108382912.580        4297.375          32.000  
  20645021.603   108490302.828       -1725.318          33.000  
  21194060.794   111375545.5202       4117.219          27.000  
  21971951.778                       -2194.186          23.000  
 16 10  2  8  4 56.9920000  0  9G26G21G16G20G27G29G18G 5G31
  18208320.460    95685362.059        1102.949          36.000  
  18869296.215    99158838.344         938.586          35.000  
  18705484.827    98297997.204        3052.421          33.000  
  19900000.394   104575198.7082       1766.551          33.000  
  20623764.049   108378614.624        4297.573          32.000  
  20645349.521   108492027.754       -1724.246          33.000  
  21193282.745   111371427.5412       4117.446          28.000  
  22305494.458                       -1078.296          21.000  
  21972369.854                       -2207.438          23.000  
 16 10  2  8  4 57.9920000  0  9G26G21G16G20G27G29G18G 5G31
  18208110.478    95684259.237        1103.270          35.000  
  18869117.718    99157899.823         939.296          34.000  
  18704906.089    98294946.247        3050.661          34.000  
  19899664.787   104573433.5972       1764.321          33.000  
  20622947.986   108374316.852        4297.691          31.000  
  20645677.661   108493752.942       -1725.669          33.000  
  21192495.253   111367309.5782       4120.097          30.000  
  22305701.031                       -1081.320          22.000  
  21972790.106                       -2180.393          22.000  
 16 10  2  8  4 58.9920000  0  9G26G21G16G20G27G29G18G 5G31
  18207900.816    95683157.104        1102.140          35.000  
  18868939.242    99156962.020         937.546          34.000  
  18704325.549    98291895.577        3051.090          34.000  
  19899329.221   104571669.2442       1763.552          34.000  
  20622132.537   108370019.064        4298.753          33.000  
  20646005.896   108495478.386       -1726.190          36.000  
  21191712.940   111363192.2762       4117.970          29.000  
  22305905.006                       -1072.359          23.000  
  21973207.699                       -2196.671          23.000  
 16 10  2  8  4 59.9920000  0  9G26G21G16G20G27G29G18G 5G31
  18207691.346    95682055.894        1100.976          35.000  
  18868760.909    99156024.879         936.187          34.000  
  18703745.706    98288845.777        3048.877          33.000  
  19898993.798   104569905.6422       1761.824          35.000  
  20621313.886   108365721.893        4297.630          33.000  
  20646334.139   108497204.112       -1727.218          32.000  
  21190933.961   111359075.5552       4116.889          30.000  
  22306109.790                       -1072.943          23.000  
  21973624.587                       -2199.323          25.000  
 16 10  2  8  5  0.9920000  0  9G26G21G16G20G27G29G18G 5G31
  18207482.038    95680954.990        1100.629          36.000  
  18868582.953    99155087.824         936.221          34.000  
  18703165.067    98285796.435        3048.511          33.000  
  19898658.437   104568142.0091       1762.406          35.000  
  20620496.341   108361424.931        4297.901          35.000  
  20646662.300   108498929.739       -1725.974          33.000  
  21190143.052   111354958.3592       4117.354          32.000  
  22306315.059                       -1076.706          22.000  
  21974044.702                       -2197.398          26.000  
 16 10  2  8  5  1.9920000  0  9G26G21G16G20G27G29G18G 5G31
  18207272.646    95679854.599        1099.656          36.000  
  18868404.853    99154151.200         936.369          34.000  
  18702584.938    98282747.442        3047.660          34.000  
  19898323.181   104566379.502        1763.039          34.000  
  20619676.002   108357127.961        4296.095          32.000  
  20646990.655   108500655.476       -1725.179          32.000  
  21189361.751   111350841.4462       4115.732          31.000  
  22306519.505                       -1078.307          23.000  
  21974463.547                       -2199.622          26.000  
 16 10  2  8  5  2.9920000  0  8G26G21G16G20G27G29G18G31
  18207063.375    95678755.166        1099.225          36.000  
  18868226.472    99153215.282         935.653          34.000  
  18702004.630    98279699.129        3047.685          34.000  
  19897988.009   104564617.737        1762.492          33.000  
  20618859.167   108352831.528        4295.695          32.000  
  20647319.642   108502381.419       -1725.144          30.000  
  21188581.482   111346725.2132       4115.455          30.000  
  21974880.587   115478776.6663      -2199.659          28.000  
 16 10  2  8  5  3.9920000  0  9G26G21G16G20G27G29G18G 5G31
  18206854.200    95677656.385        1099.851          35.000  
  18868048.543    99152279.766         936.229          34.000  
  18701424.420    98276651.492        3049.339          32.000  
  19897651.910   104562856.576        1759.838          33.000  
  20618039.993   108348535.424        4297.341          32.000  
  20647647.155   108504107.468       -1725.642          30.000  
  21187798.422   111342608.8162       4117.026          29.000  
  22306929.940                       -1073.167          21.000  
  21975300.330   115480975.8892      -2198.290          27.000  
 16 10  2  8  5  4.9920000  0  9G26G21G16G20G27G29G18G 5G31
  18206645.359    95676558.065        1098.440          34.000  
  18867870.432    99151344.535         934.813          34.000  
  18700844.820    98273604.307        3047.232          33.000  
  19897315.725   104561095.659        1759.552          33.000  
  20617219.342   108344239.475        4296.144          31.000  
  20647976.654   108505833.308       -1726.430          31.000  
  21187019.034   111338492.4262       4116.984          28.000  
  22307135.983                       -1073.121          21.000  
  21975720.328   115483174.9762      -2197.967          27.000  
 16 10  2  8  5  5.9920000  0  9G26G21G16G20G27G29G18G 5G31
  18206436.317    95675460.287        1097.288          35.000  
  18867692.743    99150409.648         934.613          33.000  
  18700264.901    98270557.553        3045.787          34.000  
  19896981.533   104559335.387        1759.341          33.000  
  20616402.746   108339943.796        4294.922          30.000  
  20648305.085   108507559.196       -1727.000          31.000  
  21186234.890   111334376.2912       4115.375          30.000  
  22307339.790                       -1071.474          20.000  
  21976140.298   115485374.3252      -2200.090          26.000  
 16 10  2  8  5  6.9920000  0  9G26G21G16G20G27G29G18G 5G31
  18206227.475    95674363.160        1096.812          35.000  
  18867515.081    99149475.348         934.457          33.000  
  18699685.338    98267511.335        3046.407          34.000  
  19896646.911   104557575.986        1760.010          33.000  
  20615586.860   108335648.191        4295.428          30.000  
  20648629.896   108509285.450       -1725.327          32.000  
  21185449.086   111330260.418        4115.819          32.000  
  22307543.855                       -1071.082          19.000  
  21976563.193   115487573.5392      -2200.446          27.000  
 16 10  2  8  5  7.9920000  0  9G26G21G16G20G27G29G18G 5G31
  18206018.707    95673266.582        1095.803          34.000  
  18867337.238    99148541.633         932.474          33.000  
  18699105.833    98264465.663        3044.041          33.000  
  19896314.237   104555817.420        1758.586          33.000  
  20614769.311   108331352.638        4294.947          30.000  
  20648961.584   108511012.046       -1726.462          32.000  
  21184662.540   111326144.663        4114.515          31.000  
  22307748.781                       -1084.412          20.000  
  21976983.457   115489772.5082      -2198.855          27.000  
 16 10  2  8  5  8.9920000  0  9G26G21G16G20G27G29G18G 5G31
  18205809.762    95672170.474        1098.300          34.000  
  18867159.484    99147608.149         934.545          33.000  
  18698526.011    98261420.262        3046.168          34.000  
  19895980.262   104554059.399        1757.624          34.000  
  20613953.022   108327057.040        4297.792          30.000  
  20649289.154   108512738.650       -1726.405          32.000  
  21183877.885   111322028.949        4117.091          31.000  
  22307953.880                       -1090.612          19.000  
  21977397.590   115491971.4492      -2195.984          27.000  
 16 10  2  8  5  9.9920000  0  9G26G21G16G20G27G29G18G 5G31
  18205601.630    95671074.937        1095.208          34.000  
  18866981.796    99146675.200         932.386          33.000  
  18697946.621    98258375.370        3044.660          34.000  
  19895646.249   104552301.956        1756.894          34.000  
  20613134.777   108322761.667        4296.690          30.000  
  20649617.485   108514465.348       -1726.375          32.000  
  21183095.584   111317913.518        4114.895          32.000  
  22308160.159                       -1072.668          19.000  
  21977817.305   115494170.5372      -2198.587          27.000  
 16 10  2  8  5 10.9920000  0  9G26G21G16G20G27G29G18G 5G31
  18205393.385    95669979.950        1094.121          34.000  
  18866804.403    99145742.470         931.562          33.000  
  18697367.084    98255331.105        3042.428          34.000  
  19895311.350   104550545.078        1757.023          34.000  
  20612321.292   108318466.700        4294.105          30.000  
  20649946.349   108516192.118       -1726.023          32.000  
  21182313.020   111313798.249        4115.263          33.000  
  22308370.193                       -1087.858          18.000  
  21978232.509   115496369.9182      -2200.150          28.000  
 16 10  2  8  5 11.9920000  0  9G26G21G16G20G27G29G18G 5G31
  18205185.083    95668885.941        1093.051          34.000  
  18866627.068    99144810.690         931.455          33.000  
  18696787.860    98252287.565        3043.127          34.000  
  19894977.335   104548789.474        1756.462          33.000  
  20611503.838   108314172.163        4292.724          31.000  
  20650274.727   108517919.682       -1727.660          32.000  
  21181533.420   111309683.525        4113.938          32.000  
  22308575.249                       -1078.161          17.000  
  21978650.425   115498569.4012      -2201.146          27.000  
 16 10  2  8  5 12.9920000  0  9G26G21G16G20G27G29G18G 5G31
  18204977.389    95667792.401        1094.453          34.000  
  18866449.863    99143879.078         932.339          33.000  
  18696209.023    98249244.510        3044.000          34.000  
  19894643.331   104547033.940        1755.431          33.000  
  20610688.983   108309877.768        4295.486          31.000  
  20650603.739   108519646.624       -1726.144          32.000  
  21180752.743   111305568.629        4115.853          32.000  
  22308781.925                       -1074.656          15.000  
  21979068.823   115500768.5381      -2198.887          26.000  
 16 10  2  8  5 13.9920000  0  9G26G21G16G20G27G29G18G 5G31
  18204769.358    95666699.351        1093.115          35.000  
  18866272.678    99142947.789         930.698          33.000  
  18695630.077    98246201.763        3042.902          34.000  
  19894309.244   104545278.689        1755.254          33.000  
  20609867.736   108305583.493        4295.159          31.000  
  20650932.252   108521373.443       -1727.051          32.000  
  21179966.028   111301453.847        4115.165          30.000  
  22308988.722                       -1079.365          16.000  
  21979483.528   115502968.164       -2197.722          27.000  
 16 10  2  8  5 14.9920000  0  9G26G21G16G20G27G29G18G 5G31
  18204561.372    95665606.739        1091.085          34.000  
  18866095.517    99142016.820         930.081          33.000  
  18695051.238    98243159.322        3040.513          34.000  
  19893975.261   104543524.277        1753.840          34.000  
  20609051.412   108301289.162        4292.318          31.000  
  20651260.754   108523100.564       -1726.875          31.000  
  21179181.836   111297339.306        4112.712          30.000  
  22309196.541                       -1086.814          18.000  
  21979901.839   115505163.2363      -2200.094          27.000  
 16 10  2  8  5 15.9920000  0  9G26G21G16G20G27G29G18G 5G31
  18204353.394    95664514.769        1091.281          34.000  
  18865918.342    99141086.198         929.777          33.000  
  18694472.185    98240117.644        3041.518          34.000  
  19893641.149   104541770.319        1753.777          34.000  
  20608232.117   108296995.343        4293.534          31.000  
  20651589.087   108524827.613       -1726.733          31.000  
  21178398.606   111293224.543        4114.122          29.000  
  22309403.756                       -1079.995          19.000  
  21980319.295   115507362.8072      -2201.076          27.000  
 16 10  2  8  5 16.9920000  0  9G26G21G16G20G27G29G18G 5G31
  18204145.614    95663423.300        1092.192          34.000  
  18865741.278    99140156.080         930.961          33.000  
  18693893.568    98237076.357        3041.848          34.000  
  19893307.318   104540017.055        1753.067          34.000  
  20607415.957   108292701.536        4294.583          32.000  
  20651918.829   108526554.838       -1726.556          32.000  
  21177615.389   111289110.079        4114.231          30.000  
  22309611.170                       -1089.702          21.000  
  21980739.363   115509562.3392      -2198.854          27.000  
 16 10  2  8  5 17.9920000  0  9G26G21G16G20G27G29G18G 5G31
  18203938.185    95662333.274        1089.518          34.000  
  18865564.488    99139227.019         928.391          33.000  
  18693315.127    98234036.176        3039.625          34.000  
  19892973.723   104538264.620        1751.629          34.000  
  20606595.374   108288408.669        4291.653          32.000  
  20652249.030   108528282.436       -1728.520          32.000  
  21176836.515   111284996.484        4112.607          31.000  
  22309815.161                       -1087.817          19.000  
  21981161.481   115511763.0172      -2200.099          27.000  
 16 10  2  8  5 18.9920000  0  9G26G21G16G20G27G29G18G 5G31
  18203730.571    95661243.304        1089.233          34.000  
  18865387.460    99138297.894         928.228          32.000  
  18692736.455    98230996.294        3039.535          34.000  
  19892640.234   104536512.592        1751.628          34.000  
  20605781.447   108284115.739        4292.983          32.000  
  20652576.202   108530009.868       -1727.714          32.000  
  21176053.060   111280882.461        4112.913          30.000  
  22310021.457                       -1090.285          19.000  
  21981579.964   115513963.1532      -2200.854          27.000  
 16 10  2  8  5 19.9920000  0  8G26G21G16G20G27G29G18G31
  18203523.237    95660153.452        1088.725          35.000  
  18865210.659    99137368.905         928.304          33.000  
  18692158.138    98227956.317        3039.719          35.000  
  19892306.784   104534761.122        1751.719          34.000  
  20604963.522   108279822.297        4292.195          32.000  
  20652905.677   108531737.310       -1726.394          32.000  
  21175263.821   111276768.426        4113.555          29.000  
  21981997.159   115516162.6592      -2201.099          28.000  
 16 10  2  8  5 20.9920000  0  8G26G21G16G20G27G29G18G31
  18203315.728    95659064.126        1089.088          35.000  
  18865033.904    99136440.174         929.028          32.000  
  18691579.835    98224916.860        3039.087          35.000  
  19891973.931   104533009.890        1750.835          34.000  
  20604146.739   108275529.086        4293.654          32.000  
  20653235.598   108533464.559       -1727.557          32.000  
  21174488.164   111272654.219        4114.647          28.000  
  21982414.153   115518362.2012      -2199.409          28.000  
 16 10  2  8  5 21.9920000  0  8G26G21G16G20G27G29G18G31
  18203108.522    95657975.607        1089.455          35.000  
  18864857.151    99135512.081         928.834          33.000  
  18691001.427    98221877.948        3039.246          34.000  
  19891640.871   104531259.278        1750.691          34.000  
  20603329.999   108271236.083        4293.423          33.000  
  20653562.798   108535191.796       -1727.251          33.000  
  21173701.657   111268540.305        4114.858          26.000  
  21982833.131   115520561.9732      -2198.172          28.000  
 16 10  2  8  5 22.9920000  0  9G26G21G16G20G27G29G18G 5G31
  18202901.444    95656887.442        1087.571          35.000  
  18864680.530    99134584.122         927.275          33.000  
  18690423.301    98218839.320        3037.746          35.000  
  19891307.874   104529509.076        1749.780          34.000  
  20602513.690   108266943.213        4291.959          33.000  
  20653891.821   108536918.939       -1727.949          33.000  
  21172916.823                        4113.834          25.000  
  22310847.676   117244295.2833      -1087.777          26.000  
  21983258.075   115522761.9002      -2199.531          29.000  
 16 10  2  8  5 23.9920000  0  9G26G21G16G20G27G29G18G 5G31
  18202694.374    95655799.566        1087.201          36.000  
  18864503.946    99133656.373         927.560          32.000  
  18689845.108    98215801.026        3038.547          35.000  
  19890974.935   104527759.278        1750.085          35.000  
  20601696.907   108262650.228        4293.088          34.000  
  20654220.298   108538645.969       -1727.259          33.000  
  21172135.654   111260312.305        4114.146          26.000  
  22311052.303   117245382.8072      -1087.305          26.000  
  21983675.235   115524961.2822      -2200.908          30.000  
 16 10  2  8  5 24.9920000  0  9G26G21G16G20G27G29G18G 5G31
  18202487.586    95654712.497        1084.929          35.000  
  18864327.366    99132729.212         925.390          33.000  
  18689267.049    98212763.497        3036.146          36.000  
  19890642.108   104526010.328        1747.850          34.000  
  20600880.094   108258357.762        4291.439          33.000  
  20654548.886   108540373.366       -1727.930          32.000  
  21171353.137                        4111.160          24.000  
  22311260.554                       -1088.558          26.000  
  21984098.533   115527160.3791      -2201.344          28.000  
 16 10  2  8  5 25.9920000  0  9G26G21G16G20G27G29G18G 5G31
  18202280.813    95653626.181        1086.962          35.000  
  18864151.237    99131802.695         927.439          33.000  
  18688689.343    98209726.548        3037.702          34.000  
  19890309.229   104524262.139        1749.258          35.000  
  20600063.221   108254065.578        4293.018          33.000  
  20654877.104   108542100.969       -1726.563          32.000  
  21170570.966                        4117.887          23.000  
  22311470.117                       -1089.628          26.000  
  21984508.236   115529360.444       -2199.291          28.000  
 16 10  2  8  5 26.9920000  0  9G26G21G16G20G27G29G18G 5G31
  18202074.235    95652540.720        1085.987          36.000  
  18863974.907    99130876.658         926.075          33.000  
  18688111.478    98206690.356        3036.025          36.000  
  19889976.793   104522514.483        1747.353          34.000  
  20599246.426   108249773.792        4291.657          35.000  
  20655206.829   108543828.575       -1727.750          31.000  
  21169788.105                        4112.685          22.000  
  22311676.777                       -1092.014          26.000  
  21984933.929   115531560.770       -2199.205          27.000  
 16 10  2  8  5 27.9920000  0  9G26G21G16G20G27G29G18G 5G31
  18201868.118    95651455.946        1084.303          37.000  
  18863799.141    99129951.269         924.017          33.000  
  18687533.664    98203654.819        3034.488          33.000  
  19889644.446   104520767.632        1746.357          32.000  
  20598430.243   108245482.464        4290.565          34.000  
  20655531.355   108545556.486       -1728.872          30.000  
  21169007.513                        4113.156          24.000  
  22311881.371                       -1089.563          26.000  
  21985349.704                       -2200.417          27.000  
 16 10  2  8  5 28.9920000  0  9G26G21G16G20G27G29G18G 5G31
  18201661.784    95650371.922        1083.125          37.000  
  18863623.098    99129026.513         923.709          34.000  
  18686956.193    98200619.865        3034.414          36.000  
  19889312.069   104519021.715        1744.658          33.000  
  20597613.808   108241191.401        4290.663          34.000  
  20655861.287   108547284.820       -1729.052          32.000  
  21168224.346                        4112.162          24.000  
  22312087.695                       -1094.923          25.000  
  21985770.249                       -2201.775          27.000  
 16 10  2  8  5 29.9920000  0  9G26G21G16G20G27G29G18G 5G31
  18201455.328    95649288.345        1083.022          37.000  
  18863447.521    99128102.385         923.457          34.000  
  18686378.708    98197585.114        3034.867          36.000  
  19888980.234   104517277.090        1744.332          36.000  
  20596797.397   108236899.860        4290.975          34.000  
  20656192.051   108549013.980       -1729.853          32.000  
  21167443.811                        4112.953          31.000  
  22312295.647                       -1090.087          26.000  
  21986190.087   115538201.8323      -2199.780          29.000  
 16 10  2  8  5 30.9920000  0  9G26G21G16G20G27G29G18G 5G31
  18201249.010    95648205.461        1083.222          36.000  
  18863271.782    99127178.764         924.791          35.000  
  18685801.143    98194550.933        3034.978          33.000  
  19888647.989   104515532.965        1744.975          36.000  
  20595980.541   108232608.690        4290.510          34.000  
  20656519.954   108550743.169       -1727.997          32.000  
  21166661.490   111231556.6513       4112.697          30.000  
  22312503.540                       -1092.164          25.000  
  21986603.147   115540402.4762      -2199.323          29.000  
 16 10  2  8  5 31.9920000  0  9G26G21G16G20G27G29G18G 5G31
  18201043.124    95647123.208        1082.468          36.000  
  18863096.182    99126255.566         923.064          35.000  
  18685224.037    98191517.237        3032.541          34.000  
  19888316.036   104513789.298        1742.488          34.000  
  20595164.273   108228317.576        4291.485          34.000  
  20656850.117   108552472.226       -1729.483          33.000  
  21165882.433   111227445.3582       4112.033          31.000  
  22312709.028                       -1103.894          23.000  
  21987024.832   115542603.4962      -2199.821          29.000  
 16 10  2  8  5 32.9920000  0  9G26G21G16G20G27G29G18G 5G31
  18200837.499    95646041.514        1079.927          36.000  
  18862920.378    99125332.962         921.230          34.000  
  18684646.690    98188483.692        3032.745          34.000  
  19887984.160   104512046.646        1741.565          34.000  
  20594347.817   108224026.443        4290.134          33.000  
  20657178.900   108554201.853       -1730.931          33.000  
  21165092.798   111223334.6542       4109.754          31.000  
  22312917.327                       -1085.449          21.000  
  21987439.524   115544804.4562      -2201.365          28.000  
 16 10  2  8  5 33.9920000  0  9G26G21G16G20G27G29G18G 5G31
  18200632.009    95644960.552        1080.255          37.000  
  18862744.928    99124410.957         921.240          34.000  
  18684069.352    98185451.043        3031.867          34.000  
  19887652.767   104510304.922        1742.266          35.000  
  20593531.297   108219735.664        4290.718          33.000  
  20657507.706   108555931.815       -1729.453          34.000  
  21164313.647   111219224.2232       4109.906          32.000  
  22313127.243                       -1092.167          21.000  
  21987859.013   115547005.4992      -2202.164          28.000  
 16 10  2  8  5 34.9920000  0  9G26G21G16G20G27G29G18G 5G31
  18200426.109    95643879.958        1079.957          37.000  
  18862569.386    99123489.162         921.332          34.000  
  18683492.399    98182418.553        3031.923          34.000  
  19887321.652   104508563.725        1741.020          34.000  
  20592715.065   108215444.769        4291.673          33.000  
  20657837.863   108557661.884       -1729.925          33.000  
  21163527.684   111215113.8382       4109.632          31.000  
  22313336.132                       -1090.134          21.000  
  21988281.419   115549206.3692      -2201.180          28.000  
 16 10  2  8  5 35.9920000  0  9G26G21G16G20G27G29G18G 5G31
  18200220.578    95642800.405        1080.674          36.000  
  18862393.870    99122568.281         921.523          34.000  
  18682915.636    98179386.828        3031.645          35.000  
  19886990.063   104506823.278        1739.097          33.000  
  20591898.349   108211154.398        4290.200          32.000  
  20658167.240   108559392.169       -1731.519          33.000  
  21162748.276   111211004.1492       4109.580          30.000  
  22313545.289                       -1085.604          19.000  
  21988696.889   115551408.0482      -2200.391          27.000  
 16 10  2  8  5 36.9920000  0  9G26G21G16G20G27G29G18G 5G31
  18200015.177    95641721.320        1078.785          35.000  
  18862218.618    99121647.741         919.868          35.000  
  18682338.690    98176355.498        3031.719          34.000  
  19886658.917   104505083.626        1738.497          35.000  
  20591081.953   108206863.993        4291.038          31.000  
  20658496.708   108561122.720       -1731.462          33.000  
  21161966.181   111206894.6832       4107.536          30.000  
  22313754.306                       -1095.043          20.000  
  21989120.794   115553609.0561      -2201.750          27.000  
 16 10  2  8  5 37.9920000  0  9G26G21G16G20G27G29G18G 5G31
  18199810.040    95640642.790        1078.168          36.000  
  18862043.463    99120727.858         919.828          35.000  
  18681762.119    98173324.628        3030.418          34.000  
  19886328.216   104503345.030        1739.320          34.000  
  20590265.719   108202573.655        4290.293          32.000  
  20658825.998   108562853.802       -1730.735          32.000  
  21161185.610   111202785.6442       4107.409          30.000  
  22313962.054                       -1090.761          18.000  
  21989537.366   115555810.495       -2202.803          27.000  
 16 10  2  8  5 38.9920000  0  9G26G21G16G20G27G29G18G 5G31
  18199604.832    95639564.799        1077.404          33.000  
  18861868.808    99119808.227         919.286          35.000  
  18681185.222    98170294.052        3029.547          33.000  
  19885997.168   104501606.775        1737.812          34.000  
  20589449.299   108198283.362        4288.669          30.000  
  20659155.510   108564584.666       -1730.552          32.000  
  21160400.416   111198676.7622       4108.464          28.000  
  22314171.143                       -1093.048          19.000  
  21989958.842   115558012.061       -2202.457          27.000  
 16 10  2  8  5 39.9920000  0  9G26G21G16G20G27G29G18G 5G31
  18199399.971    95638487.250        1077.947          34.000  
  18861694.020    99118889.111         919.004          35.000  
  18680608.780    98167263.669        3030.847          33.000  
  19885666.792   104499869.428        1735.529          33.000  
  20588634.867   108193992.802        4291.719          30.000  
  20659485.354   108566316.094       -1732.183          32.000  
  21159618.046   111194568.3062       4108.280          28.000  
  22314382.689                       -1107.932          22.000  
  21990376.682   115560213.691       -2201.347          26.000  
 16 10  2  8  5 40.9920000  0  9G26G21G16G20G27G29G18G 5G31
  18199194.953    95637410.542        1077.706          34.000  
  18861519.241    99117970.641         919.172          35.000  
  18680033.624    98164234.034        3029.561          33.000  
  19885336.233   104498132.824        1735.955          33.000  
  20587811.327   108189702.652        4290.556          30.000  
  20659815.421   108568047.642       -1730.877          31.000  
  21158839.474   111190460.2832       4109.266          29.000  
  22314590.269                       -1092.776          22.000  
  21990794.505   115562415.464       -2200.744          27.000  
 16 10  2  8  5 41.9920000  0  9G26G21G16G20G27G29G18G 5G31
  18198990.280    95636334.641        1075.587          34.000  
  18861344.568    99117052.527         917.611          35.000  
  18679457.041    98161205.314        3028.858          32.000  
  19885005.840   104496396.447        1735.223          34.000  
  20586995.692   108185413.391        4289.374          30.000  
  20660144.544   108569778.964       -1732.354          32.000  
  21158053.505                        4108.870          30.000  
  22314800.978                       -1103.711          24.000  
  21991213.625   115564617.621       -2200.974          27.000  
 16 10  2  8  5 42.9920000  0  9G26G21G16G20G27G29G18G 5G31
  18198785.810    95635258.868        1075.101          34.000  
  18861169.929    99116134.583         917.150          35.000  
  18678881.433    98158176.705        3027.462          32.000  
  19884675.523   104494660.679        1736.017          34.000  
  20586185.108   108181123.771        4289.587          30.000  
  20660473.172   108571510.324       -1731.367          33.000  
  21157273.018   111182219.7243       4107.165          30.000  
  22315008.123                       -1090.927          22.000  
  21991629.036   115566819.353       -2201.572          27.000  
 16 10  2  8  5 43.9920000  0  9G26G21G16G20G27G29G18G 5G31
  18198581.185    95634183.499        1075.053          34.000  
  18860995.547    99115216.886         917.312          35.000  
  18678303.793    98155148.264        3028.211          31.000  
  19884345.396   104492925.411        1734.885          34.000  
  20585365.631   108176834.020        4289.653          30.000  
  20660802.697   108573241.642       -1731.290          32.000  
  21156493.790   111178111.4622       4108.070          30.000  
  22315214.600                       -1095.391          22.000  
  21992048.573   115569020.912       -2202.583          26.000  
 16 10  2  8  5 44.9920000  0  9G26G21G16G20G27G29G18G 5G31
  18198376.729    95633108.428        1074.505          34.000  
  18860821.182    99114299.725         916.665          34.000  
  18677728.361    98152119.926        3027.480          31.000  
  19884015.231   104491191.235        1733.650          33.000  
  20584548.502   108172543.635        4290.004          29.000  
  20661130.708   108574973.608       -1731.380          32.000  
  21155715.787   111174003.6642       4107.385          29.000  
  22315422.682                       -1101.890          22.000  
  21992467.404   115571221.848       -2200.928          26.000  
 16 10  2  8  5 45.9920000  0  9G26G21G16G20G27G29G18G 5G31
  18198172.206    95632034.222        1074.328          34.000  
  18860646.457    99113382.998         917.164          34.000  
  18677152.575    98149092.431        3027.788          34.000  
  19883685.314   104489457.453        1733.968          33.000  
  20583737.525   108168254.071        4289.236          30.000  
  20661462.281   108576705.435       -1731.739          32.000  
  21154928.471   111169895.7232       4109.161          28.000  
  22315629.882                       -1099.270          21.000  
  21992887.312   115573423.383       -2200.953          26.000  
 16 10  2  8  5 46.9920000  0  9G26G21G16G20G27G29G18G 5G31
  18197968.299    95630960.904        1074.175          34.000  
  18860471.882    99112466.988         915.757          35.000  
  18676574.965    98146065.631        3027.218          33.000  
  19883355.412   104487724.499        1731.817          33.000  
  20582920.191   108163964.876        4289.061          30.000  
  20661793.886   108578437.608       -1734.068          32.000  
  21154145.246   111165788.6512       4106.797          29.000  
  22315842.256                       -1098.686          22.000  
  21993306.566   115575625.267       -2201.110          26.000  
 16 10  2  8  5 47.9920000  0  9G26G21G16G20G27G29G18G 5G31
  18197764.580    95629888.504        1072.908          34.000  
  18860297.817    99111551.875         914.883          34.000  
  18675998.723    98143039.715        3025.736          31.000  
  19883025.902   104485992.721        1731.173          33.000  
  20582103.541   108159676.136        4289.375          29.000  
  20662122.816   108580170.419       -1733.744          33.000  
  21153361.434   111161682.0652       4106.833          29.000  
  22316048.975                       -1113.619          22.000  
  21993724.596   115577827.495       -2201.039          27.000  
 16 10  2  8  5 48.9920000  0  9G26G21G16G20G27G29G18G 5G31
  18197560.615    95628816.750        1071.860          34.000  
  18860123.572    99110637.215         914.519          35.000  
  18675422.989    98140014.239        3025.200          32.000  
  19882696.486   104484261.568        1730.618          33.000  
  20581288.044   108155387.645        4289.287          30.000  
  20662452.774   108581903.194       -1732.263          32.000  
  21152582.851   111157575.8052       4105.040          29.000  
  22316258.347                       -1098.957          21.000  
  21994146.198   115580030.023       -2201.995          27.000  
 16 10  2  8  5 49.9920000  0  9G26G21G16G20G27G29G18G 5G31
  18197356.623    95627745.279        1070.771          34.000  
  18859949.778    99109722.709         914.208          34.000  
  18674847.135    98136989.066        3024.594          33.000  
  19882367.140   104482530.812        1730.595          33.000  
  20580470.774   108151099.122        4287.188          30.000  
  20662782.219   108583636.080       -1731.934          32.000  
  21151795.457   111153469.3082       4107.071          30.000  
  22316466.422                       -1097.293          21.000  
  21994565.948   115582232.226       -2202.364          27.000  
 16 10  2  8  5 50.9920000  0  9G26G21G16G20G27G29G18G 5G31
  18197152.806    95626674.255        1070.867          34.000  
  18859775.734    99108808.429         914.051          34.000  
  18674271.671    98133964.209        3024.812          33.000  
  19882037.907   104480800.457        1730.585          33.000  
  20579657.303   108146810.648        4287.602          31.000  
  20663111.843   108585368.706       -1732.317          33.000  
  21151022.050   111149362.9202       4106.726          30.000  
  22316676.954                       -1101.352          21.000  
  21994982.302   115584434.398       -2203.965          27.000  
 16 10  2  8  5 51.9920000  0  9G26G21G16G20G27G29G18G 5G31
  18196949.216    95625603.956        1070.263          35.000  
  18859601.922    99107894.972         913.698          34.000  
  18673696.245    98130939.886        3023.077          33.000  
  19881708.943   104479071.304        1729.395          33.000  
  20578844.793   108142522.129        4288.012          30.000  
  20663441.574   108587102.175       -1732.876          32.000  
  21150244.708   111145257.2532       4106.848          30.000  
  22316885.721                       -1109.094          21.000  
  21995401.290   115586636.828       -2202.971          27.000  
 16 10  2  8  5 52.9920000  0  9G26G21G16G20G27G29G18G 5G31
  18196746.069    95624534.166        1070.629          34.000  
  18859428.043    99106981.647         913.866          34.000  
  18673121.018    98127915.895        3024.917          33.000  
  19881379.983   104477342.210        1730.067          34.000  
  20578023.341   108138233.843        4289.330          30.000  
  20663771.095   108588835.062       -1731.968          32.000  
  21149462.099   111141151.4312       4106.496          29.000  
  22317095.450                       -1099.767          21.000  
  21995819.227                       -2201.144          26.000  
 16 10  2  8  5 53.9920000  0  9G26G21G16G20G27G29G18G 5G31
  18196542.269    95623464.945        1069.503          34.000  
  18859254.264    99106068.664         912.709          35.000  
  18672545.692    98124892.337        3023.360          33.000  
  19881051.452   104475613.567        1727.610          34.000  
  20577205.397   108133945.795        4288.860          30.000  
  20664100.963   108590567.873       -1734.287          32.000  
  21148678.139   111137045.6792       4105.278          31.000  
  22317308.058                       -1090.860          21.000  
  21996237.950                       -2201.963          26.000  
 16 10  2  8  5 54.9920000  0  9G26G21G16G20G27G29G18G 5G31
  18196338.514    95622395.903        1067.385          34.000  
  18859080.680    99105155.831         911.875          35.000  
  18671970.495    98121868.854        3022.950          33.000  
  19880722.892   104473885.451        1727.942          32.000  
  20576393.713   108129657.292        4287.939          32.000  
  20664430.415   108592300.768       -1733.186          31.000  
  21147898.128   111132940.119        4104.523          29.000  
  22317516.179                       -1098.108          20.000  
  21996659.928   115593214.4503      -2203.260          26.000  
 16 10  2  8  5 55.9920000  0  9G26G21G16G20G27G29G18G 5G31
  18196134.858    95621327.576        1067.260          33.000  
  18858906.768    99104243.527         911.613          35.000  
  18671394.588    98118846.241        3021.257          33.000  
  19880394.107   104472157.938        1728.361          32.000  
  20575574.875   108125369.575        4286.873          30.000  
  20664754.548   108594033.631       -1733.211          31.000  
  21147116.701   111128834.518        4104.943          28.000  
  22317726.183                       -1117.192          18.000  
  21997078.205                       -2204.811          25.000  
 16 10  2  8  5 56.9920000  0  9G26G21G16G20G27G29G18G 5G31
  18195931.596    95620259.781        1067.516          33.000  
  18858733.614    99103331.702         912.227          34.000  
  18670817.331    98115823.844        3022.520          32.000  
  19880065.957   104470431.336        1726.401          33.000  
  20574756.309   108121081.549        4288.747          29.000  
  20665091.154   108595767.013       -1733.472          32.000  
  21146331.049   111124729.136        4104.689          27.000  
  22317934.231                       -1106.489          19.000  
  21997499.357                       -2202.039          24.000  
 16 10  2  8  5 57.9920000  0  9G26G21G16G20G27G29G18G 5G31
  18195728.426    95619192.997        1067.690          34.000  
  18858560.501    99102420.601         911.322          33.000  
  18670246.097    98112802.399        3022.375          33.000  
  19879737.281   104468705.377        1725.600          36.000  
  20573943.447   108116794.260        4288.865          29.000  
  20665419.849   108597500.448       -1734.568          33.000  
  21145551.862   111120624.234        4106.812          28.000  
  22318143.824                       -1100.315          20.000  
  21997918.936                       -2201.865          24.000  
 16 10  2  8  5 58.9920000  0  9G26G21G16G20G27G29G18G 5G31
  18195525.767    95618126.540        1065.973          35.000  
  18858387.271    99101509.512         910.657          34.000  
  18669671.260    98109781.094        3020.681          34.000  
  19879408.753   104466979.578        1725.552          34.000  
  20573126.290   108112506.887        4286.932          29.000  
  20665749.089   108599233.470       -1733.091          36.000  
  21144770.669   111116519.443        4104.174          28.000  
  22318354.123                       -1098.131          19.000  
  21998337.582                       -2202.485          26.000  
 16 10  2  8  5 59.9920000  0  8G26G21G16G20G27G29G18G31
  18195322.994    95617060.574        1065.283          41.000  
  18858214.164    99100599.052         910.097          42.000  
  18669094.799    98106760.067        3020.090          39.000  
  19879080.656   104465254.834        1725.001          37.000  
  20572314.515   108108219.437        4285.909          37.000  
  20666078.962   108600967.194       -1732.925          38.000  
  21143992.118   111112415.155        4104.002          36.000  
  21998754.804   115604246.5613      -2204.258          35.000  
 16 10  2  8  6  0.9920000  0  9G26G21G16G20G27G29G18G 5G31
  18195120.214    95615995.735        1064.124          35.000  
  18858041.009    99099689.097         909.529          37.000  
  18668522.321    98103740.084        3018.493          29.000  
  19878752.580   104463530.442        1723.933          37.000  
  20571491.688   108103932.712        4286.467          30.000  
  20666408.540   108602700.523       -1734.079          39.000  
  21143212.973   111108310.948        4104.368          39.000  
  22318782.088                       -1107.695          30.000  
  21999176.750   115606449.9762      -2202.568          31.000  
 16 10  2  8  6  1.9920000  0  8G26G21G20G27G29G18G 5G31
  18194917.649    95614931.489        1063.938          41.000  
  18857867.738    99098779.316         909.522          34.000  
  19878424.388   104461806.047        1724.205          40.000  
  20570677.814   108099646.684        4286.229          38.000  
  20666738.443   108604433.398       -1732.313          38.000  
  21142427.909   111104206.971        4103.847          36.000  
  22318988.356   117287075.0463      -1104.088          34.000  
  21999595.281                       -2203.870          25.000  
 16 10  2  8  6  2.9920000  0  9G26G21G16G20G27G29G18G 5G31
  18194715.254    95613867.673        1063.933          40.000  
  18857694.614    99097869.650         910.795          36.000  
  18667367.279                        3017.247          32.000  
  19878096.196   104460081.424        1725.517          36.000  
  20569861.527   108095360.988        4285.028          34.000  
  20667068.391   108606165.571       -1731.373          37.000  
  21141647.600   111100102.731        4105.591          34.000  
  22319208.382   117288179.3462      -1104.372          38.000  
  22000013.220   115610857.4173      -2205.348          32.000  
 16 10  2  8  6  3.9920000  0  9G26G21G16G20G27G29G18G 5G31
  18194513.027    95612804.536        1062.281          34.000  
  18857521.460    99096959.752         908.786          33.000  
  18666795.338    98094659.0823       3017.764          33.000  
  19877767.879   104458356.241        1724.542          31.000  
  20569046.961   108091076.885        4284.149          31.000  
  20667397.795   108607896.477       -1731.543          30.000  
  21140864.410   111095996.716        4105.512          29.000  
  22319407.510   117289283.9082      -1105.486          33.000  
  22000435.144   115613061.6712      -2204.851          27.000  
 16 10  2  8  6  4.9920000  0  9G26G21G16G20G27G29G18G 5G31
  18194311.051    95611742.366        1062.085          33.000  
  18857348.493    99096050.589         908.239          33.000  
  18666222.127    98091642.5032       3016.603          33.000  
  19877439.731   104456631.822        1723.653          32.000  
  20568228.769   108086793.538        4283.701          30.000  
  20667725.516   108609627.575       -1732.971          28.000  
  21140085.198   111091891.298        4104.056          31.000  
  22319618.870   117290389.2442      -1105.567          31.000  
  22000851.320   115615266.1952      -2205.095          32.000  
 16 10  2  8  6  5.9920000  0  9G26G21G16G20G27G29G18G 5G31
  18194109.095    95610680.835        1060.379          33.000  
  18857175.645    99095141.844         907.203          29.000  
  18665649.974    98088625.9182       3015.502          32.000  
  19877111.531   104454908.005        1722.036          31.000  
  20567423.891                        4283.299          21.000  
  20668054.123   108611358.641       -1733.068          27.000  
  21139305.992   111087786.818        4102.949          32.000  
  22319830.625                       -1103.476          24.000  
  22001272.475   115617471.5942      -2207.175          34.000  
 16 10  2  8  6  6.9920000  0  9G26G21G16G20G27G29G18G 5G31
  18193907.124    95609619.938        1060.151          35.000  
  18857001.774    99094234.330         907.305          30.000  
  18665073.521    98085622.9243       3016.037          38.000  
  19876780.530   104453186.063        1720.649          30.000  
  20566595.843                        4284.361          36.000  
  20668382.662   108613091.532       -1734.033          28.000  
  21138526.005   111083684.545        4101.591          32.000  
  22320042.206                       -1109.370          30.000  
  22001693.230   115619677.2292      -2207.169          26.000  
 16 10  2  8  6  7.9920000  0  9G26G21G16G20G27G29G18G 5G31
  18193705.206    95608560.131        1059.508          36.000  
  18856829.989    99093327.637         906.273          31.000  
  18664501.493    98082606.8962       3016.061          36.000  
  19876457.531   104451464.895        1721.113          29.000  
  20565787.909   108073944.5893       4282.549          35.000  
  20668714.534   108614824.478       -1732.205          28.000  
  21137742.434   111079582.657        4100.843          31.000  
  22320251.883                       -1100.781          29.000  
  22002117.555                       -2212.312          23.000  
 16 10  2  8  6  8.9920000  0  9G26G21G16G20G27G29G18G 5G31
  18193503.760    95607501.227        1058.984          36.000  
  18856653.730                         932.680          30.000  
  18663925.406    98079591.4072       3015.274          36.000  
  19876127.940   104449743.713        1720.775          30.000  
  20564972.346   108069661.3202       4283.808          34.000  
  20669041.392   108616556.707       -1731.348          28.000  
  21136961.776   111075481.321        4100.575          31.000  
  22320460.610                       -1106.492          22.000  
  22002535.750                       -2208.153          21.000  
 16 10  2  8  6  9.9920000  0  9G26G21G16G20G27G29G18G 5G31
  18193302.173    95606442.847        1058.015          36.000  
  18856485.082                         904.772          26.000  
  18663352.246    98076576.4852       3014.287          36.000  
  19875800.367   104448023.032        1719.721          33.000  
  20564158.392   108065378.5712       4282.862          34.000  
  20669375.927   108618289.161       -1732.246          32.000  
  21136185.124   111071380.020        4100.624          30.000  
  22320675.983                       -1108.429          24.000  
  22002950.356                       -2206.085          19.000  
 16 10  2  8  6 10.9920000  0  8G26G21G16G20G27G29G18G31
  18193100.894    95605384.939        1058.510          36.000  
  18856311.215                         905.124          25.000  
  18662777.077    98073561.8222       3015.335          35.000  
  19875473.943   104446302.692        1720.219          32.000  
  20563344.302   108061095.7762       4283.342          35.000  
  20669705.601   108620021.450       -1732.888          31.000  
  21135400.074   111067279.037        4101.454          25.000  
  22003370.480                       -2199.686          18.000  
 16 10  2  8  6 11.9920000  0  8G26G21G16G20G27G29G18G31
  18192899.575    95604327.736        1056.658          35.000  
  18856137.681    99089686.0063        905.000          32.000  
  18662205.107    98070547.7312       3013.710          34.000  
  19875145.171   104444583.272        1719.327          32.000  
  20562525.851   108056813.0572       4282.798          34.000  
  20670032.383   108621754.096       -1733.212          31.000  
  21134624.922                        4106.061          25.000  
  22003792.597                       -2206.057          22.000  
 16 10  2  8  6 12.9920000  0  8G26G21G16G20G27G29G18G31
  18192698.648    95603271.173        1056.334          35.000  
  18855967.777    99088781.1222        905.542          33.000  
  18661632.217    98067534.1732       3014.053          36.000  
  19874819.389   104442864.546        1718.345          32.000  
  20561711.441   108052530.6732       4283.034          35.000  
  20670363.425   108623486.808       -1732.717          31.000  
  21133840.644                        4101.715          24.000  
  22004213.647                       -2210.223          22.000  
 16 10  2  8  6 13.9920000  0  8G26G21G16G20G27G29G18G31
  18192497.576    95602214.992        1056.231          35.000  
  18855796.340    99087876.6152        905.359          33.000  
  18661059.115    98064520.8952       3012.592          35.000  
  19874491.502   104441146.293        1719.071          32.000  
  20560896.808   108048248.1572       4281.262          36.000  
  20670690.558   108625219.553       -1731.867          31.000  
  21133062.371                        4101.178          30.000  
  22004635.714                       -2215.011          22.000  
 16 10  2  8  6 14.9920000  0  8G26G21G16G20G27G29G18G31
  18192296.824    95601159.440        1054.353          35.000  
  18855626.333    99086972.7772        903.056          34.000  
  18660485.753    98061508.1632       3012.717          34.000  
  19874162.651   104439429.081        1715.994          32.000  
  20560082.129   108043965.7702       4281.004          35.000  
  20671026.212   108626952.697       -1732.456          31.000  
  21132278.439   111050891.4243       4098.414          29.000  
  22005054.291                       -2207.348          23.000  
 16 10  2  8  6 15.9920000  0  8G26G21G16G20G27G29G18G31
  18192096.299    95600104.517        1054.426          36.000  
  18855452.955    99086069.2312        902.921          34.000  
  18659912.697    98058495.9172       3011.807          35.000  
  19873838.464   104437712.159        1716.643          32.000  
  20559267.502   108039683.6672       4281.830          34.000  
  20671357.048   108628685.867       -1733.749          31.000  
  21131497.136   111046791.5482       4100.235          29.000  
  22005475.181                       -2202.255          20.000  
 16 10  2  8  6 16.9920000  0  8G26G21G16G20G27G29G18G31
  18191895.585    95599050.167        1053.479          36.000  
  18855281.309    99085166.1362        902.013          34.000  
  18659339.574    98055484.2002       3010.443          34.000  
  19873513.856   104435995.782        1715.604          32.000  
  20558452.999   108035401.8212       4281.748          35.000  
  20671682.554   108630418.965       -1734.503          31.000  
  21130721.312   111042691.7812       4099.537          28.000  
  22005896.695                       -2204.009          20.000  
 16 10  2  8  6 17.9920000  0  8G26G21G16G20G27G29G18G31
  18191694.985    95597996.694        1052.766          36.000  
  18855108.208    99084263.6852        902.042          34.000  
  18658766.694    98052473.2662       3010.177          34.000  
  19873182.895   104434280.421        1715.108          32.000  
  20557638.535   108031120.4162       4281.538          34.000  
  20672013.011   108632152.443       -1734.345          32.000  
  21129938.119   111038592.2622       4099.987          31.000  
  22006315.195                       -2210.780          19.000  
 16 10  2  8  6 18.9920000  0  7G26G21G16G20G27G29G18
  18191494.742    95596944.091        1051.848          37.000  
  18854937.107    99083362.002         900.602          33.000  
  18658194.015    98049463.055        3010.193          34.000  
  19872857.430   104432565.835        1713.879          32.000  
  20556824.053   108026839.0221       4281.098          34.000  
  20672343.596   108633886.304       -1734.963          31.000  
  21129159.624   111034493.4152       4098.368          30.000  
 16 10  2  8  6 19.9920000  0  8G26G21G16G20G27G29G18G31
  18191294.923    95595892.215        1051.559          34.000  
  18854765.891    99082460.965         900.517          32.000  
  18657621.264    98046453.323        3009.193          33.000  
  19872531.078   104430852.353        1712.387          31.000  
  20556009.367   108022558.109        4280.564          33.000  
  20672674.482   108635620.662       -1734.590          31.000  
  21128386.523                        4098.043          29.000  
  22007155.355                       -2210.773          22.000  
 16 10  2  8  6 20.9920000  0  8G26G21G16G20G27G29G18G31
  18191094.676    95594840.838        1051.374          36.000  
  18854594.548    99081560.132         901.572          33.000  
  18657048.620    98043444.059        3009.025          34.000  
  19872208.984   104429139.110        1713.022          32.000  
  20555194.996   108018277.465        4280.681          34.000  
  20673003.739   108637354.839       -1734.132          32.000  
  21127607.435   111026321.9393       4098.656          29.000  
  22007576.079                       -2204.855          22.000  
 16 10  2  8  6 21.9920000  0  8G26G21G16G20G27G29G18G31
  18190894.834    95593789.857        1051.286          37.000  
  18854422.958    99080659.774         901.106          33.000  
  18656476.197    98040435.217        3008.920          34.000  
  19871882.655   104427426.626        1713.239          33.000  
  20554380.699   108013996.737        4281.233          35.000  
  20673335.416   108639089.177       -1733.339          33.000  
  21126823.355   111022223.6962       4098.118          29.000  
  22007996.132                       -2208.068          22.000  
 16 10  2  8  6 22.9920000  0  9G26G21G16G20G27G29G18G 5G31
  18190694.947    95592739.707        1050.443          38.000  
  18854251.535    99079760.058         899.080          33.000  
  18655904.411    98037427.156        3008.612          33.000  
  19871555.969   104425715.034        1711.126          34.000  
  20553565.970   108009716.435        4281.343          34.000  
  20673662.833   108640823.929       -1735.104          34.000  
  21126037.979   111018125.6552       4098.164          29.000  
  22323418.780                       -1112.047          25.000  
  22008417.758                       -2203.444          22.000  
 16 10  2  8  6 23.9920000  0  8G26G21G16G20G27G29G18G31
  18190495.213    95591689.759        1049.146          38.000  
  18854080.233    99078860.635         899.338          33.000  
  18655328.729    98034418.999        3007.943          33.000  
  19871231.649   104424004.307        1711.282          33.000  
  20552751.326   108005435.620        4279.422          34.000  
  20673993.478   108642559.034       -1734.400          34.000  
  21125259.651   111014027.8632       4097.553          29.000  
  22008838.978                       -2207.348          23.000  
 16 10  2  8  6 24.9920000  0  8G26G21G16G20G27G29G18G31
  18190295.627    95590640.413        1048.729          38.000  
  18853909.192    99077961.580         898.899          34.000  
  18654757.488    98031411.354        3007.162          34.000  
  19870905.503   104422294.027        1709.553          32.000  
  20551936.838   108001155.038        4279.756          34.000  
  20674323.530   108644294.052       -1734.921          34.000  
  21124480.812   111009930.2392       4097.831          29.000  
  22009260.031                       -2201.233          23.000  
 16 10  2  8  6 25.9920000  0  8G26G21G16G20G27G29G18G31
  18190096.220    95589592.031        1048.075          38.000  
  18853738.471    99077063.116         898.328          35.000  
  18654185.769    98028404.671        3006.561          34.000  
  19870578.959   104420584.294        1708.867          33.000  
  20551122.580   107996875.264        4280.176          35.000  
  20674653.733   108646029.151       -1736.005          34.000  
  21123700.189   111005832.9642       4096.796          29.000  
  22009682.140                       -2203.113          24.000  
 16 10  2  8  6 26.9920000  0  8G26G21G16G20G27G29G18G31
  18189896.485    95588543.911        1047.453          37.000  
  18853567.504    99076164.848         897.582          35.000  
  18653613.584    98025398.020        3006.226          34.000  
  19870255.426   104418875.062        1708.506          32.000  
  20550308.037   107992595.164        4280.184          34.000  
  20674983.836   108647764.155       -1735.616          33.000  
  21122920.313   111001735.8362       4096.835          29.000  
  22010102.558                       -2219.846          23.000  
 16 10  2  8  6 27.9920000  0  8G26G21G16G20G27G29G18G31
  18189696.766    95587496.481        1047.191          37.000  
  18853396.784    99075267.137         898.170          34.000  
  18653043.008    98022391.874        3006.227          34.000  
  19869930.401   104417166.553        1708.159          33.000  
  20549493.607   107988315.243        4279.648          35.000  
  20675313.926   108649499.404       -1734.327          33.000  
  21122141.718   110997639.0592       4097.153          29.000  
  22010523.295                       -2211.267          22.000  
 16 10  2  8  6 28.9920000  0  8G26G21G16G20G27G29G18G31
  18189497.549    95586449.565        1046.381          37.000  
  18853225.876    99074369.899         897.600          33.000  
  18652472.207    98019386.391        3005.540          35.000  
  19869605.659   104415458.845        1708.298          32.000  
  20548679.277   107984035.495        4279.125          35.000  
  20675644.303   108651234.898       -1734.294          33.000  
  21121359.788   110993542.1672       4095.515          29.000  
  22010943.306                       -2209.630          25.000  
 16 10  2  8  6 29.9920000  0  8G26G21G16G20G27G29G18G31
  18189298.567    95585403.388        1045.475          37.000  
  18853055.338    99073473.298         896.632          33.000  
  18651899.137    98016381.496        3004.521          35.000  
  19869280.805   104413752.092        1705.994          32.000  
  20547864.782   107979756.012        4279.347          34.000  
  20675974.586   108652970.889       -1736.103          33.000  
  21120580.468   110989445.8042       4096.512          29.000  
  22011363.178                       -2208.797          25.000  
 16 10  2  8  6 30.9920000  0  8G26G21G16G20G27G29G18G31
  18189099.515    95584357.774        1045.480          38.000  
  18852884.794    99072576.974         895.825          34.000  
  18651327.317    98013377.090        3005.348          34.000  
  19868955.722   104412045.616        1706.093          32.000  
  20547050.622   107975476.905        4279.875          34.000  
  20676305.031   108654706.723       -1737.072          33.000  
  21119800.501   110985348.8521       4096.568          30.000  
  22011783.272                       -2207.649          25.000  
 16 10  2  8  6 31.9920000  0  8G26G21G16G20G27G29G18G31
  18188900.692    95583312.816        1044.647          38.000  
  18852714.270    99071681.316         894.876          34.000  
  18650755.959    98010373.002        3004.057          34.000  
  19868631.508   104410340.155        1704.191          32.000  
  20546236.306   107971197.556        4279.888          35.000  
  20676635.756   108656442.881       -1735.946          31.000  
  21119025.617   110981253.147        4096.588          30.000  
  22012201.974                       -2209.351          26.000  
 16 10  2  8  6 32.9920000  0  8G26G21G16G20G27G29G18G31
  18188701.743    95582268.224        1043.999          38.000  
  18852543.997    99070786.034         895.643          34.000  
  18650184.490    98007369.322        3003.444          34.000  
  19868307.189   104408635.537        1705.001          32.000  
  20545421.977   107966918.097        4279.742          34.000  
  20676966.343   108658179.570       -1736.664          31.000  
  21118246.310   110977157.408        4096.728          31.000  
  22012621.140                       -2210.055          26.000  
 16 10  2  8  6 33.9920000  0  8G26G21G16G20G27G29G18G31
  18188503.106    95581224.321        1044.214          38.000  
  18852373.942    99069891.317         894.354          35.000  
  18649613.046    98004366.365        3002.837          34.000  
  19867982.981   104406931.705        1703.476          31.000  
  20544607.628   107962639.066        4279.429          34.000  
  20677296.800   108659916.441       -1737.447          31.000  
  21117467.734   110973061.936        4095.233          32.000  
  22013039.594   115679320.3563      -2208.657          26.000  
 16 10  2  8  6 34.9920000  0  8G26G21G16G20G27G29G18G31
  18188304.590    95580181.054        1042.928          37.000  
  18852203.883    99068996.964         893.949          34.000  
  18649041.702    98001363.751        3002.350          34.000  
  19867659.708   104405228.132        1703.577          31.000  
  20543793.251   107958360.266        4278.544          34.000  
  20677627.386   108661653.072       -1736.528          31.000  
  21116684.047   110968966.736        4095.534          31.000  
  22013459.524                       -2209.175          25.000  
 16 10  2  8  6 35.9920000  0  9G26G21G16G20G27G29G18G 5G31
  18188106.259    95579137.925        1042.425          35.000  
  18852033.655    99068102.993         893.109          34.000  
  18648470.287    97998362.150        3000.431          33.000  
  19867334.916   104403526.125        1701.626          36.000  
  20542975.052   107954081.541        4280.621          23.000  
  20677958.178   108663390.652       -1738.859          32.000  
  21115905.334   110964870.042        4095.545          32.000  
  22326178.803                       -1114.522          25.000  
  22013881.649                       -2205.431          30.000  
 16 10  2  8  6 36.9920000  0  9G26G21G16G20G27G29G18G 5G31
  18187907.948    95578095.715        1042.206          36.000  
  18851863.603    99067210.163         892.958          38.000  
  18647899.113    97995360.858        3001.521          36.000  
  19867009.641   104401825.532        1700.684          38.000  
  20542162.752                        4278.528          37.000  
  20678288.934   108665129.200       -1738.382          38.000  
  21115128.115   110960775.147        4095.106          39.000  
  22326390.898   117325975.6443      -1121.438          33.000  
  22014306.462   115685960.7343      -2207.499          32.000  
 16 10  2  8  6 37.9920000  0  9G26G21G16G20G27G29G18G 5G31
  18187709.755    95577053.934        1042.046          37.000  
  18851693.526    99066317.574         892.842          35.000  
  18647328.505    97992360.588        3000.890          33.000  
  19866690.058   104400125.546        1700.960          31.000  
  20541345.099   107945514.8303       4279.809          33.000  
  20678619.635   108666867.730       -1738.614          30.000  
  21114350.995   110956679.014        4095.417          34.000  
  22326599.356                       -1122.484          28.000  
  22014725.032   115688167.5302      -2207.450          27.000  
 16 10  2  8  6 38.9920000  0  9G26G21G16G20G27G29G18G 5G31
  18187511.725    95576013.053        1040.732          37.000  
  18851523.754    99065425.367         891.796          34.000  
  18646757.752    97989361.590        2998.335          35.000  
  19866362.902   104398425.806        1698.440          29.000  
  20540532.887   107941237.5402       4276.742          33.000  
  20678947.315   108668605.896       -1737.685          30.000  
  21113567.086   110952582.507        4096.815          30.000  
  22326814.017   117328194.9352      -1123.925          27.000  
  22015143.738   115690374.7122      -2206.542          26.000  
 16 10  2  8  6 39.9920000  0  9G26G21G16G20G27G29G18G 5G31
  18187314.052    95574972.778        1040.350          37.000  
  18851354.323    99064533.624         892.171          35.000  
  18646187.077    97986363.016        2998.109          34.000  
  19866038.639   104396726.559        1698.257          30.000  
  20539722.555   107936960.2672       4278.148          34.000  
  20679280.178   108670344.179       -1737.959          29.000  
  21112789.290   110948486.509        4095.330          32.000  
  22327029.951   117329318.9062      -1123.876          28.000  
  22015565.255   115692576.1223      -2206.577          27.000  
 16 10  2  8  6 40.9920000  0  9G26G21G16G20G27G29G18G 5G31
  18187116.264    95573933.132        1039.282          38.000  
  18851184.688    99063642.515         890.855          35.000  
  18645616.523    97983364.917        2997.900          34.000  
  19865713.503   104395028.358        1699.027          29.000  
  20538908.167   107932683.1442       4276.532          34.000  
  20679612.461   108672082.948       -1738.130          31.000  
  21112010.079   110944390.642        4095.708          31.000  
  22327243.226   117330443.5802      -1125.386          27.000  
  22015982.989   115694783.3902      -2207.391          33.000  
 16 10  2  8  6 41.9920000  0  9G26G21G16G20G27G29G18G 5G31
  18186918.640    95572894.479        1037.706          38.000  
  18851015.340    99062752.105         890.232          37.000  
  18645046.208    97980367.841        2996.743          35.000  
  19865393.426   104393331.166        1697.328          34.000  
  20538094.542   107928406.6482       4275.758          35.000  
  20679941.339   108673822.022       -1738.922          35.000  
  21111230.805   110940295.261        4095.776          34.000  
  22327454.638   117331569.0842      -1126.463          33.000  
  22016405.229   115696991.0832      -2206.207          32.000  
 16 10  2  8  6 42.9920000  0  9G26G21G16G20G27G29G18G 5G31
  18186721.113    95571856.167        1037.656          38.000  
  18850846.084    99061861.897         889.947          36.000  
  18644476.193    97977370.953        2996.428          35.000  
  19865071.332   104391634.142        1697.353          34.000  
  20537281.830   107924130.1442       4276.264          35.000  
  20680275.026   108675560.939       -1739.380          35.000  
  21110451.386   110936199.987        4094.056          32.000  
  22327670.132   117332694.7282      -1125.868          31.000  
  22016820.019   115699198.6992      -2207.396          30.000  
 16 10  2  8  6 43.9920000  0  9G26G21G16G20G27G29G18G 5G31
  18186523.584    95570818.302        1036.669          38.000  
  18850676.927    99060972.045         888.584          36.000  
  18643906.081    97974374.342        2995.757          35.000  
  19864746.451   104389937.820        1694.733          34.000  
  20536468.618   107919853.5512       4276.184          35.000  
  20680604.727   108677299.884       -1738.987          35.000  
  21109673.070                        4095.785          31.000  
  22327885.229   117333820.5192      -1128.158          31.000  
  22017237.066   115701406.4452      -2208.013          30.000  
 16 10  2  8  6 44.9920000  0  9G26G21G16G20G27G29G18G 5G31
  18186325.982    95569780.988        1036.577          38.000  
  18850507.672    99060082.420         888.669          35.000  
  18643335.679    97971378.350        2995.426          35.000  
  19864426.654   104388241.721        1696.229          37.000  
  20535654.125   107915577.3692       4274.590          36.000  
  20680938.080   108679038.659       -1737.929          37.000  
  21108894.695   110927984.9613       4094.841          31.000  
  22328098.567   117334946.8492      -1126.119          35.000  
  22017660.837   115703613.8282      -2207.384          31.000  
 16 10  2  8  6 45.9920000  0  9G26G21G16G20G27G29G18G 5G31
  18186128.890    95568744.664        1035.619          37.000  
  18850338.794    99059193.493         888.102          34.000  
  18642765.644    97968383.573        2993.222          30.000  
  19864104.654   104386546.343        1694.766          33.000  
  20534840.767   107911302.0592       4275.339          35.000  
  20681266.541   108680777.582       -1740.444          32.000  
  21108112.854   110923889.6652       4095.198          31.000  
  22328314.787   117336073.9352      -1127.442          34.000  
  22018076.868   115705821.8302      -2208.062          30.000  
 16 10  2  8  6 46.9920000  0  9G26G21G16G20G27G29G18G 5G31
  18185931.935    95567708.813        1034.761          35.000  
  18850169.590    99058305.000         887.671          33.000  
  18642195.910    97965389.304        2993.823          33.000  
  19863781.889   104384851.938        1694.115          35.000  
  20534027.049   107907026.9362       4274.839          34.000  
  20681596.088   108682516.946       -1740.069          32.000  
  21107333.791   110919794.4662       4094.277          32.000  
  22328528.631   117337202.3152      -1128.043          34.000  
  22018504.097   115708029.3202      -2207.972          30.000  
 16 10  2  8  6 47.9920000  0  9G26G21G16G20G27G29G18G 5G31
  18185734.936    95566674.183        1034.178          35.000  
  18850000.792    99057417.460         886.959          33.000  
  18641626.146    97962396.069        2992.404          33.000  
  19863456.901   104383158.444        1693.149          33.000  
  20533213.527   107902752.6562       4274.723          33.000  
  20681928.466   108684256.637       -1740.483          32.000  
  21106554.615   110915700.0652       4094.148          32.000  
  22328742.521   117338331.1062      -1128.703          34.000  
  22018921.192   115710237.8642      -2209.829          30.000  
