     2.10           OBSERVATION DATA    M (MIXED)           RINEX VERSION / TYPE
RTKCONV-QT 2.4.3 b15                    20161002 105240 UTC PGM / RUN BY / DATE 
log: /home/max/rtklib_logs/rover_201610020814_inner.ubx     COMMENT             
format: u-blox                                              COMMENT             
                                                            MARKER NAME         
                                                            MARKER NUMBER       
                                                            OBSERVER / AGENCY   
                                                            REC # / TYPE / VERS 
                                                            ANT # / TYPE        
  3902471.0963   520395.4570  5001278.6778                  APPROX POSITION XYZ 
        0.0000        0.0000        0.0000                  ANTENNA: DELTA H/E/N
     1     1                                                WAVELENGTH FACT L1/2
     4    C1    L1    D1    S1                              # / TYPES OF OBSERV 
  2016    10     2     8    14   48.9920000     GPS         TIME OF FIRST OBS   
  2016    10     2     8    23    4.9910000     GPS         TIME OF LAST OBS    
                                                            END OF HEADER       
 16 10  2  8 14 48.9920000  0  8G26G21G16S20G27G18G31G 7
  18104464.018    95139564.1691        745.587          43.000  
  18778817.700    98683351.499         673.602          41.000  
  18378916.802    96581863.7591       2747.662          40.000  
  36312023.973   190820967.504        1370.850          38.000  
  20145997.802   105867924.3731       4188.897          30.000  
  20737348.694   108975508.758        3975.286          38.000  
  22222457.749   116779785.0192      -2228.341          29.000  
  23123823.776   121516505.453        4201.852          36.000  
 16 10  2  8 14 49.9920000  0  9G26G21G16S20G27G18G31G 7G10
  18104321.822    95138818.697         745.239          42.000  
  18778689.552    98682677.664         673.362          41.000  
  18378393.732    96579116.034        2747.046          39.000  
  36311762.932   190819596.501        1371.228          37.000  
  20145200.808   105863735.922        4188.348          30.000  
  20736591.899   108971532.992        3975.406          37.000  
  22222880.638   116782013.5602      -2228.391          28.000  
  23123024.375   121512303.398        4201.930          36.000  
  22990664.626                        4990.151          29.000  
 16 10  2  8 14 50.9920000  0  9G26G21G16S20G27G18G31G 7G10
  18104180.262    95138073.957         743.999          42.000  
  18778561.786    98682004.381         672.626          41.000  
  18377870.605    96576368.911        2746.759          39.000  
  36311501.674   190818225.630        1370.764          37.000  
  20144404.239   105859547.907        4186.995          31.000  
  20735835.038   108967557.606        3975.015          37.000  
  22223306.095   116784242.2692      -2228.690          28.000  
  23122224.769   121508101.863        4200.762          35.000  
  22989714.817   120811767.7712       4991.332          29.000  
 16 10  2  8 14 51.9920000  0  9G26G21G16S20G27G18G31G 7G10
  18104039.017    95137329.636         744.324          43.000  
  18778433.646    98681331.350         672.874          41.000  
  18377347.924    96573622.223        2746.814          39.000  
  36311240.643   190816854.428        1371.295          34.000  
  20143607.084   105855359.728        4188.376          33.000  
  20735078.321   108963582.327        3975.413          37.000  
  22223731.430   116786470.7202      -2228.111          28.000  
  23121425.316   121503900.470        4201.319          36.000  
  22988767.631   120806777.5132       4990.763          29.000  
 16 10  2  8 14 52.9920000  0  8G26G21G16S20G27G18G 7G10
  18103897.116    95136585.827         743.718          43.000  
  18778305.835    98680658.679         672.380          41.000  
  18376825.216    96570875.952        2745.959          39.000  
  36310979.514   190815483.191        1371.417          34.000  
  20142810.596   105851171.716        4187.742          33.000  
  20734322.045   108959607.222        3975.261          38.000  
  23120625.949   121499699.270        4201.564          36.000  
  22987819.794   120801787.0082       4990.848          29.000  
 16 10  2  8 14 53.9920000  0  8G26G21G16S20G27G18G 7G10
  18103755.977    95135842.549         742.650          42.000  
  18778177.693    98679986.412         671.601          42.000  
  18376302.474    96568130.075        2745.343          39.000  
  36310718.754   190814111.916        1371.271          35.000  
  20142013.743   105846983.856        4187.586          31.000  
  20733565.624   108955632.281        3974.703          37.000  
  23119826.855   121495498.363        4200.084          36.000  
  22986868.134   120796796.2922       4990.002          29.000  
 16 10  2  8 14 54.9920000  0  8G26G21G16S20G27G18G 7G10
  18103614.741    95135100.319         741.617          43.000  
  18778050.238    98679314.959         670.988          42.000  
  18375779.975    96565385.214        2744.543          40.000  
  36310458.276   190812740.984        1370.947          35.000  
  20141217.101   105842796.630        4186.422          30.000  
  20732809.611   108951658.064        3973.964          38.000  
  23119028.023   121491298.173        4199.978          37.000  
  22985917.018   120791805.9202       4990.967          30.000  
 16 10  2  8 14 55.9920000  0  9G26G21G16S20G27G18G31G 7G10
  18103473.468    95134358.810         741.284          42.000  
  18777922.458    98678644.105         670.621          42.000  
  18375257.404    96562641.013        2743.933          39.000  
  36310197.314   190811370.286        1370.367          35.000  
  20140420.463   105838609.735        4186.638          29.000  
  20732053.646   108947684.266        3973.407          38.000  
  22225427.719   116795410.4933      -2229.772          28.000  
  23118229.130   121487098.506        4199.292          37.000  
  22984967.982   120786815.6512       4989.572          30.000  
 16 10  2  8 14 56.9920000  0  8G26G21G16S20G27G18G 7G10
  18103332.413    95133618.166         739.969          42.000  
  18777794.950    98677973.931         669.564          41.000  
  18374735.418    96559897.572        2742.883          39.000  
  36309936.412   190809999.844        1369.745          36.000  
  20139622.201   105834423.233        4186.520          28.000  
  20731297.310   108943710.959        3972.748          38.000  
  23117430.322   121482899.348        4198.836          37.000  
  22984017.871   120781825.5212       4989.647          29.000  
 16 10  2  8 14 57.9920000  0  8G26G21G16S20G27G18G 7G10
  18103191.320    95132878.118         739.747          42.000  
  18777667.521    98677304.209         669.099          41.000  
  18374213.072    96557154.710        2742.157          39.000  
  36309675.507   190808629.466        1370.697          36.000  
  20138822.840   105830236.935        4185.967          28.000  
  20730541.165   108939737.953        3972.285          38.000  
  23116631.502   121478700.579        4198.537          37.000  
  22983066.713   120776835.2582       4990.274          29.000  
 16 10  2  8 14 58.9920000  0  8G26G21G16S20G27G18G 7G10
  18103050.563    95132138.449         739.452          41.000  
  18777539.616    98676634.688         669.013          41.000  
  18373690.882    96554412.116        2742.285          39.000  
  36309414.707   190807258.778        1370.636          36.000  
  20138029.002   105826050.576        4186.576          28.000  
  20729785.166   108935764.944        3972.620          38.000  
  23115832.647   121474501.931        4198.112          37.000  
  22982115.616   120771844.7042       4990.497          29.000  
 16 10  2  8 14 59.9920000  0  9G26G21G16S20G27G18G31G 7G10
  18102910.421    95131399.422         739.083          42.000  
  18777412.863    98675965.613         669.292          41.000  
  18373169.138    96551670.097        2742.078          39.000  
  36309153.852   190805887.937        1370.673          36.000  
  20137233.740   105821864.513        4185.947          27.000  
  20729029.467   108931792.270        3972.569          38.000  
  22227122.021   116804314.0642      -2228.582          28.000  
  23115033.648   121470303.589        4198.500          36.000  
  22981166.467   120766854.1172       4990.583          29.000  
 16 10  2  8 15  0.9920000  0  8G26G21G16S20G27G18G 7G10
  18102769.775    95130660.950         737.856          40.000  
  18777285.701    98675296.912         668.755          40.000  
  18372647.376    96548928.524        2741.589          37.000  
  36308893.042   190804516.956        1371.057          34.000  
  20136435.321   105817678.603        4185.284          26.000  
  20728273.511   108927819.736        3972.827          36.000  
  23114234.908   121466105.529        4198.100          34.000  
  22980215.522   120761862.8031       4990.978          27.000  
 16 10  2  8 15  1.9920000  0  8G26G21G16S20G27G18G 7G10
  18102628.971    95129923.096         737.809          40.000  
  18777158.606    98674628.728         668.162          40.000  
  18372125.574    96546187.568        2741.394          37.000  
  36308632.267   190803146.236        1371.185          34.000  
  20135636.625   105813492.864        4185.644          25.000  
  20727517.642   108923847.582        3972.168          35.000  
  23113436.045   121461907.893        4197.420          34.000  
  22979264.067   120756872.058        4990.614          27.000  
 16 10  2  8 15  2.9920000  0  8G26G21G16S20G27G18G 7G10
  18102488.745    95129185.900         736.832          40.000  
  18777031.092    98673961.002         667.435          40.000  
  18371604.089    96543447.164        2740.173          37.000  
  36308371.335   190801775.723        1370.270          34.000  
  20134835.725   105809307.366        4185.568          24.000  
  20726761.861   108919875.706        3971.812          36.000  
  23112637.330   121457710.583        4196.875          34.000  
  22978312.441   120751881.148        4991.500          26.000  
 16 10  2  8 15  3.9920000  0  8G26G21G16S20G27G18G 7G10
  18102348.534    95128449.264         736.092          40.000  
  18776904.293    98673293.633         666.844          40.000  
  18371082.922    96540707.206        2739.435          38.000  
  36308110.376   190800405.049        1370.288          35.000  
  20134037.555   105805122.144        4184.598          25.000  
  20726005.856   108915904.028        3971.427          36.000  
  23111838.848   121453513.562        4196.434          36.000  
  22977363.585   120746890.166        4990.836          27.000  
 16 10  2  8 15  4.9920000  0  8G26G21G16S20G27G18G 7G10
  18102208.375    95127713.644         735.057          40.000  
  18776777.576    98672627.169         665.921          41.000  
  18370562.098    96537968.293        2738.391          38.000  
  36307849.298   190799034.719        1370.062          34.000  
  20133241.808   105800937.283        4184.133          27.000  
  20725250.109   108911933.113        3970.813          36.000  
  23111040.622   121449317.356        4195.485          36.000  
  22976411.709   120741899.531        4990.991          26.000  
 16 10  2  8 15  5.9920000  0  9G26G21G16S20G27G18G31G 7G10
  18102068.644    95126978.630         734.479          40.000  
  18776651.036    98671961.089         665.292          41.000  
  18370040.861    96535229.850        2737.738          39.000  
  36307588.600   190797664.291        1369.806          35.000  
  20132452.076   105796752.875        4184.337          36.000  
  20724494.601   108907962.396        3970.369          38.000  
  22229666.647   116817686.5892      -2228.507          28.000  
  23110242.138   121445121.398        4195.661          37.000  
  22975461.935   120736908.744        4991.181          27.000  
 16 10  2  8 15  6.9920000  0  9G26G21G16S20G27G18G31G 7G10
  18101928.825    95126243.858         734.320          42.000  
  18776523.662    98671295.100         665.743          41.000  
  18369519.778    96532491.598        2737.585          40.000  
  36307327.732   190796293.542        1370.898          35.000  
  20131657.662   105792568.053        4184.820          38.000  
  20723739.358   108903991.599        3970.659          39.000  
  22230090.524   116819915.4041      -2229.067          28.000  
  23109443.621   121440925.332        4196.105          36.000  
  22974516.216   120731917.531        4991.692          29.000  
 16 10  2  8 15  7.9920000  0  9G26G21G16S20G27G18G31G 7G10
  18101789.185    95125509.871         733.724          41.000  
  18776397.272    98670629.754         664.976          41.000  
  18368998.998    96529754.013        2736.932          40.000  
  36307067.113   190794922.802        1370.740          36.000  
  20130857.574   105788383.901        4183.145          32.000  
  20722984.480   108900021.281        3969.861          38.000  
  22230513.523   116822144.894       -2229.931          28.000  
  23108645.186   121436729.977        4194.854          36.000  
  22973566.801   120726926.462        4991.418          28.000  
 16 10  2  8 15  8.9920000  0  9G26G21G16S20G27G18G31G 7G10
  18101649.449    95124776.466         732.891          41.000  
  18776270.726    98669964.808         664.608          41.000  
  18368478.302    96527016.964        2736.359          40.000  
  36306806.118   190793552.144        1370.764          37.000  
  20130061.406   105784199.680        4183.542          31.000  
  20722229.156   108896051.169        3969.255          38.000  
  22230937.999   116824374.299       -2229.921          28.000  
  23107846.988   121432534.827        4194.950          37.000  
  22972615.050   120721935.239        4991.627          28.000  
 16 10  2  8 15  9.9920000  0  9G26G21G16S20G27G18G31G 7G10
  18101509.929    95124043.800         732.181          41.000  
  18776144.404    98669300.426         663.866          41.000  
  18367957.339    96524280.585        2735.834          40.000  
  36306545.269   190792181.708        1370.611          37.000  
  20129264.585                        4184.677          31.000  
  20721473.702   108892081.428        3969.767          38.000  
  22231365.198   116826603.822       -2229.313          28.000  
  23107048.730   121428340.155        4194.502          37.000  
  22971665.515   120716944.059        4991.580          28.000  
 16 10  2  8 15 10.9920000  0  9G26G21G16S20G27G18G31G 7G10
  18101370.289    95123311.832         731.370          41.000  
  18776017.967    98668636.591         663.411          41.000  
  18367436.687    96521544.864        2734.955          40.000  
  36306284.423   190790811.337        1370.087          37.000  
  20128469.302   105775815.8003       4183.106          32.000  
  20720718.425   108888112.118        3969.037          38.000  
  22231789.354   116828833.567       -2230.244          28.000  
  23106250.879   121424145.936        4193.724          37.000  
  22970714.571   120711952.957        4990.654          28.000  
 16 10  2  8 15 11.9920000  0  9G26G21G16S20G27G18G31G 7G10
  18101230.998    95122580.287         731.761          41.000  
  18775891.604    98667973.025         663.592          41.000  
  18366916.334    96518809.460        2735.608          41.000  
  36306023.465   190789440.625        1370.807          37.000  
  20127675.226   105771632.2722       4183.246          32.000  
  20719963.279   108884142.862        3969.588          38.000  
  22232212.683   116831063.059       -2229.136          28.000  
  23105452.478   121419951.852        4194.344          37.000  
  22969767.331   120706961.493        4991.770          27.000  
 16 10  2  8 15 12.9920000  0  9G26G21G16S20G27G18G31G 7G10
  18101091.775    95121849.083         730.753          41.000  
  18775765.139    98667309.588         663.014          40.000  
  18366396.483    96516074.339        2734.808          41.000  
  36305762.774   190788069.795        1370.587          37.000  
  20126878.897   105767448.6942       4183.158          32.000  
  20719207.905   108880173.600        3969.160          38.000  
  22232637.323   116833292.286       -2229.067          28.000  
  23104654.185   121415757.807        4194.264          37.000  
  22968813.027   120701969.684        4992.012          28.000  
 16 10  2  8 15 13.9920000  0  9G26G21G16S20G27G18G31G 7G10
  18100952.536    95121118.706         729.771          41.000  
  18775638.525    98666646.830         662.225          40.000  
  18365876.206    96513339.949        2734.039          41.000  
  36305501.638   190786699.283        1370.331          37.000  
  20126082.642   105763265.5272       4182.354          31.000  
  20718452.441   108876204.848        3968.145          38.000  
  22233061.153   116835521.805       -2229.651          28.000  
  23103856.170   121411564.280        4193.296          35.000  
  22967862.467   120696978.017        4991.473          28.000  
 16 10  2  8 15 14.9920000  0  8G26G21G16S20G27G18G 7G10
  18100813.550    95120388.909         729.501          41.000  
  18775512.823    98665984.483         662.397          40.000  
  18365356.235    96510606.112        2733.832          41.000  
  36305240.596   190785328.521        1370.837          37.000  
  20125286.585   105759082.5642       4182.666          31.000  
  20717697.398   108872236.316        3968.417          38.000  
  23103058.302   121407371.193        4193.101          38.000  
  22966913.849   120691986.184        4992.704          27.000  
 16 10  2  8 15 15.9920000  0  9G26G21G16S20G27G20G18G 7G10
  18100674.784    95119659.507         729.208          41.000  
  18775386.577    98665322.382         661.757          40.000  
  18364836.222    96507872.582        2733.228          41.000  
  36304979.911   190783957.589        1371.069          37.000  
  20124488.046   105754899.5122       4182.828          30.000  
  19716243.236                        1362.922          22.000  
  20716942.378   108868267.855        3968.299          38.000  
  23102260.233   121403178.143        4193.099          38.000  
  22965965.207   120686994.213        4991.975          28.000  
 16 10  2  8 15 16.9920000  0  9G26G21G16S20G27G20G18G 7G10
  18100535.911    95118930.584         728.076          41.000  
  18775260.369    98664660.555         661.461          40.000  
  18364316.196    96505139.430        2733.057          41.000  
  36304719.058   190782586.517        1370.831          37.000  
  20123687.820   105750716.5432       4182.889          30.000  
  19715988.444                        1362.922          23.000  
  20716187.295   108864299.541        3967.953          38.000  
  23101462.860   121398985.294        4192.732          38.000  
  22965015.906   120682001.906        4992.140          28.000  
 16 10  2  8 15 17.9920000  0  8G26G21G16S20G27G18G 7G10
  18100397.384    95118202.196         728.174          42.000  
  18775134.123    98663999.123         661.284          40.000  
  18363796.217    96502406.804        2732.318          41.000  
  36304458.156   190781215.508        1370.886          38.000  
  20122885.326   105746533.7792       4182.453          30.000  
  20715432.566   108860331.442        3967.998          38.000  
  23100665.082   121394792.757        4192.434          38.000  
  22964068.783   120677009.484        4992.487          28.000  
 16 10  2  8 15 18.9920000  0  8G26G21G16S20G27G18G 7G10
  18100258.898    95117474.405         727.797          41.000  
  18775008.536    98663338.133         660.462          41.000  
  18363276.319    96499674.689        2731.812          40.000  
  36304197.341   190779844.560        1371.686          35.000  
  20122090.583   105742350.5671       4184.785          29.000  
  20714677.610   108856363.614        3967.583          39.000  
  23099867.432   121390600.549        4191.817          37.000  
  22963122.486   120672016.939        4992.458          28.000  
 16 10  2  8 15 19.9920000  0  6G26G21G16G27G18G 7
  18100121.034    95116747.464         726.365          36.000  
  18774882.345    98662677.643         660.256          37.000  
  18362756.442    96496943.101        2731.262          36.000  
  20121298.980   105738168.132        4183.079          29.000  
  20713922.771   108852396.238        3967.321          37.000  
  23099069.648   121386408.709        4192.281          37.000  
 16 10  2  8 15 20.9920000  0  5G21G16G27G18G 7
  18774757.266    98662017.311         660.379          35.000  
  18362235.498    96494210.502        2730.627          33.000  
  20120511.030                        4180.026          32.000  
  20713167.942   108848429.863        3967.601          31.000  
  23098274.398   121382215.792        4190.654          25.000  
 16 10  2  8 15 21.9920000  0  7G26G21G16G27G18G31G 7
  18099844.515    95115324.8393        725.572          40.000  
  18774631.980    98661357.203         659.948          41.000  
  18361717.162    96491480.288        2729.126          43.000  
  20119720.533   105729817.1493       4179.148          31.000  
  20712412.993   108844461.887        3974.147          29.000  
  22236456.074                       -2230.750          19.000  
  23097471.115   121378029.7853       4190.535          34.000  
 16 10  2  8 15 22.9920000  0  5G26G21G16G27G18
  18099707.013    95114598.4522        726.853          31.000  
  18774505.938    98660696.947         660.751          36.000  
  18361196.758    96488749.481        2731.585          28.000  
  20118926.813   105725673.6703       4182.204          27.000  
  20711654.526   108840478.1633       3966.700          34.000  
 16 10  2  8 15 23.9920000  0  8G26G21G16G27G18G 7G29G10
  18099569.826    95113873.3952        725.353          38.000  
  18774380.481    98660037.851         659.769          35.000  
  18360673.752    96486019.655        2729.724          34.000  
  20118133.393   105721491.8912       4181.907          33.000  
  20710899.761   108836511.3712       3966.709          41.000  
  23095877.315                        4195.383          23.000  
  20856319.900                       -1801.908          19.000  
  22958369.307                        4993.480          31.000  
 16 10  2  8 15 24.9920000  0  9G26G21G16G27G18G 5G 7G29G10
  18099431.738    95113148.6432        724.398          37.000  
  18774255.249    98659378.922         658.272          38.000  
  18360156.545    96483290.279        2728.619          34.000  
  20117337.873   105717310.0812       4181.671          28.000  
  20710144.381   108832544.5402       3965.948          39.000  
  22451358.688                       -1357.445          21.000  
  23095073.664                        4186.211          23.000  
  20856672.506                       -1801.908          20.000  
  22957418.623   120642048.3023       4993.651          30.000  
 16 10  2  8 15 25.9920000  0  9G26G21G16G27G18G 5G 7G29G10
  18099294.486    95112425.2122        722.448          34.000  
  18774130.085    98658720.994         657.306          37.000  
  18359635.515    96480562.040        2727.618          33.000  
  20116546.930                        4180.271          25.000  
  20709391.074   108828578.5682       3965.345          36.000  
  22451621.791                       -1357.445          19.000  
  23094273.369                        4191.034          23.000  
  20857030.402                       -1801.908          23.000  
  22956468.341   120637055.1772       4993.087          28.000  
 16 10  2  8 15 26.9920000  0  8G26G21G16G27G18G 7G29G10
  18099156.189    95111702.4582        722.044          37.000  
  18774004.919    98658063.670         656.689          39.000  
  18359121.727    96477834.454        2726.953          34.000  
  20115744.142   105708948.1493       4180.589          32.000  
  20708635.159   108824613.0022       3964.965          39.000  
  23093479.928                        4177.176          25.000  
  20857367.472                       -1801.908          26.000  
  22955515.361   120632062.1952       4992.667          28.000  
 16 10  2  8 15 27.9920000  0  8G26G21G16G27G18G 7G29G10
  18099019.088    95110980.5902        721.185          38.000  
  18773879.749    98657407.000         655.897          39.000  
  18358602.073    96475107.539        2726.709          33.000  
  20114950.199   105704767.6832       4180.521          31.000  
  20707880.428   108820648.0492       3964.263          39.000  
  23092684.520                        4187.675          26.000  
  20857705.176                       -1806.670          27.000  
  22954561.552   120627069.3942       4992.574          28.000  
 16 10  2  8 15 28.9920000  0  8G26G21G16G27G18G 7G29G10
  18098881.649    95110259.4772        720.646          38.000  
  18773754.728    98656750.977         655.665          40.000  
  18358082.410    96472381.404        2725.805          36.000  
  20114150.660   105700587.6952       4179.354          33.000  
  20707127.094   108816683.5172       3963.926          40.000  
  23091895.324   121348728.2163       4189.146          28.000  
  20858048.223   109609783.0432      -1806.427          29.000  
  22953611.076   120622076.6182       4992.165          30.000  
 16 10  2  8 15 29.9920000  0  8G26G21G16G27G18G 7G29G10
  18098744.420    95109539.1062        720.515          38.000  
  18773629.798    98656095.530         655.365          41.000  
  18357564.192    96469655.924        2725.458          36.000  
  20113356.896   105696408.0162       4179.395          35.000  
  20706372.911   108812719.3812       3964.287          42.000  
  23091103.648   121344540.6852       4186.714          28.000  
  20858396.674   109611590.6542      -1806.550          30.000  
  22952660.912   120617083.8912       4992.957          31.000  
 16 10  2  8 15 30.9920000  0  7G26G21G16G27G18G 7G29
  18098607.823    95108819.854         719.390          37.000  
  18773505.562    98655441.044         653.917          37.000  
  18357045.277    96466931.363        2725.287          36.000  
  20112564.524                        4177.766          26.000  
  20705618.548   108808756.419        3962.019          38.000  
  23090306.153                        4187.535          26.000  
  20858735.225   109613399.4582      -1810.644          29.000  
 16 10  2  8 15 31.9920000  0  7G26G21G16G27G18G 5G 7
  18098469.636                         717.620          33.000  
  18773381.033    98654787.228         652.786          39.000  
  18356526.340    96464205.557        2725.177          38.000  
  20111765.756                        4175.167          30.000  
  20704863.589   108804794.758        3962.091          32.000  
  22453193.587                       -1358.178          22.000  
  23089506.181                        4186.091          26.000  
 16 10  2  8 15 32.9920000  0  6G26G21G16G27G 5G 7
  18098328.767    95107359.1993        718.566          38.000  
  18773256.504    98654134.401         652.545          35.000  
  18356007.441    96461480.883        2725.336          42.000  
  20110967.258   105683845.5143       4182.701          34.000  
  22453455.225                       -1358.178          22.000  
  23088703.947   121331958.1213       4187.815          35.000  
 16 10  2  8 15 33.9920000  0  6G26G21G16G27G18G 7
  18098197.767    95106641.4782        714.881          39.000  
  18773128.928    98653482.257         649.779          39.000  
  18355488.960    96458756.465        2722.516          37.000  
  20110173.627   105679664.6502       4179.490          35.000  
  20703354.517                        3963.364          22.000  
  23087903.948   121327770.8992       4183.994          33.000  
 16 10  2  8 15 34.9920000  0  5G26G21G16G27G 7
  18098057.313    95105924.2822        715.054          32.000  
  18773010.506    98652830.743         652.643          33.000  
  18354970.030                        2722.187          25.000  
  20109379.933                        4179.133          26.000  
  23087106.291   121323583.8952       4185.537          29.000  
 16 10  2  8 15 35.9920000  0  7G26G21G16G27G18G 7G10
  18097921.043    95105208.1962        714.930          28.000  
  18772881.484    98652179.619         651.874          26.000  
  18354451.146                        2730.987          22.000  
  20108582.189                        4180.938          24.000  
  20701852.598                        3963.176          18.000  
  23086307.137                        4184.050          19.000  
  22946972.089                        4990.109          19.000  
 16 10  2  8 15 36.9920000  0  5G26G21G16G27G 7
  18097787.749    95104492.7252        714.348          32.000  
  18772755.289    98651528.467         650.479          27.000  
  18353933.393                        2721.927          24.000  
  20107788.207                        4176.817          23.000  
  23085517.938                        4185.939          18.000  
 16 10  2  8 15 37.9920000  0  4G26G21G16G27
  18097649.118    95103778.4152        713.803          31.000  
  18772629.807    98650878.078         650.865          28.000  
  18353415.086    96447846.5193       2721.905          27.000  
  20106994.326                        4179.213          23.000  
 16 10  2  8 15 38.9920000  0  6G26G21G16G27G 5G 7
  18097511.751    95103064.6812        714.051          31.000  
  18772504.207    98650228.218         649.794          30.000  
  18352899.097    96445125.6122       2721.198          29.000  
  20106195.267                        4181.105          24.000  
  22454991.969                       -1361.911          18.000  
  23083925.326                        4149.961          16.000  
 16 10  2  8 15 39.9920000  0  6G26G21G16G27G18G 5
  18097379.880    95102351.5512        714.193          31.000  
  18772384.257    98649578.562         649.917          31.000  
  18352379.299    96442405.2852       2720.422          30.000  
  20105396.645                        4171.939          25.000  
  20698831.780                        3957.630          18.000  
  22455243.196                       -1361.911          18.000  
 16 10  2  8 15 40.9920000  0  6G26G21G16G27G18G 5
  18097244.741    95101639.2562        712.733          31.000  
  18772258.590    98648929.528         649.356          30.000  
  18351861.067    96439686.2722       2718.439          30.000  
  20104604.968                        4177.931          25.000  
  20698076.844                        3960.159          18.000  
  22455493.182                       -1361.911          18.000  
 16 10  2  8 15 41.9920000  0  6G26G21G16G27G18G 5
  18097108.464    95100927.1152        711.177          30.000  
  18772136.634    98648280.406         648.489          30.000  
  18351341.654    96436967.9842       2717.484          30.000  
  20103809.526                        4174.658          25.000  
  20697322.004                        3956.348          18.000  
  22455741.400                       -1361.911          21.000  
 16 10  2  8 15 42.9920000  0  4G26G21G16G18
  18096968.064    95100215.876         710.090          30.000  
  18772013.001    98647631.754         648.324          30.000  
  18350825.520    96434250.6802       2717.092          29.000  
  20696570.312                        3957.162          18.000  
 16 10  2  8 15 43.9920000  0  6G26G21G16G27G18G 5
  18096834.370    95099505.480         710.201          30.000  
  18771888.550    98646983.968         647.533          30.000  
  18350303.275    96431534.2382       2716.252          30.000  
  20102218.660                        4178.708          21.000  
  20695815.242                        3958.940          17.000  
  22456258.424                       -1366.884          24.000  
 16 10  2  8 15 44.9920000  0  6G26G21G16G27G18G 5
  18096700.235    95098796.005         709.587          30.000  
  18771768.506    98646336.819         648.219          30.000  
  18349788.698    96428818.5682       2716.260          30.000  
  20101424.976                        4172.676          19.000  
  20695063.683                        3955.315          18.000  
  22456520.057                       -1368.193          25.000  
 16 10  2  8 15 45.9920000  0  6G26G21G16G27G18G 5
  18096563.492    95098087.101         709.360          31.000  
  18771644.118    98645690.127         647.614          30.000  
  18349275.030    96426103.4432       2715.033          30.000  
  20100629.709                        4175.570          20.000  
  20694312.668                        3954.008          18.000  
  22456780.444                       -1368.082          25.000  
 16 10  2  8 15 46.9920000  0  6G26G21G16G27G18G 5
  18096427.211    95097378.351         708.813          31.000  
  18771523.700    98645043.428         646.627          30.000  
  18348758.432    96423388.3712       2714.917          30.000  
  20099833.774                        4186.469          20.000  
  20693560.488                        3953.887          19.000  
  22457037.732                       -1368.139          25.000  
 16 10  2  8 15 47.9920000  0  7G26G21G16G27G18G31G 5
  18096296.016    95096670.129         707.570          31.000  
  18771404.572    98644397.119         645.828          31.000  
  18348243.981    96420673.8342       2713.898          31.000  
  20099038.644                        4175.798          19.000  
  20692807.829                        3961.544          18.000  
  22247541.195                       -2268.509          17.000  
  22457296.723                       -1368.540          25.000  
 16 10  2  8 15 48.9920000  0  7G26G21G16G27G18G31G 5
  18096161.785    95095962.619         706.665          31.000  
  18771273.325    98643751.308         646.418          30.000  
  18347726.758    96417959.802        2714.343          31.000  
  20098241.871                        4173.612          20.000  
  20692054.202                        3959.762          18.000  
  22247968.199                       -2268.509          18.000  
  22457556.528                       -1368.745          25.000  
 16 10  2  8 15 49.9920000  0  3G18G31G 5
  20691302.081                        3958.226          22.000  
  22248392.068                       -2268.509          18.000  
  22457817.403                       -1369.122          26.000  
 16 10  2  8 15 50.9920000  0  4G26G21G16G27
  18095895.961    95094574.4631        705.419          38.000  
  18771029.916    98642427.0603        644.034          37.000  
  18346694.172    96412527.9713       2713.336          35.000  
  20096659.442                        4174.153          34.000  
 16 10  2  8 15 51.9920000  0  4G26G21G16G27
  18095761.051    95093869.443         703.217          42.000  
  18770911.474    98641783.3562        641.533          39.000  
  18346179.757    96409814.6962       2713.507          40.000  
  20095866.947   105604483.0133       4174.819          41.000  
 16 10  2  8 15 52.9920000  0  5G26G21G16G27G 5
  18095627.701    95093165.135         705.035          43.000  
  18770788.260    98641140.0882        644.052          40.000  
  18345662.140    96407101.8342       2713.080          40.000  
  20095072.322   105600307.9062       4176.673          39.000  
  22458594.691                       -1370.066          33.000  
 16 10  2  8 15 53.9920000  0  5G26G21G16G27G18
  18095491.766    95092461.239         703.996          38.000  
  18770668.074    98640496.9972        644.931          35.000  
  18345148.111    96404389.4162       2712.396          36.000  
  20094279.824   105596133.1012       4173.591          36.000  
  20688295.600   108717726.5253       3952.960          34.000  
 16 10  2  8 15 54.9920000  0  6G26G21G16G27G 5G10
  18095358.377    95091758.214         703.273          45.000  
  18770544.955    98639854.8932        642.217          43.000  
  18344630.290    96401678.0582       2712.146          43.000  
  20093485.620   105591958.7862       4175.559          45.000  
  22459123.284   118023488.6232      -1372.425          39.000  
  22928925.161                        4993.430          31.000  
 16 10  2  8 15 55.9920000  0  5G26G21G16G27G 5
  18095226.148    95091055.457         702.867          35.000  
  18770423.118    98639213.0072        642.248          34.000  
  18344113.805    96398966.8442       2709.705          32.000  
  20092694.937   105587784.0892       4172.604          33.000  
  22459380.388                       -1374.145          32.000  
 16 10  2  8 15 56.9920000  0  7G26G21G16G27G18G 5G10
  18095091.263    95090353.113         701.578          36.000  
  18770302.248    98638571.0782        641.354          35.000  
  18343599.385    96396257.3872       2709.033          35.000  
  20091888.330   105583611.3202       4171.270          28.000  
  20686037.381                        3958.539          29.000  
  22459641.146   118026212.8292      -1373.073          31.000  
  22927032.340                        4990.988          28.000  
 16 10  2  8 15 57.9920000  0  5G26G21G16G27G 5
  18094958.220    95089652.174         700.156          37.000  
  18770180.784    98637930.1222        640.422          34.000  
  18343083.181    96393549.2752       2707.550          35.000  
  20091102.345   105579439.5472       4171.579          37.000  
  22459896.884   118027586.1082      -1373.579          33.000  
 16 10  2  8 15 58.9920000  0  5G26G21G16G27G 5
  18094824.793    95088951.171         701.190          43.000  
  18770058.875    98637290.1722        640.966          40.000  
  18342568.099    96390839.9112       2710.663          41.000  
  20090307.294   105575265.1482       4174.786          39.000  
  22460161.090   118028942.6953      -1373.425          36.000  
 16 10  2  8 15 59.9920000  0  5G26G21G16G27G 5
  18094691.623    95088250.014         700.736          39.000  
  18769937.321    98636650.5852        639.739          36.000  
  18342052.590    96388130.2722       2707.867          39.000  
  20089512.007   105571089.7062       4173.851          35.000  
  22460422.841   118030317.8802      -1376.093          38.000  
 16 10  2  8 16  0.9920000  0  7G26G21G16G27G18G 7G 5
  18094558.241    95087548.973         699.766          34.000  
  18769815.304    98636010.1011        640.017          33.000  
  18341537.112    96385422.341        2707.416          34.000  
  20088714.221   105566916.105        4172.798          31.000  
  20683031.648                        3955.536          34.000  
  23066426.655                        4175.143          21.000  
  22460686.985   118031694.9302      -1377.243          28.000  
 16 10  2  8 16  1.9920000  0  6G26G21G16G27G 7G 5
  18094425.164    95086848.745         699.525          36.000  
  18769693.524    98635370.680         638.978          34.000  
  18341022.241    96382715.520        2706.213          36.000  
  20087927.557   105562743.379        4171.936          34.000  
  23065632.224   121210714.4833       4174.031          31.000  
  22460950.238                       -1382.094          26.000  
 16 10  2  8 16  2.9920000  0  3G26G21G16
  18094292.237    95086149.659         697.352          32.000  
  18769572.471    98634732.041         637.665          29.000  
  18340507.501    96380009.994        2704.706          31.000  
 16 10  2  8 16  3.9920000  0  2G26G21
  18094159.594    95085451.399         697.960          31.000  
  18769449.036                         638.222          26.000  
 16 10  2  8 16  4.9920000  0  4G26G21G16G27
  18094026.360    95084753.703         697.116          29.000  
  18769330.162                         632.861          25.000  
  18339478.849    96374611.3883       2704.370          31.000  
  20085553.470                        4169.097          21.000  
 16 10  2  8 16  5.9920000  0  4G26G21G16G27
  18093891.931    95084055.822         696.515          29.000  
  18769209.605                         638.488          24.000  
  18338960.182    96371906.6792       2704.895          30.000  
  20084755.505                        4177.985          21.000  
 16 10  2  8 16  6.9920000  0  2G21G27
  18769085.954                         634.158          24.000  
  20083956.662                        4173.348          20.000  
 16 10  2  8 16  7.9920000  0  3G26G21G27
  18093627.574    95082654.0101        697.489          29.000  
  18768963.959                         646.026          24.000  
  20083163.307                        4168.423          21.000  
 16 10  2  8 16  8.9920000  0  2G21G27
  18768842.315                         645.160          23.000  
  20082369.330                        4171.094          22.000  
 16 10  2  8 16  9.9920000  0  2G21G27
  18768722.303                         632.155          23.000  
  20081575.737                        4171.006          21.000  
 16 10  2  8 16 10.9920000  0  3G26G21G27
  18093232.744    95080579.777         694.542          30.000  
  18768602.336                         631.480          24.000  
  20080781.787                        4168.706          22.000  
 16 10  2  8 16 11.9920000  0  3G26G21G27
  18093095.314    95079886.007         694.069          29.000  
  18768479.260                         629.255          22.000  
  20079987.777                        4174.573          23.000  
 16 10  2  8 16 12.9920000  0  3G26G21G27
  18092967.687    95079192.736         693.275          31.000  
  18768360.098                         633.641          23.000  
  20079195.340                        4174.682          24.000  
 16 10  2  8 16 13.9920000  0  3G26G21G27
  18092834.243    95078499.929         692.741          32.000  
  18768241.015                         634.166          24.000  
  20078399.504                        4171.339          25.000  
 16 10  2  8 16 14.9920000  0  3G26G21G27
  18092701.492    95077808.203         691.476          32.000  
  18768124.229                         633.135          26.000  
  20077606.329   105508532.7883       4170.675          28.000  
 16 10  2  8 16 15.9920000  0  4G26G21G27G 5
  18092570.329    95077117.356         690.956          32.000  
  18768003.480    98626523.7783        632.170          26.000  
  20076811.390   105504363.3672       4169.767          28.000  
  22464641.399                       -1391.184          23.000  
 16 10  2  8 16 16.9920000  0  4G26G21G27G 5
  18092439.992    95076427.149         690.216          32.000  
  18767882.624    98625891.5142        631.491          26.000  
  20076019.785   105500194.2432       4169.986          27.000  
  22464900.325                       -1391.184          22.000  
 16 10  2  8 16 17.9920000  0  5G26G21G16G27G 5
  18092310.381    95075737.487         689.011          33.000  
  18767761.679    98625259.5782        631.209          26.000  
  18332793.154    96339477.8991       2697.253          30.000  
  20075227.843   105496025.2232       4168.244          27.000  
  22465154.977                       -1391.184          21.000  
 16 10  2  8 16 18.9920000  0  4G26G21G16G27
  18092180.201    95075048.255         688.310          32.000  
  18767641.838    98624627.9462        630.652          26.000  
  18332278.062    96336780.643        2696.849          29.000  
  20074435.194   105491856.3902       4169.046          26.000  
 16 10  2  8 16 19.9920000  0  2G26G21
  18092049.095    95074359.644         687.329          31.000  
  18767520.725    98623997.0172        630.212          27.000  
 16 10  2  8 16 20.9920000  0  4G26G21G16G27
  18091913.860    95073671.698         686.548          30.000  
  18767399.828    98623366.5992        629.537          27.000  
  18331253.830    96331388.9671       2695.406          30.000  
  20072844.946   105483512.1463       4168.170          26.000  
 16 10  2  8 16 21.9920000  0  4G26G21G16G20
  18091783.285    95072984.309         687.248          30.000  
  18767282.424    98622736.6942        630.359          27.000  
  18330742.789    96328693.121        2695.459          31.000  
  19699480.661   103521468.6032       1308.174          26.000  
 16 10  2  8 16 22.9920000  0  4G26G21G16G20
  18091653.984    95072297.774         686.394          31.000  
  18767160.566    98622107.5172        628.349          27.000  
  18330230.327    96325997.890        2695.227          30.000  
  19699232.092                        1304.846          27.000  
 16 10  2  8 16 23.9920000  0  4G26G21G16G20
  18091525.011    95071611.833         684.741          31.000  
  18767037.665    98621447.5973        628.418          27.000  
  18329717.635    96323303.028        2693.646          31.000  
  19698986.271                        1306.168          29.000  
 16 10  2  8 16 24.9920000  0  4G26G21G16G20
  18091390.846    95070926.634         685.272          31.000  
  18766916.735    98620819.3672        627.384          27.000  
  18329200.189    96320608.968        2694.281          30.000  
  19698738.682                        1304.458          29.000  
 16 10  2  8 16 25.9920000  0  5G26G21G16G20G18
  18091261.822    95070242.134         683.164          30.000  
  18766797.640    98620191.7382        627.306          27.000  
  18328691.309    96317915.360        2693.359          30.000  
  19698491.746                        1305.488          29.000  
  20664245.821                        3945.614          23.000  
 16 10  2  8 16 26.9920000  0  5G26G21G16G20G18
  18091131.909    95069558.185         683.735          31.000  
  18766680.379    98619564.3762        627.498          27.000  
  18328177.110    96315222.391        2692.023          30.000  
  19698241.039   103514967.9012       1303.262          29.000  
  20663489.829                        3945.614          25.000  
 16 10  2  8 16 27.9920000  0  4G26G21G16G20
  18091003.079    95068874.818         683.190          30.000  
  18766563.076    98618937.4472        626.517          27.000  
  18327667.256    96312529.705        2691.840          31.000  
  19697985.764   103513664.3512       1303.861          30.000  
 16 10  2  8 16 28.9920000  0  6G26G21G16G20G18G29
  18090876.304    95068192.174         682.517          30.000  
  18766445.724    98618311.1062        626.917          27.000  
  18327152.992    96309837.803        2691.125          30.000  
  19697740.645   103512361.7742       1302.347          30.000  
  20661988.621                        3945.003          25.000  
  20878754.722                       -1816.231          26.000  
 16 10  2  8 16 29.9920000  0  6G26G21G16G20G18G 5
  18090743.720    95067509.979         681.304          31.000  
  18766326.115    98617685.0032        626.527          26.000  
  18326643.046    96307146.041        2691.879          30.000  
  19697493.791   103511059.6772       1302.413          30.000  
  20661235.621                        3944.116          26.000  
  22468318.257                       -1390.336          25.000  
 16 10  2  8 16 30.9920000  0  6G26G21G16G20G18G31
  18090618.573    95066828.394         681.595          31.000  
  18766205.521    98617058.7671        626.722          27.000  
  18326131.007    96304455.289        2689.868          30.000  
  19697248.061   103509758.0592       1301.920          29.000  
  20660481.822   108571581.2552       3945.817          26.000  
  22265777.608                       -2271.245          17.000  
 16 10  2  8 16 31.9920000  0  7G26G21G16G27G20G18G31
  18090489.084    95066147.922         680.858          30.000  
  18766086.670    98616433.867         624.918          27.000  
  18325617.663    96301765.056        2691.601          31.000  
  20064121.420                        4164.750          21.000  
  19696997.591   103508457.2982       1300.101          29.000  
  20659728.288   108567637.6692       3942.648          25.000  
  22266213.703                       -2271.245          17.000  
 16 10  2  8 16 32.9920000  0  6G26G21G16G20G18G31
  18090355.781    95065467.763         679.641          31.000  
  18765965.686    98615809.284         623.958          27.000  
  18325110.706    96299075.203        2689.292          30.000  
  19696748.450   103507157.2602       1299.213          29.000  
  20658981.752   108563694.3822       3942.951          32.000  
  22266646.856                       -2271.245          18.000  
 16 10  2  8 16 33.9920000  0  6G26G21G16G20G18G31
  18090227.336    95064788.424         679.395          31.000  
  18765845.100    98615185.307         623.388          27.000  
  18324594.715    96296386.271        2688.360          30.000  
  19696503.298   103505858.0972       1297.617          29.000  
  20658234.339   108559751.3292       3942.670          32.000  
  22267068.779                       -2271.245          18.000  
 16 10  2  8 16 34.9920000  0  6G26G21G16G20G18G31
  18090098.327    95064109.573         678.396          32.000  
  18765726.669    98614561.783         622.467          27.000  
  18324081.664    96293697.416        2688.174          29.000  
  19696255.722   103504559.8022       1297.382          30.000  
  20657484.294   108555808.9732       3942.545          31.000  
  22267501.851                       -2271.245          17.000  
 16 10  2  8 16 35.9920000  0  6G26G21G16G20G18G31
  18089968.890    95063431.402         677.206          32.000  
  18765609.328    98613938.454         622.431          28.000  
  18323570.541    96291009.304        2687.491          28.000  
  19696010.014   103503261.5582       1297.431          28.000  
  20656736.581   108551866.5702       3940.887          30.000  
  22267934.905                       -2271.245          17.000  
 16 10  2  8 16 36.9920000  0  6G26G21G16G20G18G31
  18089840.045    95062753.940         677.019          33.000  
  18765491.393    98613315.810         622.486          27.000  
  18323061.237    96288321.598        2687.226          28.000  
  19695766.317   103501964.5732       1297.327          27.000  
  20655984.089   108547924.9652       3942.005          31.000  
  22268369.126                       -2271.245          17.000  
 16 10  2  8 16 37.9920000  0  6G26G21G16G20G18G31
  18089711.086    95062077.070         676.318          32.000  
  18765370.980    98612693.671         622.003          27.000  
  18322546.692    96285634.653        2686.077          29.000  
  19695517.998                        1296.623          25.000  
  20655233.233   108543982.4553       3941.107          30.000  
  22268801.099                       -2271.245          17.000  
 16 10  2  8 16 38.9920000  0  6G26G21G16G20G18G31
  18089582.325    95061400.672         674.770          32.000  
  18765252.844    98612071.716         621.927          27.000  
  18322036.077    96282947.711        2686.459          28.000  
  19695272.725                        1296.583          26.000  
  20654482.714   108540041.2322       3941.518          31.000  
  22269232.815                       -2271.245          17.000  
 16 10  2  8 16 39.9920000  0  7G26G21G16G27G20G18G 5
  18089453.804    95060724.888         675.669          32.000  
  18765137.843    98611450.061         621.790          27.000  
  18321527.735    96280261.789        2684.841          27.000  
  20057778.467                        4165.800          21.000  
  19695026.602                        1295.025          25.000  
  20653737.742   108536100.0272       3941.053          31.000  
  22470975.017                       -1392.666          24.000  
 16 10  2  8 16 40.9920000  0  7G26G21G16G27G20G18G 5
  18089325.512    95060050.072         674.187          32.000  
  18765019.977    98610829.402         621.124          26.000  
  18321014.551    96277576.319        2685.517          27.000  
  20056985.937                        4163.646          18.000  
  19694780.308                        1293.464          26.000  
  20652983.481   108532159.7862       3940.966          31.000  
  22471240.514                       -1392.442          25.000  
 16 10  2  8 16 41.9920000  0  6G26G21G16G27G20G18
  18089197.169    95059375.797         674.192          31.000  
  18764900.878    98610209.106         619.552          27.000  
  18320502.334    96274891.489        2684.894          26.000  
  20056195.267                        4163.034          18.000  
  19694536.126                        1294.675          25.000  
  20652233.424   108528219.8452       3941.108          29.000  
 16 10  2  8 16 42.9920000  0  6G26G21G16G27G20G18
  18089069.733    95058702.437         673.168          32.000  
  18764783.351    98609589.492         619.950          27.000  
  18319991.489    96272207.461        2684.451          27.000  
  20055404.710                        4164.195          20.000  
  19694288.316                        1292.169          25.000  
  20651479.808   108524280.2792       3938.886          29.000  
 16 10  2  8 16 43.9920000  0  6G26G21G16G27G20G18
  18088938.982    95058029.934         672.329          31.000  
  18764664.727    98608970.288         618.437          27.000  
  18319480.223    96269524.318        2683.313          26.000  
  20054612.570                        4160.387          21.000  
  19694041.588                        1291.915          24.000  
  20650729.300   108520340.9802       3938.595          28.000  
 16 10  2  8 16 44.9920000  0  6G26G21G16G20G18G 5
  18088809.041    95057357.740         670.314          30.000  
  18764548.427    98608351.272         618.068          27.000  
  18318971.229    96266841.293        2682.492          26.000  
  19693796.031                        1289.851          23.000  
  20649973.499                        3941.118          27.000  
  22472298.989                       -1396.167          25.000  
 16 10  2  8 16 45.9920000  0  5G26G21G16G20G18
  18088682.670    95056686.040         670.711          30.000  
  18764430.488    98607732.816         617.971          27.000  
  18318460.155    96264158.641        2683.126          26.000  
  19693551.354                        1288.393          23.000  
  20649232.015                        3937.611          27.000  
 16 10  2  8 16 46.9920000  0  5G26G21G16G20G18
  18088557.782    95056014.816         670.600          29.000  
  18764310.943    98607114.607         617.483          27.000  
  18317949.584                        2680.300          26.000  
  19693305.280                        1288.014          22.000  
  20648483.576                        3933.337          26.000  
 16 10  2  8 16 47.9920000  0  5G26G21G16G20G18
  18088428.474    95055344.392         670.261          30.000  
  18764193.536    98606496.841         617.626          28.000  
  18317441.662                        2680.034          26.000  
  19693059.122                        1290.705          23.000  
  20647738.430                        3938.484          26.000  
 16 10  2  8 16 48.9920000  0 10G26G21G16G27G20G18G 7G 5G29G31
  18088302.155    95054674.014         669.298          45.000  
  18764076.334    98605878.715         617.675          44.000  
  18316930.780    96256120.2983       2680.835          42.000  
  20050648.201   105366866.9032       4162.917          38.000  
  19692806.954                        1289.915          37.000  
  20646985.848   108500658.9243       3939.055          39.000  
  23028384.938                        4156.333          29.000  
  22473359.893   118098303.2663      -1396.219          42.000  
  20885662.310   109754896.2053      -1821.478          39.000  
  22273429.359                       -2223.000          15.000  
 16 10  2  8 16 49.9920000  0 10G26G21G16G27G20G18G 7G 5G29G31
  18088173.635    95054004.473         666.791          36.000  
  18763960.569    98605261.152         615.214          37.000  
  18316420.901    96253439.8512       2679.382          41.000  
  20049856.546   105362704.7402       4162.852          35.000  
  19692566.372   103485109.1883       1287.189          34.000  
  20646238.057   108496713.2593       3933.409          25.000  
  23027581.875   121010758.7872       4156.379          40.000  
  22473625.016   118099700.1282      -1397.607          43.000  
  20886010.873   109756717.7142      -1824.086          33.000  
  22273847.904                       -2223.000          18.000  
 16 10  2  8 16 50.9920000  0 10G26G21G16G27G20G18G 7G 5G29G31
  18088046.197    95053336.127         668.393          39.000  
  18763839.059    98604645.335         616.398          37.000  
  18315909.951    96250760.1962       2680.194          37.000  
  20049066.425   105358542.2992       4161.886          35.000  
  19692318.963   103483822.1152       1286.614          37.000  
  20645487.086   108492776.2242       3937.006          37.000  
  23026786.790   121006601.0132       4157.387          33.000  
  22473889.902   118101098.4842      -1399.395          42.000  
  20886355.996   109758541.1312      -1824.215          32.000  
  22274263.466                       -2223.000          20.000  
 16 10  2  8 16 51.9920000  0 10G26G21G16G27G20G18G 7G 5G29G31
  18087919.398    95052669.217         666.921          37.000  
  18763725.187    98604030.429         615.076          34.000  
  18315403.788    96248081.5612       2679.321          37.000  
  20048272.460   105354380.4692       4164.424          34.000  
  19692077.252   103482535.8402       1286.159          34.000  
  20644737.938   108488840.2872       3935.376          35.000  
  23025998.106   121002443.4302       4157.839          33.000  
  22474159.129                       -1399.016          38.000  
  20886701.586   109760364.6492      -1824.878          31.000  
  22274686.668                       -2223.000          19.000  
 16 10  2  8 16 52.9920000  0 10G26G21G16G27G20G18G 7G 5G29G31
  18087793.802    95052002.798         666.940          36.000  
  18763610.212    98603415.791         613.830          35.000  
  18314892.056    96245403.6412       2678.601          37.000  
  20047484.719   105350219.4142       4161.071          36.000  
  19691828.567   103481250.0852       1284.988          34.000  
  20643991.209   108484904.4802       3935.732          31.000  
  23025209.688   120998286.5372       4155.659          32.000  
  22474424.447   118103901.4783      -1399.630          35.000  
  20887049.768                       -1824.558          28.000  
  22275108.796                       -2223.000          16.000  
 16 10  2  8 16 53.9920000  0 10G26G21G16G27G20G18G 7G 5G29G31
  18087666.968    95051336.742         666.425          37.000  
  18763493.120    98602801.352         614.350          35.000  
  18314382.457    96242725.6992       2679.156          37.000  
  20046688.695   105346057.8022       4163.473          33.000  
  19691585.434   103479964.8282       1284.963          34.000  
  20643241.507   108480968.9822       3935.894          33.000  
  23024418.564                        4158.215          32.000  
  22474690.728   118105300.1932      -1396.808          27.000  
  20887399.206   109764011.5582      -1823.163          28.000  
  22275532.071                       -2223.000          15.000  
 16 10  2  8 16 54.9920000  0 10G26G21G16G27G20G18G 7G 5G29G31
  18087538.784    95050670.732         666.554          36.000  
  18763374.113    98602186.926         614.711          34.000  
  18313872.583    96240047.9842       2678.473          36.000  
  20045899.538   105341895.964        4163.772          31.000  
  19691340.576   103478679.9852       1284.027          37.000  
  20642490.863   108477033.2302       3935.539          31.000  
  23023623.243   120989972.3662       4156.820          28.000  
  22474962.439   118106700.1422      -1400.195          35.000  
  20887745.093                       -1824.953          28.000  
  22275952.699                       -2223.000          16.000  
 16 10  2  8 16 55.9920000  0  9G26G21G16G27G20G18G 7G 5G29
  18087412.591    95050005.454         665.210          36.000  
  18763257.190    98601573.232         613.633          34.000  
  18313363.630    96237370.5972       2677.435          36.000  
  20045101.389   105337734.060        4162.457          31.000  
  19691096.925   103477396.1682       1282.814          37.000  
  20641741.880   108473098.2912       3934.042          22.000  
  23022828.704   120985815.3522       4156.038          28.000  
  22475222.298                       -1402.508          29.000  
  20888100.651   109767658.6922      -1824.795          30.000  
 16 10  2  8 16 56.9920000  0 10G26G21G16G27G20G18G 7G 5G29G31
  18087286.714    95049341.212         664.778          37.000  
  18763140.827    98600960.288         613.520          36.000  
  18312854.422    96234694.2452       2676.788          38.000  
  20044312.349   105333572.899        4161.074          33.000  
  19690854.369   103476113.2762       1282.227          35.000  
  20640992.261                        3933.847          23.000  
  23022039.825   120981659.1172       4154.719          29.000  
  22475492.802   118109511.1713      -1402.464          34.000  
  20888441.154                       -1824.138          30.000  
  22276799.883                       -2229.245          20.000  
 16 10  2  8 16 57.9920000  0 10G26G21G16G27G20G18G 7G 5G29G31
  18087160.312    95048677.838         663.951          34.000  
  18763024.284    98600347.998         613.202          37.000  
  18312345.432    96232018.4142       2676.813          36.000  
  20043521.216   105329411.794        4161.905          30.000  
  19690610.350   103474831.1372       1281.771          35.000  
  20640241.068                        3933.371          24.000  
  23021244.935   120977502.8242       4155.617          29.000  
  22475755.122   118110911.5522      -1402.064          30.000  
  20888785.156   109771306.4233      -1824.101          34.000  
  22277225.331                       -2229.245          20.000  
 16 10  2  8 16 58.9920000  0 10G26G21G16G27G20G18G 7G 5G29G31
  18087034.360    95048014.918         662.375          35.000  
  18762907.713    98599736.077         612.011          37.000  
  18311836.686    96229342.7132       2676.111          36.000  
  20042730.609   105325250.583        4161.542          29.000  
  19690366.351   103473549.8432       1281.305          35.000  
  20639492.875                        3932.995          26.000  
  23020458.855   120973346.2722       4156.281          30.000  
  22476017.254                       -1397.303          30.000  
  20889132.294   109773131.3352      -1824.558          34.000  
  22277649.116                       -2229.245          20.000  
 16 10  2  8 16 59.9920000  0 10G26G21G16G27G20G18G 7G 5G29G31
  18086908.430    95047351.936         663.358          34.000  
  18762791.227    98599124.062         612.586          37.000  
  18311327.665    96226666.7992       2675.385          35.000  
  20041934.590   105321088.656        4160.708          28.000  
  19690122.418   103472268.8132       1280.613          35.000  
  20638744.774   108457333.3923       3933.339          26.000  
  23019663.688   120969189.4142       4155.554          30.000  
  22476292.511                       -1400.726          34.000  
  20889484.971   109774956.0442      -1823.987          35.000  
  22278073.844                       -2229.245          19.000  
 16 10  2  8 17  0.9920000  0 10G26G21G16G27G20G18G 7G 5G29G31
  18086782.504    95046689.422         660.941          33.000  
  18762674.752    98598512.232         610.367          37.000  
  18310818.379    96223991.309        2674.323          34.000  
  20041143.577   105316926.870        4161.552          29.000  
  19689878.641   103470988.106        1279.655          35.000  
  20637997.026                        3933.201          26.000  
  23018873.505   120965032.8362       4155.906          31.000  
  22476560.364                       -1401.766          33.000  
  20889829.865   109776780.3622      -1823.834          32.000  
  22278497.730                       -2229.245          20.000  
 16 10  2  8 17  1.9920000  0 10G26G21G16G27G20G18G 7G 5G29G31
  18086656.942    95046027.844         660.454          33.000  
  18762558.386    98597901.095         610.061          37.000  
  18310309.306    96221316.459        2673.816          34.000  
  20040354.064   105312765.295        4161.614          32.000  
  19689635.072   103469708.270        1279.021          36.000  
  20637247.390                        3931.481          27.000  
  23018083.606   120960876.3052       4155.760          31.000  
  22476825.205                       -1403.492          33.000  
  20890173.164   109778605.2912      -1825.216          34.000  
  22278921.101                       -2229.245          22.000  
 16 10  2  8 17  2.9920000  0 10G26G21G16G27G20G18G 7G 5G29G31
  18086531.363    95045367.070         661.085          34.000  
  18762442.353    98597290.720         610.604          38.000  
  18309800.456    96218642.218        2674.347          35.000  
  20039560.014   105308603.948        4162.155          34.000  
  19689392.242   103468429.678        1278.151          38.000  
  20636501.083   108445535.6193       3931.217          32.000  
  23017294.013   120956720.0252       4157.270          31.000  
  22477084.164   118117915.0433      -1401.483          35.000  
  20890523.411   109780430.9272      -1825.321          29.000  
  22279342.453                       -2229.245          24.000  
 16 10  2  8 17  3.9920000  0  9G26G21G16G27G20G18G 7G 5G29
  18086405.836    95044707.072         660.364          34.000  
  18762326.303    98596680.733         610.767          37.000  
  18309291.632    96215968.821        2672.125          36.000  
  20038769.909   105304443.352        4159.500          34.000  
  19689148.992   103467151.384        1279.167          36.000  
  20635757.293   108441604.5052       3931.456          31.000  
  23016503.768   120952564.5282       4154.697          31.000  
  22477352.779   118119317.2072      -1402.477          36.000  
  20890869.325   109782256.3262      -1824.314          33.000  
 16 10  2  8 17  4.9920000  0  9G26G21G16G27G20G18G 7G 5G29
  18086280.448    95044048.149         657.617          41.000  
  18762210.344    98596071.583         607.536          39.000  
  18308783.056    96213296.591        2670.612          40.000  
  20037979.340   105300283.670        4158.369          36.000  
  19688905.949   103465874.003        1276.281          38.000  
  20635005.253   108437673.6232       3930.706          36.000  
  23015712.943   120948410.0282       4152.574          31.000  
  22477621.702   118120720.2462      -1404.779          38.000  
  20891215.387   109784081.8042      -1824.878          35.000  
 16 10  2  8 17  5.9920000  0  9G26G21G16G27G20G18G 5G29G31
  18086154.981    95043390.189         658.075          34.000  
  18762094.734    98595462.761         609.973          34.000  
  18308274.579    96210625.561        2670.874          36.000  
  20037189.967   105296125.114        4158.389          29.000  
  19688662.663   103464597.026        1276.841          32.000  
  20634259.291   108433742.4612       3932.028          32.000  
  22477891.148                       -1403.665          33.000  
  20891562.554   109785907.0452      -1825.231          32.000  
  22280619.284                       -2235.860          26.000  
 16 10  2  8 17  6.9920000  0  8G26G21G16G27G20G18G29G31
  18086029.880    95042732.575         657.584          33.000  
  18761979.265    98594854.080         608.573          31.000  
  18307766.634    96207954.906        2670.056          33.000  
  20036398.434   105291966.567        4158.739          29.000  
  19688419.611   103463319.999        1277.561          32.000  
  20633514.170   108429811.4322       3931.750          31.000  
  20891909.606   109787731.3141      -1824.275          29.000  
  22281042.126                       -2235.274          25.000  
 16 10  2  8 17  7.9920000  0  8G26G21G16G27G20G18G 7G29
  18085904.619    95042075.552         657.689          33.000  
  18761859.046    98594245.735         609.414          30.000  
  18307258.464    96205284.794        2669.598          33.000  
  20035606.062   105287808.324        4157.522          29.000  
  19688178.336   103462043.885        1275.261          27.000  
  20632760.558   108425880.6732       3930.228          30.000  
  23013340.304                        4156.857          23.000  
  20892257.725                       -1825.127          28.000  
 16 10  2  8 17  8.9920000  0  9G26G21G16G27G20G18G 7G29G31
  18085779.764    95041419.048         656.498          32.000  
  18761751.374    98593637.850         608.162          31.000  
  18306750.419    96202614.884        2669.098          33.000  
  20034810.076   105283649.942        4156.992          29.000  
  19687929.467   103460768.162        1275.978          30.000  
  20632012.117   108421950.2972       3930.936          29.000  
  23012552.051                        4162.305          22.000  
  20892601.895   109791380.2553      -1824.324          28.000  
  22281896.953                       -2229.290          24.000  
 16 10  2  8 17  9.9920000  0  8G26G21G16G20G18G 7G29G31
  18085655.712    95040762.816         655.647          32.000  
  18761632.866    98593030.159         607.065          32.000  
  18306242.335    96199945.438        2668.512          33.000  
  19687692.951   103459493.213        1275.109          30.000  
  20631266.331   108418019.7492       3930.797          28.000  
  23011761.730                        4145.316          21.000  
  20892949.985   109793205.3602      -1824.355          28.000  
  22282316.216                       -2234.643          27.000  
 16 10  2  8 17 10.9920000  0  8G26G21G16G27G20G18G29G31
  18085527.550    95040107.391         655.018          33.000  
  18761513.646    98592422.733         607.819          32.000  
  18305735.883    96197276.398        2668.561          33.000  
  20033228.718                        4151.122          19.000  
  19687447.908   103458218.404        1276.188          30.000  
  20630518.752   108414089.6352       3930.830          28.000  
  20893297.083   109795030.0732      -1824.214          28.000  
  22282741.562   117096596.4763      -2234.598          28.000  
 16 10  2  8 17 11.9920000  0  8G26G21G16G27G20G18G29G31
  18085405.795    95039452.516         654.742          33.000  
  18761400.204    98591815.543         607.803          34.000  
  18305226.265    96194608.076        2667.834          33.000  
  20032436.321                        4162.100          18.000  
  19687205.675   103456943.898        1275.444          33.000  
  20629775.178   108410159.5612       3931.034          27.000  
  20893646.219   109796854.6232      -1823.440          30.000  
  22283162.466   117098832.4232      -2235.708          28.000  
 16 10  2  8 17 12.9920000  0  9G26G21G16G27G20G18G 5G29G31
  18085282.563    95038798.285         654.091          33.000  
  18761285.476    98591208.900         605.791          34.000  
  18304718.090    96191940.407        2667.242          33.000  
  20031647.176                        4165.356          18.000  
  19686964.658   103455670.146        1273.496          34.000  
  20629025.648                        3928.878          26.000  
  22479759.154   118131930.8883      -1405.531          26.000  
  20893992.959   109798679.2422      -1824.660          32.000  
  22283590.631   117101068.3382      -2236.063          30.000  
 16 10  2  8 17 13.9920000  0 10G26G21G16G27G20G18G 5G29G31G10
  18085156.308    95038145.069         653.352          35.000  
  18761169.359    98590603.011         606.044          34.000  
  18304209.771    96189273.556        2666.095          34.000  
  20030851.580                        4161.447          18.000  
  19686721.007   103454397.516        1272.222          33.000  
  20628278.768   108402335.6763       3929.806          28.000  
  22480026.000   118133336.5372      -1404.531          31.000  
  20894342.604   109800504.4102      -1824.707          31.000  
  22284014.704   117103304.5542      -2235.448          32.000  
  22853909.662                        4979.000          12.000  
 16 10  2  8 17 14.9920000  0 11G26G21G16G27G20G18G 7G 5G29G31G10
  18085031.761    95037492.608         652.091          35.000  
  18761054.104    98589997.582         605.084          35.000  
  18303702.636    96186607.472        2664.795          34.000  
  20030059.418                        4154.951          20.000  
  19686480.894   103453125.382        1271.201          36.000  
  20627529.629   108398406.8452       3929.563          29.000  
  23007816.582                        4138.840          23.000  
  22480295.320   118134742.4752      -1406.839          27.000  
  20894687.676   109802329.6122      -1824.706          32.000  
  22284443.552   117105541.2032      -2236.495          33.000  
  22852959.682                        4979.000          13.000  
 16 10  2  8 17 15.9920000  0 11G26G21G16G27G20G18G 7G 5G29G31G10
  18084908.238    95036840.686         651.260          35.000  
  18760939.935    98589392.611         604.966          35.000  
  18303194.577    96183941.747        2665.240          34.000  
  20029272.498                        4155.957          29.000  
  19686237.357   103451854.004        1271.145          35.000  
  20626780.967   108394478.3412       3928.683          28.000  
  23007030.881                        4153.430          25.000  
  22480563.443   118136148.9722      -1406.954          29.000  
  20895036.792   109804155.0622      -1824.878          32.000  
  22284865.639   117107777.5702      -2237.461          28.000  
  22852012.262                        4952.877          13.000  
 16 10  2  8 17 16.9920000  0 11G26G21G16G27G20G18G 7G 5G29G31G10
  18084784.992    95036189.234         651.051          36.000  
  18760824.739    98588787.736         604.637          35.000  
  18302689.351    96181276.570        2664.532          34.000  
  20028481.503   105250380.8003       4155.533          28.000  
  19685997.216   103450582.770        1270.697          35.000  
  20626034.471   108390549.7992       3928.994          28.000  
  23006242.281                        4147.857          25.000  
  22480828.277   118137555.1462      -1406.923          29.000  
  20895385.387   109805980.0272      -1825.566          32.000  
  22285288.515   117110014.0742      -2235.841          31.000  
  22851068.249                        4952.877          11.000  
 16 10  2  8 17 17.9920000  0 11G26G21G16G27G20G18G 7G 5G29G31G10
  18084660.934    95035538.304         651.120          34.000  
  18760709.560    98588183.466         604.217          35.000  
  18302182.845    96178611.984        2664.111          34.000  
  20027691.283   105246224.9432       4156.169          29.000  
  19685754.518   103449312.666        1269.783          34.000  
  20625285.487   108386621.5132       3929.451          28.000  
  23005454.674                        4153.021          24.000  
  22481096.638   118138962.4452      -1407.591          32.000  
  20895732.266   109807805.5462      -1824.713          33.000  
  22285718.780   117112250.2712      -2235.897          35.000  
  22850124.548                        4952.877          11.000  
 16 10  2  8 17 18.9920000  0 11G26G21G16G27G20G18G 7G 5G29G31G10
  18084537.427    95034887.980         650.148          35.000  
  18760594.652    98587579.386         603.710          35.000  
  18301676.163    96175947.693        2663.885          34.000  
  20026900.597   105242069.1912       4155.535          30.000  
  19685513.010   103448042.724        1269.920          34.000  
  20624540.247   108382693.5122       3928.741          28.000  
  23004663.962                        4162.171          22.000  
  22481365.830   118140369.4352      -1407.151          27.000  
  20896081.254   109809630.768       -1824.719          32.000  
  22286141.654   117114486.7362      -2236.410          33.000  
  22849181.833                        4952.877          12.000  
 16 10  2  8 17 19.9920000  0 11G26G21G16G27G20G18G 7G 5G29G31G10
  18084413.695    95034238.096         649.825          35.000  
  18760479.812    98586975.539         602.863          35.000  
  18301169.041    96173284.017        2664.062          34.000  
  20026111.080   105237913.7142       4156.372          30.000  
  19685271.240   103446773.278        1268.219          35.000  
  20623791.691   108378765.4392       3926.897          28.000  
  23003877.635                        4147.290          21.000  
  22481632.039   118141776.9612      -1407.886          32.000  
  20896426.988   109811455.805       -1825.278          32.000  
  22286571.551   117116722.9342      -2236.642          33.000  
  22848237.828                        4952.877          12.000  
 16 10  2  8 17 20.9920000  0 11G26G21G16G27G20G18G 7G 5G29G31G10
  18084290.101    95033588.916         649.259          35.000  
  18760365.195    98586372.167         603.232          35.000  
  18300662.427    96170621.241        2663.373          33.000  
  20025325.658   105233758.8852       4155.394          29.000  
  19685029.843   103445504.477        1268.633          35.000  
  20623042.136   108374837.3302       3926.694          29.000  
  23003088.599                        4145.016          19.000  
  22481895.561   118143185.2102      -1407.298          30.000  
  20896775.113   109813280.910       -1825.416          33.000  
  22286997.296   117118958.9852      -2236.827          33.000  
  22847295.577                        4952.877          11.000  
 16 10  2  8 17 21.9920000  0  9G26G21G16G27G20G18G 7G29G31
  18084166.618    95032940.191         648.095          35.000  
  18760250.502    98585769.376         601.928          35.000  
  18300154.322    96167958.824        2662.091          33.000  
  20024536.902                        4154.056          28.000  
  19684788.752   103444236.694        1266.767          35.000  
  20622294.628   108370909.6322       3926.087          30.000  
  23002300.615                        4154.834          18.000  
  20897123.233   109815106.392       -1826.423          32.000  
  22287418.578   117121194.8112      -2236.072          33.000  
 16 10  2  8 17 22.9920000  0 10G26G21G16G27G20G18G 7G 5G29G31
  18084043.171    95032292.295         646.943          35.000  
  18760135.822    98585167.164         602.178          35.000  
  18299648.375    96165296.966        2661.041          36.000  
  20023737.255                        4154.607          27.000  
  19684547.728   103442969.802        1266.879          35.000  
  20621546.092   108366982.6412       3925.872          29.000  
  23001508.658                        4150.613          20.000  
  22482437.913   118146008.6013      -1410.149          30.000  
  20897470.732   109816932.321       -1825.491          31.000  
  22287845.476   117123430.9202      -2237.345          34.000  
 16 10  2  8 17 23.9920000  0 10G26G21G16G27G20G18G 7G 5G29G31
  18083919.824    95031645.335         646.709          36.000  
  18760021.251    98584565.406         601.507          37.000  
  18299142.769    96162635.949        2661.194          36.000  
  20022947.246   105221295.0663       4153.814          27.000  
  19684306.808   103441703.238        1265.941          36.000  
  20620803.297   108363056.0572       3926.750          28.000  
  23000721.710                        4145.237          22.000  
  22482706.434   118147417.9032      -1410.429          30.000  
  20897817.048   109818758.248       -1826.229          31.000  
  22288271.107   117125667.8822      -2235.211          34.000  
 16 10  2  8 17 24.9920000  0 10G26G21G16G27G20G18G 7G 5G29G31
  18083796.718    95030998.414         645.985          40.000  
  18759907.000    98583963.751         600.991          39.000  
  18298634.382    96159975.309        2659.528          38.000  
  20022161.196   105217140.8602       4154.098          33.000  
  19684066.119   103440437.286        1265.620          40.000  
  20620057.978   108359128.971        3926.375          32.000  
  22999930.546                        4146.256          25.000  
  22482973.764   118148828.1282      -1410.089          34.000  
  20898164.049   109820583.915       -1825.544          35.000  
  22288696.419   117127903.8022      -2236.531          34.000  
 16 10  2  8 17 25.9920000  0 10G26G21G16G27G20G18G 7G 5G29G31
  18083673.735    95030352.448         645.161          40.000  
  18759792.575    98583362.278         601.134          40.000  
  18298130.454    96157315.272        2659.607          39.000  
  20021366.067   105212987.5502       4152.956          30.000  
  19683824.836   103439171.258        1265.275          38.000  
  20619306.391   108355202.450        3925.942          33.000  
  22999135.988                        4147.504          26.000  
  22483236.218   118150237.5662      -1408.965          34.000  
  20898508.967   109822409.064       -1825.721          33.000  
  22289122.457   117130140.8292      -2236.613          30.000  
 16 10  2  8 17 26.9920000  0 11G26G21G16G27G20G18G 7G 5G29G31G10
  18083550.767    95029707.057         644.483          37.000  
  18759678.097    98582761.554         600.188          37.000  
  18297623.591    96154655.885        2657.819          33.000  
  20020579.135   105208834.0772       4152.792          30.000  
  19683584.210   103437906.394        1264.001          35.000  
  20618559.993   108351276.187        3926.473          33.000  
  22998343.625                        4140.521          24.000  
  22483506.967   118151648.1832      -1411.309          30.000  
  20898858.192   109824234.892       -1826.015          32.000  
  22289550.433   117132377.4642      -2235.928          23.000  
  22841629.332                        4986.446          11.000  
 16 10  2  8 17 27.9920000  0 11G26G21G16G27G20G18G 7G 5G29G31G10
  18083428.065    95029062.480         644.161          37.000  
  18759563.705    98582161.354         599.593          36.000  
  18297117.497    96151997.064        2658.215          36.000  
  20019791.361   105204713.5263       4152.600          30.000  
  19683343.611   103436642.223        1263.387          35.000  
  20617810.602   108347350.516        3925.381          32.000  
  22997559.063                        4143.717          23.000  
  22483772.570   118153059.1422      -1411.999          34.000  
  20899206.431   109826060.852       -1826.273          33.000  
  22289977.302                       -2236.810          23.000  
  22840677.664                        4986.446          12.000  
 16 10  2  8 17 28.9920000  0 11G26G21G16G27G20G18G 7G 5G29G31G10
  18083305.882    95028418.137         643.639          38.000  
  18759449.653    98581561.417         599.505          36.000  
  18296611.630    96149338.433        2657.385          35.000  
  20018999.900   105200560.1852       4152.710          31.000  
  19683103.053   103435378.705        1263.202          35.000  
  20617066.441   108343424.993        3925.681          32.000  
  22996768.880                        4143.501          24.000  
  22484046.735   118154470.2942      -1410.688          34.000  
  20899554.698   109827886.795       -1825.337          33.000  
  22290405.324                       -2236.474          26.000  
  22839726.859                        4986.446          11.000  
 16 10  2  8 17 29.9920000  0 10G26G21G16G27G20G18G 7G 5G29G31
  18083183.640    95027774.796         643.686          38.000  
  18759335.642    98580961.835         599.468          37.000  
  18296105.824    96146680.809        2657.611          35.000  
  20018206.173   105196407.8252       4152.044          30.000  
  19682862.489   103434115.434        1262.675          36.000  
  20616316.669   108339499.661        3924.729          30.000  
  22995973.127                        4144.364          26.000  
  22484317.464   118155881.6442      -1412.974          34.000  
  20899901.657   109829712.315       -1825.645          32.000  
  22290821.657   117139107.1483      -2236.607          29.000  
 16 10  2  8 17 30.9920000  0 10G26G21G16G27G20G18G 7G 5G29G31
  18083061.064    95027131.815         643.511          38.000  
  18759221.618    98580362.583         599.311          37.000  
  18295600.063    96144023.732        2657.562          34.000  
  20017417.121                        4130.127          29.000  
  19682622.170   103432852.736        1262.689          35.000  
  20615570.671   108335574.066        3924.545          32.000  
  22995184.591                        4145.667          28.000  
  22484585.279   118157293.2231      -1412.938          34.000  
  20900247.630   109831537.984       -1825.728          32.000  
  22291252.605   117141343.7322      -2236.108          28.000  
 16 10  2  8 17 31.9920000  0 11G26G21G16G27G20G18G 7G 5G29G31G10
  18082938.762    95026489.483         641.742          38.000  
  18759107.361    98579763.827         598.925          38.000  
  18295094.501    96141367.191        2656.567          36.000  
  20016629.145                        4152.766          30.000  
  19682382.024   103431590.865        1261.763          37.000  
  20614825.828   108331648.804        3924.169          34.000  
  22994393.938                        4144.321          28.000  
  22484856.920   118158705.612       -1412.498          34.000  
  20900594.965   109833363.794       -1825.867          33.000  
  22291677.382   117143580.2932      -2237.747          28.000  
  22836863.704                        4999.996          14.000  
 16 10  2  8 17 32.9920000  0 11G26G21G16G27G20G18G 7G 5G29G31G10
  18082816.727    95025847.683         641.036          40.000  
  18758993.746    98579165.459         597.447          36.000  
  18294588.535    96138711.013        2655.621          33.000  
  20015841.938   105183943.4473       4151.679          33.000  
  19682141.947   103430329.550        1259.838          34.000  
  20614078.084   108327723.938        3924.109          33.000  
  22993600.499   120832185.7873       4143.664          27.000  
  22485128.376   118160118.272       -1413.729          34.000  
  20900942.515   109835189.735       -1826.883          36.000  
  22292110.464   117145817.0182      -2236.777          28.000  
  22835898.295                        4999.996          17.000  
 16 10  2  8 17 33.9920000  0 11G26G21G16G27G20G18G 7G 5G29G31G10
  18082694.616    95025206.438         641.362          39.000  
  18758879.957    98578567.338         597.672          40.000  
  18294082.431    96136055.413        2655.182          34.000  
  20015046.932   105179791.6232       4151.165          32.000  
  19681902.171   103429068.693        1260.218          37.000  
  20613332.635   108323799.338        3924.672          33.000  
  22992812.305   120828041.5052       4143.483          27.000  
  22485393.714   118161540.6433      -1413.897          39.000  
  20901290.065   109837015.629       -1826.306          33.000  
  22292529.319                       -2233.799          28.000  
  22834937.470                        4999.996          18.000  
 16 10  2  8 17 34.9920000  0 11G26G21G16G27G20G18G 7G 5G29G31G10
  18082572.807    95024566.021         640.053          39.000  
  18758766.231    98577969.779         597.114          37.000  
  18293579.154    96133400.476        2654.102          36.000  
  20014259.090   105175640.2962       4150.486          32.000  
  19681662.435   103427808.622        1259.169          34.000  
  20612586.934   108319875.171        3923.934          32.000  
  22992027.449                        4142.118          28.000  
  22485661.723   118162953.8742      -1413.998          37.000  
  20901637.829   109838841.641       -1826.431          35.000  
  22292956.650                       -2234.709          28.000  
  22833980.602                        4999.996          19.000  
 16 10  2  8 17 35.9920000  0 11G26G21G16G27G20G18G 7G 5G29G31G10
  18082451.171    95023926.097         639.634          40.000  
  18758652.460    98577372.690         597.288          39.000  
  18293071.085    96130745.968        2654.181          38.000  
  20013468.418   105171488.9462       4151.431          35.000  
  19681422.868   103426549.293        1258.224          39.000  
  20611839.205   108315951.363        3924.201          38.000  
  22991234.805   120819775.2973       4141.863          29.000  
  22485933.210                       -1414.795          37.000  
  20901985.344   109840667.815       -1826.445          39.000  
  22293379.360                       -2235.364          28.000  
  22833025.060                        4999.996          18.000  
 16 10  2  8 17 36.9920000  0 11G26G21G16G27G20G18G 7G 5G29G31G10
  18082329.671    95023287.056         639.158          41.000  
  18758539.204    98576776.205         596.558          41.000  
  18292566.430    96128092.305        2653.741          38.000  
  20012679.881   105167338.0292       4151.369          37.000  
  19681182.930   103425290.721        1258.788          38.000  
  20611092.556   108312027.861        3923.265          35.000  
  22990451.179   120815632.3212       4144.068          33.000  
  22486200.474   118165780.5393      -1413.217          34.000  
  20902333.101   109842494.362       -1827.128          39.000  
  22293804.176                       -2237.398          27.000  
  22832066.110                        4999.996          19.000  
 16 10  2  8 17 37.9920000  0 11G26G21G16G27G20G18G 7G 5G29G31G10
  18082208.257    95022648.531         638.778          40.000  
  18758425.750    98576180.113         596.470          41.000  
  18292062.248    96125439.119        2654.102          37.000  
  20011891.447   105163187.2762       4152.276          36.000  
  19680943.634   103424032.828        1258.659          38.000  
  20610345.820   108308104.560        3922.515          34.000  
  22989659.801   120811489.7282       4144.992          32.000  
  22486468.690   118167195.3152      -1414.982          38.000  
  20902680.781   109844320.888       -1826.810          37.000  
  22294228.830   117156962.9133      -2238.919          28.000  
  22831111.234                        4999.996          18.000  
 16 10  2  8 17 38.9920000  0 11G26G21G16G27G20G18G 7G 5G29G31G10
  18082087.139    95022010.576         636.979          40.000  
  18758312.369    98575584.261         595.551          39.000  
  18291558.061    96122786.725        2652.686          33.000  
  20011097.683   105159037.0732       4149.835          35.000  
  19680704.528   103422775.323        1258.267          37.000  
  20609598.154   108304181.026        3923.278          33.000  
  22988869.560   120807347.7452       4144.409          31.000  
  22486739.066   118168610.3672      -1413.679          33.000  
  20903028.408   109846147.186       -1826.281          36.000  
  22294649.558                       -2237.665          26.000  
  22830153.597                        4999.996          17.000  
 16 10  2  8 17 39.9920000  0 11G26G21G16G27G20G18G 7G 5G29G31G10
  18081965.925    95021373.090         636.885          40.000  
  18758198.957    98574988.611         595.607          37.000  
  18291054.435    96120134.887        2651.642          35.000  
  20010308.931   105154887.2362       4150.072          38.000  
  19680465.247   103421518.105        1256.997          36.000  
  20608851.746   108300257.515        3923.912          36.000  
  22988086.574   120803206.5572       4140.956          29.000  
  22487002.738   118170025.8302      -1414.886          30.000  
  20903376.068   109847973.153       -1825.015          35.000  
  22295076.080                       -2237.531          26.000  
  22829202.187                        4999.996          14.000  
 16 10  2  8 17 40.9920000  0 11G26G21G16G27G20G18G 7G 5G29G31G10
  18081844.845    95020736.281         636.340          40.000  
  18758085.458    98574393.491         595.019          39.000  
  18290549.706    96117483.426        2650.586          37.000  
  20009519.515   105150737.2932       4149.793          38.000  
  19680226.405   103420261.791        1255.197          38.000  
  20608104.280   108296334.710        3922.829          35.000  
  22987296.727                        4141.276          28.000  
  22487275.122   118171441.6342      -1416.764          36.000  
  20903723.488   109849799.542       -1827.083          37.000  
  22295504.697                       -2236.436          27.000  
  22828249.838                        4999.996          14.000  
 16 10  2  8 17 41.9920000  0 11G26G21G16G27G20G18G 7G 5G29G31G10
  18081723.765    95020100.111         636.118          40.000  
  18757972.221    98573798.884         594.222          38.000  
  18290044.929    96114832.385        2649.884          35.000  
  20008729.388   105146587.4342       4149.805          35.000  
  19679987.243   103419006.102        1254.014          35.000  
  20607360.656   108292412.309        3922.383          35.000  
  22986507.552   120794911.5383       4140.159          28.000  
  22487548.564   118172857.5672      -1417.177          38.000  
  20904071.161   109851626.123       -1827.165          36.000  
  22295925.716   117165904.8022      -2235.254          26.000  
  22827298.452                        4999.996          14.000  
 16 10  2  8 17 42.9920000  0 10G26G21G16G27G20G18G 7G 5G29G31
  18081603.072    95019464.756         634.684          38.000  
  18757859.225    98573204.989         593.346          36.000  
  18289540.181    96112182.174        2649.286          36.000  
  20007940.216   105142438.037        4149.189          36.000  
  19679748.500   103417751.550        1253.673          35.000  
  20606612.735   108288490.363        3922.572          32.000  
  22985724.798                        4140.303          27.000  
  22487815.021   118174274.4372      -1417.379          34.000  
  20904418.874   109853453.124       -1827.207          36.000  
  22296360.582                       -2237.117          26.000  
 16 10  2  8 17 43.9920000  0 10G26G21G16G27G20G18G 7G 5G29G31
  18081482.326    95018830.118         633.622          37.000  
  18757746.549    98572611.451         592.826          37.000  
  18289036.149    96109532.591        2649.213          34.000  
  20007150.570   105138289.053        4148.690          35.000  
  19679509.851   103416497.397        1252.802          34.000  
  20605866.373   108284568.657        3921.358          33.000  
  22984939.767   120786658.8372       4139.105          27.000  
  22488083.660   118175691.5072      -1418.050          36.000  
  20904766.731   109855280.067       -1827.375          35.000  
  22296785.558                       -2236.880          26.000  
 16 10  2  8 17 44.9920000  0 10G26G21G16G27G20G18G 7G 5G29G31
  18081361.630    95018195.965         634.093          38.000  
  18757633.641    98572018.355         593.308          37.000  
  18288532.081    96106883.688        2649.127          35.000  
  20006360.925   105134140.287        4148.896          36.000  
  19679271.243   103415244.029        1253.414          34.000  
  20605120.245   108280646.974        3921.540          32.000  
  22984150.311                        4137.492          25.000  
  22488352.967   118177109.7732      -1418.375          28.000  
  20905114.530   109857107.143       -1827.040          35.000  
  22297209.474                       -2237.501          25.000  
 16 10  2  8 17 45.9920000  0 10G26G21G16G27G20G18G 7G 5G29G31
  18081241.090    95017562.532         632.636          38.000  
  18757520.811    98571425.689         591.917          36.000  
  18288028.215    96104235.514        2647.784          35.000  
  20005571.626   105129991.986        4147.506          36.000  
  19679032.653   103413991.100        1252.578          34.000  
  20604373.853   108276725.400        3921.247          33.000  
  22983370.590                        4138.041          24.000  
  22488628.103   118178537.9753      -1418.774          35.000  
  20905462.131   109858934.124       -1827.200          35.000  
  22297637.864   117174872.4912      -2238.540          25.000  
 16 10  2  8 17 46.9920000  0 10G26G21G16G27G20G18G 7G 5G29G31
  18081120.563    95016929.527         632.671          38.000  
  18757408.132    98570833.349         592.301          36.000  
  18287524.656    96101587.601        2647.821          36.000  
  20004782.027   105125843.567        4148.066          36.000  
  19678794.524   103412738.930        1251.948          35.000  
  20603627.568   108272804.194        3921.285          33.000  
  22982583.060                        4134.303          23.000  
  22488893.841   118179956.2772      -1417.718          31.000  
  20905809.763   109860761.290       -1826.960          35.000  
  22298064.709                       -2239.052          25.000  
 16 10  2  8 17 47.9920000  0 10G26G21G16G27G20G18G 7G 5G29G31
  18080999.910    95016297.030         632.303          38.000  
  18757295.134    98570241.384         592.206          36.000  
  18287021.088    96098940.155        2647.201          36.000  
  20003992.578   105121695.232        4148.214          36.000  
  19678556.570   103411487.384        1251.594          36.000  
  20602881.286   108268883.171        3920.861          33.000  
  22981796.419                        4142.230          22.000  
  22489168.424   118181375.3432      -1418.190          29.000  
  20906157.468   109862588.589       -1827.029          35.000  
  22298490.385                       -2235.670          24.000  
 16 10  2  8 17 48.9920000  0 10G26G21G16G27G20G18G 7G 5G29G31
  18080879.572    95015665.231         631.685          39.000  
  18757182.558    98569649.587         591.664          33.000  
  18286517.677    96096293.448        2646.066          37.000  
  20003203.293   105117547.547        4147.819          37.000  
  19678318.218   103410235.924        1250.648          36.000  
  20602134.701   108264962.057        3921.334          36.000  
  22981003.350                        4139.463          23.000  
  22489435.467   118182794.0382      -1419.471          33.000  
  20906505.556   109864415.394       -1827.623          35.000  
  22298914.764                       -2237.244          25.000  
 16 10  2  8 17 49.9920000  0 10G26G21G16G27G20G18G 7G 5G29G31
  18080759.450    95015034.205         630.994          38.000  
  18757070.480    98569058.572         591.388          36.000  
  18286014.095    96093647.252        2645.725          37.000  
  20002414.212   105113399.893        4147.278          36.000  
  19678080.443   103408985.535        1250.480          36.000  
  20601389.884   108261041.724        3920.464          36.000  
  22980215.169                        4138.365          22.000  
  22489706.812                       -1422.270          27.000  
  20906853.195   109866242.673       -1827.192          35.000  
  22299339.604                       -2237.145          25.000  
 16 10  2  8 17 50.9920000  0 10G26G21G16G27G20G18G 7G 5G29G31
  18080639.191    95014403.775         629.923          38.000  
  18756958.138    98568467.434         590.299          38.000  
  18285510.780    96091001.905        2644.900          37.000  
  20001625.258   105109253.120        4147.310          37.000  
  19677842.428   103407734.986        1248.960          35.000  
  20600642.420   108257120.968        3920.217          35.000  
  22979426.606                        4138.309          22.000  
  22489974.717                       -1419.569          27.000  
  20907200.566   109868068.994       -1826.756          36.000  
  22299766.336   117186062.1723      -2237.638          25.000  
 16 10  2  8 17 51.9920000  0 10G26G21G16G27G20G18G 7G 5G29G31
  18080519.243    95013773.507         630.776          38.000  
  18756845.589    98567876.758         591.397          35.000  
  18285007.333    96088356.421        2646.233          38.000  
  20000835.728   105105105.579        4148.381          36.000  
  19677604.621   103406485.448        1248.853          35.000  
  20599895.117   108253200.738        3919.194          34.000  
  22978638.648                        4134.614          23.000  
  22490251.123                       -1420.462          27.000  
  20907548.211   109869896.070       -1827.265          36.000  
  22300192.375                       -2237.726          25.000  
 16 10  2  8 17 52.9920000  0 10G26G21G16G27G20G18G 7G 5G29G31
  18080399.567    95013143.827         629.606          41.000  
  18756733.163    98567286.397         591.127          37.000  
  18284503.967    96085711.567        2645.815          40.000  
  20000046.611   105100958.451        4147.041          40.000  
  19677366.757   103405236.442        1250.040          37.000  
  20599151.809   108249280.623        3920.032          38.000  
  22977856.765                        4138.166          23.000  
  22490516.703                       -1419.575          32.000  
  20907896.038   109871723.106       -1825.955          39.000  
  22300616.105                       -2236.661          25.000  
 16 10  2  8 17 53.9920000  0 10G26G21G16G27G20G18G 7G 5G29G31
  18080279.644    95012515.051         628.206          40.000  
  18756620.965    98566696.742         589.874          37.000  
  18284000.891    96083067.716        2643.434          40.000  
  19999257.575   105096811.936        4145.603          39.000  
  19677129.254   103403988.304        1248.184          37.000  
  20598405.014   108245360.796        3919.097          37.000  
  22977068.798                        4145.653          23.000  
  22490787.714   118189884.0083      -1421.806          32.000  
  20908244.020   109873550.292       -1826.436          38.000  
  22301042.529                       -2238.549          25.000  
 16 10  2  8 17 54.9920000  0 10G26G21G16G27G20G18G 7G 5G29G31
  18080160.139    95011887.008         627.431          41.000  
  18756509.075    98566107.517         589.042          37.000  
  18283498.016    96080424.440        2642.404          38.000  
  19998468.694   105092665.769        4146.344          38.000  
  19676891.764   103402740.733        1247.960          37.000  
  20597659.191   108241441.493        3918.744          35.000  
  22976277.542                        4136.819          24.000  
  22491045.961                       -1419.969          27.000  
  20908591.401   109875377.572       -1826.564          38.000  
  22301471.750                       -2239.561          26.000  
 16 10  2  8 17 55.9920000  0 10G26G21G16G27G20G18G 7G 5G29G31
  18080040.617    95011259.743         625.989          40.000  
  18756396.939    98565518.858         587.684          37.000  
  18282995.152    96077781.802        2641.480          40.000  
  19997679.839   105088519.907        4145.470          37.000  
  19676654.364   103401493.966        1245.420          36.000  
  20596913.173   108237522.609        3917.859          37.000  
  22975492.456                        4135.343          26.000  
  22491327.254                       -1422.534          32.000  
  20908939.021   109877205.132       -1827.677          36.000  
  22301898.022                       -2238.035          26.000  
 16 10  2  8 17 56.9920000  0 10G26G21G16G27G20G18G 7G 5G29G31
  18079921.267    95010633.168         626.370          39.000  
  18756284.808    98564930.693         588.056          37.000  
  18282492.667    96075139.766        2641.690          40.000  
  19996890.823   105084374.335        4145.788          39.000  
  19676417.064   103400247.853        1245.256          37.000  
  20596169.473   108233604.248        3918.210          35.000  
  22974703.195   120732892.2662       4134.067          27.000  
  22491592.651                       -1422.271          26.000  
  20909286.779   109879032.897       -1828.072          35.000  
  22302325.174                       -2235.527          25.000  
 16 10  2  8 17 57.9920000  0 10G26G21G16G27G20G18G 7G 5G29G31
  18079802.334    95010007.261         625.734          40.000  
  18756173.019    98564342.951         587.258          38.000  
  18281990.341    96072498.521        2640.906          40.000  
  19996101.854   105080229.236        4145.618          39.000  
  19676180.149   103399002.414        1244.086          40.000  
  20595424.503   108229685.893        3918.852          34.000  
  22973914.748   120728736.5453       4133.121          31.000  
  22491871.176   118195538.9642      -1423.364          31.000  
  20909634.564   109880860.633       -1828.884          38.000  
  22302749.696                       -2245.438          25.000  
 16 10  2  8 17 58.9920000  0 10G26G21G16G27G20G18G 7G 5G29G31
  18079683.156    95009381.567         625.519          40.000  
  18756061.424    98563755.549         586.875          38.000  
  18281487.929    96069857.484        2640.493          42.000  
  19995313.026   105076083.908        4145.516          38.000  
  19675943.597   103397757.829        1243.553          37.000  
  20594677.541   108225767.750        3917.712          37.000  
  22973138.752   120724602.2182       4132.449          32.000  
  22492143.157   118196962.4502      -1425.119          31.000  
  20909982.843   109882688.771       -1828.474          38.000  
  22303177.768                       -2230.803          24.000  
 16 10  2  8 17 59.9920000  0 10G26G21G16G27G20G18G 7G 5G29G31
  18079564.495    95008756.669         624.748          40.000  
  18755949.613    98563168.473         586.935          38.000  
  18280985.698    96067217.273        2640.118          40.000  
  19994524.592   105071939.267        4145.050          38.000  
  19675706.964   103396513.562        1243.850          38.000  
  20593930.351   108221849.523        3917.986          34.000  
  22972341.834                        4134.812          26.000  
  22492410.776   118198385.9992      -1423.870          29.000  
  20910330.385   109884516.349       -1827.624          37.000  
  22303602.169                       -2237.198          24.000  
 16 10  2  8 18  0.9920000  0 10G26G21G16G27G20G18G 7G 5G29G31
  18079445.934    95008132.204         624.712          39.000  
  18755837.890    98562581.931         586.882          38.000  
  18280483.092    96064577.427        2640.431          39.000  
  19993735.650   105067794.324        4145.808          40.000  
  19675470.612   103395270.194        1243.075          37.000  
  20593185.450   108217931.664        3918.047          35.000  
  22971561.197                        4133.773          26.000  
  22492678.534                       -1423.536          28.000  
  20910678.272   109886344.517       -1828.274          37.000  
  22304029.006                       -2227.739          22.000  
 16 10  2  8 18  1.9920000  0 10G26G21G16G27G20G18G 7G 5G29G31
  18079327.258    95007508.315         624.648          39.000  
  18755726.177    98561995.626         587.038          37.000  
  18279980.709    96061938.100        2639.572          40.000  
  19992946.769   105063649.797        4144.479          39.000  
  19675233.992   103394027.126        1243.482          36.000  
  20592440.217   108214013.957        3918.197          36.000  
  22970780.736                        4135.265          25.000  
  22492953.446   118201267.4233      -1423.389          28.000  
  20911026.143   109888172.461       -1827.165          35.000  
  22304453.509                       -2220.219          21.000  
 16 10  2  8 18  2.9920000  0 10G26G21G16G27G20G18G 7G 5G29G31
  18079208.849    95006885.070         623.430          39.000  
  18755614.576    98561409.785         586.529          39.000  
  18279478.660    96059299.598        2638.210          39.000  
  19992158.276   105059505.717        4143.787          39.000  
  19674997.976   103392785.016        1242.923          40.000  
  20591694.721   108210096.347        3917.374          34.000  
  22969994.539                        4138.096          24.000  
  22493219.272   118202692.6832      -1424.241          30.000  
  20911374.031   109890000.578       -1827.362          33.000  
  22304877.809                       -2208.203          19.000  
 16 10  2  8 18  3.9920000  0 10G26G21G16G27G20G18G 7G 5G29G31
  18079090.396    95006262.386         622.302          38.000  
  18755503.320    98560824.457         585.509          39.000  
  18278976.604    96056661.483        2637.510          41.000  
  19991369.814   105055361.608        4143.894          37.000  
  19674761.813   103391543.595        1241.307          38.000  
  20590949.340   108206179.034        3916.514          37.000  
  22969211.029                        4132.785          26.000  
  22493492.453                       -1427.637          30.000  
  20911721.847   109891828.866       -1827.950          35.000  
  22305298.690                       -2234.550          19.000  
 16 10  2  8 18  4.9920000  0 10G26G21G16G27G20G18G 7G 5G29G31
  18078972.507    95005640.270         621.377          39.000  
  18755392.169    98560239.456         583.999          36.000  
  18278474.647    96054023.977        2636.673          41.000  
  19990581.511   105051217.891        4143.966          37.000  
  19674525.615   103390302.567        1239.556          36.000  
  20590204.085   108202261.900        3917.124          35.000  
  22968420.045                        4130.259          32.000  
  22493767.714                       -1426.179          30.000  
  20912069.641   109893656.970       -1828.437          31.000  
  22305725.013                       -2234.564          22.000  
 16 10  2  8 18  5.9920000  0 10G26G21G16G27G20G18G 7G 5G29G31
  18078854.127    95005019.031         621.562          39.000  
  18755280.638    98559655.123         584.037          36.000  
  18277972.771    96051387.265        2636.955          41.000  
  19989792.976   105047074.571        4143.661          37.000  
  19674289.615   103389062.515        1239.476          36.000  
  20589458.979   108198345.398        3916.824          38.000  
  22967625.662                        4131.578          29.000  
  22494029.235                       -1422.217          30.000  
  20912416.782                       -1830.039          26.000  
  22306154.600   117219632.6393      -2236.498          27.000  
 16 10  2  8 18  6.9920000  0 10G26G21G16G27G20G18G 7G 5G29G31
  18078736.065    95004398.377         621.080          38.000  
  18755169.597    98559071.192         583.593          38.000  
  18277471.121    96048751.039        2636.309          40.000  
  19989004.716   105042931.404        4143.674          37.000  
  19674053.793   103387823.169        1238.691          35.000  
  20588713.970   108194428.974        3915.939          36.000  
  22966848.692                        4133.615          29.000  
  22494306.595   118208378.9783      -1425.632          30.000  
  20912762.973   109897320.3213      -1828.414          32.000  
  22306574.961                       -2237.913          25.000  
 16 10  2  8 18  7.9920000  0 10G26G21G16G27G20G18G 7G 5G29G31
  18078618.183    95003778.397         620.173          40.000  
  18755058.590    98558487.786         583.643          38.000  
  18276969.311    96046115.364        2635.865          41.000  
  19988216.658   105038788.361        4143.449          38.000  
  19673818.127   103386584.654        1239.001          35.000  
  20587968.910   108190513.168        3916.014          35.000  
  22966053.013                        4132.453          28.000  
  22494576.480   118209797.2462      -1424.886          29.000  
  20913109.855   109899149.4472      -1828.890          31.000  
  22307005.087                       -2237.753          26.000  
 16 10  2  8 18  8.9920000  0 10G26G21G16G27G20G18G 7G 5G29G31
  18078500.372    95003158.943         618.898          39.000  
  18754947.779    98557904.858         583.165          37.000  
  18276468.175    96043480.242        2634.522          40.000  
  19987428.556   105034645.472        4141.990          38.000  
  19673582.493   103385346.896        1238.707          35.000  
  20587223.510   108186597.415        3916.105          36.000  
  22965256.520                        4130.357          26.000  
  22494849.067   118211225.2922      -1427.664          30.000  
  20913462.014   109900978.5502      -1827.168          32.000  
  22307434.246                       -2238.760          26.000  
 16 10  2  8 18  9.9920000  0 10G26G21G16G27G20G18G 7G 5G29G31
  18078382.667    95002540.017         618.121          39.000  
  18754836.938    98557322.160         582.351          38.000  
  18275966.911    96040845.899        2633.719          41.000  
  19986640.234   105030503.163        4141.663          37.000  
  19673347.109   103384109.475        1236.665          34.000  
  20586478.446   108182681.571        3915.591          35.000  
  22964476.296                        4128.651          27.000  
  22495115.518                       -1429.646          29.000  
  20913810.418   109902807.4402      -1829.371          31.000  
  22307857.437                       -2236.113          26.000  
 16 10  2  8 18 10.9920000  0 10G26G21G16G27G20G18G 7G 5G29G31
  18078264.668    95001921.801         617.561          40.000  
  18754726.086    98556739.868         581.417          38.000  
  18275465.631    96038211.972        2633.505          40.000  
  19985852.148   105026361.002        4142.249          38.000  
  19673108.724   103382872.564        1235.521          34.000  
  20585733.544   108178766.186        3915.043          36.000  
  22963687.927                        4127.210          26.000  
  22495397.379                       -1428.632          28.000  
  20914159.126   109904636.4672      -1830.189          32.000  
  22308281.334   117230809.1782      -2237.350          27.000  
 16 10  2  8 18 11.9920000  0 10G26G21G16G27G20G18G 7G 5G29G31
  18078147.073    95001304.245         616.823          40.000  
  18754615.563    98556157.934         581.943          38.000  
  18274964.496    96035578.780        2632.563          40.000  
  19985063.879   105022219.314        4141.559          35.000  
  19672870.945   103381636.264        1235.074          33.000  
  20584988.366   108174850.992        3914.314          35.000  
  22962908.743                        4128.559          26.000  
  22495661.217   118215539.1373      -1431.114          28.000  
  20914505.817   109906465.3292      -1830.688          32.000  
  22308706.741                       -2236.741          27.000  
 16 10  2  8 18 12.9920000  0 10G26G21G16G27G20G18G 7G 5G29G31
  18078029.588    95000687.096         617.279          40.000  
  18754504.928    98555576.475         581.623          38.000  
  18274463.435    96032946.016        2633.186          41.000  
  19984275.344   105018077.711        4141.855          36.000  
  19672639.994   103380400.685        1235.486          34.000  
  20584243.381   108170935.954        3915.126          36.000  
  22962123.890                        4128.650          31.000  
  22495936.446   118216968.6472      -1429.337          27.000  
  20914850.553   109908294.496       -1828.873          32.000  
  22309127.923   117235281.4432      -2237.066          29.000  
 16 10  2  8 18 13.9920000  0 10G26G21G16G27G20G18G 7G 5G29G31
  18077912.205    95000070.859         616.046          40.000  
  18754394.340    98554995.752         581.198          38.000  
  18273962.891    96030314.041        2631.887          41.000  
  19983487.270   105013936.315        4140.482          35.000  
  19672405.540   103379166.222        1235.259          34.000  
  20583498.333   108167021.466        3914.838          35.000  
  22961336.204   120662646.8413       4127.283          31.000  
  22496212.859                       -1429.705          26.000  
  20915200.552   109910124.052       -1828.774          33.000  
  22309552.436   117237518.4412      -2236.414          29.000  
 16 10  2  8 18 14.9920000  0 10G26G21G16G27G20G18G 7G 5G29G31
  18077795.031    94999455.121         614.604          39.000  
  18754284.055    98554415.317         580.433          36.000  
  18273462.369    96027682.516        2630.874          41.000  
  19982699.463   105009795.079        4140.598          35.000  
  19672171.782   103377932.116        1234.322          34.000  
  20582753.446   108163107.081        3914.080          36.000  
  22960555.919   120658519.0502       4129.537          31.000  
  22496485.922                       -1429.962          26.000  
  20915549.114   109911953.464       -1829.673          33.000  
  22309985.791   117239755.4322      -2236.482          30.000  
 16 10  2  8 18 15.9920000  0 10G26G21G16G27G20G18G 7G 5G29G31
  18077677.892    94998839.764         614.589          41.000  
  18754173.847    98553835.170         579.787          38.000  
  18272961.645    96025051.343        2630.121          41.000  
  19981911.351   105005653.920        4140.643          34.000  
  19671937.466   103376698.798        1232.351          34.000  
  20582008.811   108159192.960        3913.847          36.000  
  22959763.120   120654392.0322       4126.375          26.000  
  22496757.373                       -1430.114          27.000  
  20915896.249   109913783.274       -1831.388          29.000  
  22310410.900   117241992.2112      -2236.211          31.000  
 16 10  2  8 18 16.9920000  0  9G26G21G16G27G20G18G 7G29G31
  18077560.947    94998225.227         614.470          40.000  
  18754063.263    98553255.534         578.878          37.000  
  18272460.996    96022421.124        2630.055          41.000  
  19981123.202   105001513.439        4141.462          34.000  
  19671700.643   103375466.021        1231.795          33.000  
  20581263.919   108155278.940        3913.127          35.000  
  22958986.738   120650289.6273       4126.317          32.000  
  20916247.762   109915612.776       -1830.529          32.000  
  22310829.921                       -2234.260          30.000  
 16 10  2  8 18 17.9920000  0  9G26G21G16G27G20G18G 7G29G31
  18077444.165    94997611.449         613.747          43.000  
  18753952.911    98552676.591         578.772          39.000  
  18271960.582    96019791.385        2629.697          43.000  
  19980335.344   104997373.039        4141.077          37.000  
  19671468.018   103374234.281        1231.403          36.000  
  20580519.453   108151365.680        3912.958          36.000  
  22958191.703   120646163.4112       4127.127          32.000  
  20916593.985   109917443.002       -1831.678          32.000  
  22311254.910                       -2236.783          30.000  
 16 10  2  8 18 18.9920000  0 10G26G21G16G27G20G18G 7G 5G29G31
  18077327.553    94996998.261         613.795          39.000  
  18753843.126    98552097.962         579.285          35.000  
  18271460.287    96017162.326        2629.315          39.000  
  19979544.654   104993233.027        4140.004          33.000  
  19671231.650   103373002.980        1231.938          34.000  
  20579774.861   108147452.434        3914.638          33.000  
  22957403.328   120642037.8352       4124.746          30.000  
  22497571.162                       -1430.442          23.000  
  20916944.418   109919283.9263      -1828.924          31.000  
  22311686.994   117248672.5373      -2236.470          29.000  
 16 10  2  8 18 19.9920000  0 10G26G21G16G27G20G18G 7G 5G29G31
  18077211.073    94996385.854         612.233          39.000  
  18753733.086    98551520.037         578.427          35.000  
  18270959.848    96014534.091        2628.178          39.000  
  19978758.953   104989093.463        4139.134          33.000  
  19670997.194   103371772.625        1231.566          29.000  
  20579030.241   108143539.511        3913.290          32.000  
  22956618.764   120637912.8002       4124.968          28.000  
  22497847.375                       -1433.284          22.000  
  20917292.391   109921114.2422      -1829.395          31.000  
  22312108.769   117250909.6432      -2238.309          29.000  
 16 10  2  8 18 20.9920000  0 10G26G21G16G27G20G18G 7G 5G29G31
  18077094.615    94995773.894         611.166          38.000  
  18753623.320    98550942.198         577.993          37.000  
  18270459.603    96011906.140        2627.126          40.000  
  19977971.307   104984953.886        4138.661          33.000  
  19670762.710   103370542.662        1229.951          34.000  
  20578285.605   108139626.799        3912.444          33.000  
  22955841.316   120633787.8282       4124.252          30.000  
  22498118.777                       -1429.686          22.000  
  20917641.561   109922944.2532      -1829.175          32.000  
  22312534.751   117253146.7222      -2237.492          29.000  
 16 10  2  8 18 21.9920000  0 10G26G21G16G27G20G18G 7G 5G29G31
  18076978.229    94995162.363         610.543          39.000  
  18753513.451    98550364.568         576.246          37.000  
  18269959.835    96009278.678        2626.367          42.000  
  19977183.667   104980814.545        4138.921          33.000  
  19670530.529   103369313.042        1228.382          33.000  
  20577540.949   108135714.111        3911.094          33.000  
  22955053.853   120629663.2022       4123.990          32.000  
  22498392.474                       -1439.710          22.000  
  20917989.876   109924774.2222      -1831.090          33.000  
  22312960.628   117255383.8372      -2237.856          29.000  
 16 10  2  8 18 22.9920000  0 10G26G21G16G27G20G18G 7G29G31G10
  18076861.913    94994551.790         610.149          43.000  
  18753403.724    98549787.826         576.119          41.000  
  18269460.333    96006652.040        2626.236          43.000  
  19976397.176   104976675.648        4139.574          37.000  
  19670295.661   103368084.699        1226.664          33.000  
  20576796.406   108131802.109        3911.748          37.000  
  22954260.963   120625539.2922       4123.156          30.000  
  20918337.986   109926604.8732      -1831.791          35.000  
  22313387.863   117257621.1142      -2235.997          34.000  
  22788187.823                        4997.209          11.000  
 16 10  2  8 18 23.9920000  0 10G26G21G16G27G20G18G 7G29G31G10
  18076745.668    94993941.881         609.989          40.000  
  18753294.125    98549211.380         575.625          37.000  
  18268960.538    96004026.136        2625.748          41.000  
  19975608.385   104972537.148        4139.186          34.000  
  19670063.795   103366856.564        1227.463          34.000  
  20576051.620   108127890.167        3911.253          34.000  
  22953487.669   120621415.7272       4123.531          34.000  
  20918684.202   109928435.1672      -1831.248          32.000  
  22313814.869   117259858.4302      -2235.687          33.000  
  22787229.235                        5044.084          12.000  
 16 10  2  8 18 24.9920000  0 11G26G21G16G27G20G18G 7G 5G29G31G10
  18076629.848    94993332.664         608.801          40.000  
  18753184.487    98548635.564         575.623          39.000  
  18268460.721    96001400.736        2625.386          40.000  
  19974823.462   104968398.935        4139.069          34.000  
  19669829.492   103365629.394        1226.469          33.000  
  20575306.763   108123978.774        3910.815          34.000  
  22952702.402   120617291.9771       4123.458          32.000  
  22499215.162                       -1426.266          24.000  
  20919035.707   109930265.9302      -1831.605          31.000  
  22314240.993   117262126.9573      -2236.290          31.000  
  22786282.550                        4997.209          16.000  
 16 10  2  8 18 25.9920000  0 11G26G21G16G27G20G18G 7G 5G29G31G10
  18076514.377    94992723.890         608.992          39.000  
  18753074.971    98548059.953         576.172          39.000  
  18267961.250    95998776.052        2624.813          40.000  
  19974032.241   104964261.058        4138.760          32.000  
  19669595.436   103364402.707        1226.652          34.000  
  20574562.489   108120067.170        3912.123          34.000  
  22951919.173                        4118.556          28.000  
  22499493.185                       -1436.022          24.000  
  20919380.308   109932096.4172      -1829.045          30.000  
  22314665.659   117264364.2842      -2238.203          31.000  
  22785336.293                        4997.209          17.000  
 16 10  2  8 18 26.9920000  0 11G26G21G16G27G20G18G 7G 5G29G31G10
  18076398.611    94992115.957         607.928          41.000  
  18752965.297    98547485.189         575.583          41.000  
  18267461.775    95996151.933        2623.857          42.000  
  19973246.812   104960123.318        4137.871          35.000  
  19669362.993   103363177.171        1226.715          36.000  
  20573818.195   108116156.312        3911.901          37.000  
  22951140.876                        4122.233          27.000  
  22499764.763   118237061.7473      -1437.220          35.000  
  20919729.560   109933927.6912      -1829.749          29.000  
  22315093.112   117266601.5632      -2237.834          31.000  
  22784386.758                        4997.209          16.000  
 16 10  2  8 18 27.9920000  0 11G26G21G16G27G20G18G 7G 5G29G31G10
  18076282.723    94991508.518         606.844          39.000  
  18752856.121    98546910.722         574.217          40.000  
  18266962.405    95993528.267        2623.224          40.000  
  19972458.409   104955985.673        4137.863          32.000  
  19669127.923   103361952.246        1225.079          36.000  
  20573074.190   108112245.776        3910.983          36.000  
  22950360.880                        4122.670          26.000  
  22500030.064   118238498.4032      -1438.296          26.000  
  20920077.273   109935758.9992      -1831.685          32.000  
  22315513.197   117268838.9502      -2237.955          30.000  
  22783436.042                        4997.209          14.000  
 16 10  2  8 18 28.9920000  0 11G26G21G16G27G20G18G 7G 5G29G31G10
  18076167.324    94990901.640         606.538          39.000  
  18752746.885    98546336.584         573.619          41.000  
  18266463.313    95990905.215        2622.290          41.000  
  19971673.115   104951848.400        4136.820          33.000  
  19668896.506   103360727.924        1223.252          38.000  
  20572330.419   108108335.292        3910.232          40.000  
  22949584.015                        4122.159          31.000  
  22500306.370   118239935.3362      -1437.464          33.000  
  20920427.296   109937590.3042      -1831.878          33.000  
  22315943.424   117271076.2242      -2237.672          33.000  
  22782486.667                        4997.209          14.000  
 16 10  2  8 18 29.9920000  0 11G26G21G16G27G20G18G 7G 5G29G31G10
  18076051.896    94990295.189         606.011          41.000  
  18752637.406    98545762.771         573.099          41.000  
  18265964.360    95988282.593        2622.466          42.000  
  19970886.451   104947711.182        4137.711          38.000  
  19668663.024   103359504.149        1222.516          38.000  
  20571586.545   108104424.951        3909.687          39.000  
  22948781.425                        4119.999          28.000  
  22500575.408   118241372.8432      -1437.734          36.000  
  20920775.190   109939421.6492      -1832.100          36.000  
  22316370.242   117273313.2342      -2236.269          33.000  
  22781537.413                        4997.209          16.000  
 16 10  2  8 18 30.9920000  0 11G26G21G16G27G20G18G 7G 5G29G31G10
  18075936.511    94989689.232         605.722          41.000  
  18752528.204    98545189.213         573.122          39.000  
  18265465.492    95985660.467        2622.190          42.000  
  19970096.680   104943574.178        4137.334          38.000  
  19668432.270   103358280.837        1222.533          36.000  
  20570842.646   108100514.701        3910.020          40.000  
  22948016.464                        4120.354          38.000  
  22500849.874   118242810.6612      -1438.204          36.000  
  20921122.653   109941252.852       -1831.295          36.000  
  22316794.797   117275550.2102      -2238.280          34.000  
  22780589.341                        4997.209          16.000  
 16 10  2  8 18 31.9920000  0 11G26G21G16G27G20G18G 7G 5G29G31G10
  18075821.190    94989084.335         605.267          40.000  
  18752419.243    98544616.550         573.234          38.000  
  18264966.521    95983039.317        2621.140          41.000  
  19969310.720   104939437.622        4137.074          38.000  
  19668200.180   103357058.703        1223.042          36.000  
  20570098.549   108096604.845        3909.552          38.000  
  22947216.708   120588436.7773       4121.304          35.000  
  22501123.379   118244249.5062      -1437.144          32.000  
  20921469.118   109943084.597       -1831.357          33.000  
  22317221.639   117277787.1242      -2238.449          33.000  
  22779639.819                        4997.209          17.000  
 16 10  2  8 18 32.9920000  0 11G26G21G16G27G20G18G 7G 5G29G31G10
  18075706.201    94988479.816         603.918          40.000  
  18752310.186    98544044.319         571.670          38.000  
  18264467.898    95980418.394        2620.343          41.000  
  19968523.614   104935300.889        4135.520          37.000  
  19667968.035   103355837.366        1221.237          34.000  
  20569354.662   108092695.559        3909.199          38.000  
  22946424.614   120584317.0392       4119.689          32.000  
  22501396.285   118245688.6202      -1439.859          32.000  
  20921819.419   109944916.698       -1833.143          31.000  
  22317649.357   117280023.9162      -2238.202          32.000  
  22778691.757                        4997.209          16.000  
 16 10  2  8 18 33.9920000  0 11G26G21G16G27G20G18G 7G 5G29G31G10
  18075591.629    94987875.876         603.116          43.000  
  18752201.219    98543472.599         570.639          39.000  
  18263969.233    95977797.978        2619.495          42.000  
  19967736.664   104931164.225        4136.406          39.000  
  19667735.550   103354616.900        1219.344          35.000  
  20568610.784   108088786.752        3908.421          38.000  
  22945645.828   120580197.7672       4118.788          38.000  
  22501673.815   118247128.3272      -1440.654          37.000  
  20922171.550   109946749.079       -1833.889          35.000  
  22318072.162   117282260.7682      -2236.583          36.000  
  22777742.211                        4997.209          16.000  
 16 10  2  8 18 34.9920000  0 10G26G21G16G27G20G18G 7G 5G29G31
  18075476.803    94987272.826         602.733          42.000  
  18752092.320    98542901.413         569.766          38.000  
  18263470.813    95975178.564        2619.102          41.000  
  19966949.933   104927028.418        4136.457          38.000  
  19667503.089   103353397.045        1218.199          37.000  
  20567867.223   108084878.125        3907.693          38.000  
  22944858.800   120576079.3242       4116.094          32.000  
  22501947.444   118248568.5022      -1441.669          35.000  
  20922518.081   109948574.4613      -1833.800          32.000  
  22318497.218   117284497.9202      -2236.177          38.000  
 16 10  2  8 18 35.9920000  0 11G26G21G16G27G20G18G 7G 5G29G31G10
  18075362.273    94986670.588         602.227          41.000  
  18751983.717    98542331.018         570.872          39.000  
  18262972.524    95972559.975        2618.160          41.000  
  19966162.666   104922892.966        4134.926          38.000  
  19667271.366   103352178.401        1218.487          37.000  
  20567123.531   108080969.905        3908.778          38.000  
  22944076.480   120571961.6952       4116.281          35.000  
  22502220.064   118250009.9692      -1441.711          31.000  
  20922866.901   109950407.5652      -1832.862          32.000  
  22318921.138   117286734.8612      -2236.769          36.000  
  22775839.184                        5001.115          20.000  
 16 10  2  8 18 36.9920000  0 11G26G21G16G27G20G18G 7G 5G29G31G10
  18075247.831    94986068.829         601.517          40.000  
  18751875.185    98541760.986         570.532          39.000  
  18262474.168    95969941.778        2618.246          40.000  
  19965375.583   104918757.498        4134.819          38.000  
  19667039.498   103350960.321        1218.489          36.000  
  20566379.784   108077061.971        3908.937          35.000  
  22943294.414   120567844.1222       4120.295          37.000  
  22502493.574   118251450.9911      -1441.444          31.000  
  20923216.098   109952242.5943      -1831.658          31.000  
  22319346.982   117288971.817       -2238.259          36.000  
  22774889.208                        5001.115          20.000  
 16 10  2  8 18 37.9920000  0 11G26G21G16G27G20G18G 7G 5G29G31G10
  18075133.364    94985467.664         600.211          43.000  
  18751766.756    98541191.362         568.140          38.000  
  18261975.990    95967324.119        2615.587          40.000  
  19964588.807   104914622.290        4134.000          38.000  
  19666807.751   103349742.750        1217.005          33.000  
  20565636.007   108073154.504        3906.973          32.000  
  22942510.241   120563726.9402       4115.839          32.000  
  22502765.691   118252892.732       -1442.381          29.000  
  20923570.080                       -1832.730          25.000  
  22319774.344   117291209.035       -2238.445          36.000  
  22773937.735                        5001.115          21.000  
 16 10  2  8 18 38.9920000  0 11G26G21G16G27G20G18G 7G 5G29G31G10
  18075019.180    94984867.101         600.289          44.000  
  18751658.650    98540621.838         568.577          37.000  
  18261477.781    95964707.078        2616.915          41.000  
  19963802.143   104910487.504        4135.310          38.000  
  19666576.078   103348525.534        1216.602          35.000  
  20564890.005   108069246.709        3906.451          38.000  
  22941722.817   120559610.3572       4116.186          32.000  
  22503044.267   118254334.897       -1443.189          29.000  
  20923914.485                       -1834.522          26.000  
  22320199.921   117293445.905       -2236.691          38.000  
  22772987.577                        5001.115          20.000  
 16 10  2  8 18 39.9920000  0 10G26G21G16G27G20G18G 7G 5G29G31
  18074905.141    94984267.173         599.535          41.000  
  18751550.420    98540053.027         568.136          37.000  
  18260980.013    95962090.688        2616.130          39.000  
  19963015.637   104906352.987        4134.393          34.000  
  19666344.658   103347309.267        1214.792          36.000  
  20564146.799   108065339.461        3906.191          36.000  
  22940940.921   120555494.1702       4116.508          28.000  
  22503315.443   118255777.632       -1443.154          28.000  
  20924260.976                       -1832.374          28.000  
  22320625.357   117295682.907       -2236.729          36.000  
 16 10  2  8 18 40.9920000  0 10G26G21G16G27G20G18G 7G 5G29G31
  18074791.193    94983667.985         599.035          45.000  
  18751442.411    98539484.824         567.855          41.000  
  18260482.288    95959474.893        2616.062          45.000  
  19962228.701   104902218.589        4134.205          39.000  
  19666112.954   103346093.937        1215.399          36.000  
  20563404.458   108061432.698        3907.775          38.000  
  22940157.373                        4115.067          33.000  
  22503590.881   118257221.057       -1442.868          29.000  
  20924607.384                       -1833.604          28.000  
  22321050.732   117297919.967       -2236.660          38.000  
 16 10  2  8 18 41.9920000  0 10G26G21G16G27G20G18G 7G 5G29G31
  18074676.981    94983069.596         597.665          42.000  
  18751334.535    98538917.325         566.896          41.000  
  18259984.703    95956859.691        2614.469          42.000  
  19961441.573   104898084.337        4133.007          39.000  
  19665881.848   103344879.598        1213.841          38.000  
  20562662.123   108057526.588        3906.290          39.000  
  22939377.200   120547239.8273       4115.090          35.000  
  22503866.375   118258664.884       -1444.885          31.000  
  20924962.469                       -1831.314          33.000  
  22321476.635   117300157.008       -2238.136          37.000  
 16 10  2  8 18 42.9920000  0 10G26G21G16G27G20G18G 7G 5G29G31
  18074563.184    94982471.738         597.455          40.000  
  18751226.617    98538350.061         566.799          38.000  
  18259487.236    95954245.193        2614.573          40.000  
  19960654.937   104893950.566        4134.033          38.000  
  19665651.068   103343665.734        1212.743          39.000  
  20561919.204   108053620.562        3905.782          37.000  
  22938593.231   120543124.9442       4115.259          34.000  
  22504146.426   118260109.204       -1445.335          31.000  
  20925308.809   109963239.9542      -1835.151          28.000  
  22321902.562   117302394.258       -2236.778          34.000  
 16 10  2  8 18 43.9920000  0 10G26G21G16G27G20G18G 7G 5G29G31
  18074449.630    94981874.784         596.955          42.000  
  18751118.706    98537783.439         565.919          37.000  
  18258989.835    95951631.740        2613.776          41.000  
  19959868.357   104889817.679        4133.669          33.000  
  19665420.324   103342452.589        1212.455          35.000  
  20561174.441   108049714.620        3905.687          34.000  
  22937813.100   120539011.2572       4113.916          31.000  
  22504419.368   118261554.454       -1445.693          31.000  
  20925655.476   109965073.8842      -1834.729          29.000  
  22322331.097   117304631.676       -2237.320          33.000  
 16 10  2  8 18 44.9920000  0 10G26G21G16G27G20G18G 7G 5G29G31
  18074336.074    94981278.575         596.042          42.000  
  18751010.682    98537217.450         565.866          37.000  
  18258492.797    95949018.863        2612.473          39.000  
  19959082.047   104885684.828        4133.174          34.000  
  19665189.722   103341240.383        1212.055          36.000  
  20560430.663   108045809.279        3905.699          34.000  
  22937027.545                        4112.847          24.000  
  22504690.505   118263000.165       -1446.596          32.000  
  20926007.867   109966908.2582      -1834.383          32.000  
  22322751.465   117306869.066       -2237.412          33.000  
 16 10  2  8 18 45.9920000  0 10G26G21G16G27G20G18G 7G 5G29G31
  18074222.714    94980682.939         595.418          43.000  
  18750903.084    98536651.924         566.448          38.000  
  18257995.439    95946406.296        2612.167          41.000  
  19958295.369   104881551.930        4132.059          38.000  
  19664959.218   103340028.995        1212.115          37.000  
  20559688.180   108041904.547        3905.659          34.000  
  22936245.707                        4114.028          32.000  
  22504964.806   118264446.214       -1447.716          27.000  
  20926352.517   109968742.9732      -1834.273          32.000  
  22323179.872   117309106.523       -2237.707          34.000  
 16 10  2  8 18 46.9920000  0 11G26G21G16S20G27G20G18G 7G 5G29G31
  18074109.733    94980087.778         594.163          40.000  
  18750795.675    98536086.913         564.464          38.000  
  18257498.565    95943794.152        2610.990          39.000  
  36250048.217   190495288.4893       1363.887          32.000  
  19957509.093   104877418.978        4132.020          35.000  
  19664728.772   103338818.528        1209.829          36.000  
  20558945.247   108038000.112        3903.570          30.000  
  22935468.090   120526671.2743       4112.229          26.000  
  22505237.787   118265892.680       -1446.957          32.000  
  20926708.819   109970577.9912      -1835.825          31.000  
  22323607.382   117311343.820       -2237.760          35.000  
 16 10  2  8 18 47.9920000  0 11G26G21G16S20G27G20G18G 7G 5G29G31
  18073996.571    94979493.202         594.113          43.000  
  18750688.044    98535522.195         564.282          40.000  
  18257001.307    95941182.586        2611.577          40.000  
  36249788.341   190493922.7502       1365.551          33.000  
  19956722.883   104873286.332        4133.024          38.000  
  19664498.470   103337608.384        1209.749          38.000  
  20558202.492   108034095.821        3903.398          32.000  
  22934687.119                        4114.755          26.000  
  22505520.203   118267339.383       -1446.887          36.000  
  20927059.030   109972412.8392      -1835.939          36.000  
  22324031.857   117313581.037       -2237.295          36.000  
 16 10  2  8 18 48.9920000  0 11G26G21G16S20G27G20G18G 7G 5G29G31
  18073883.447    94978898.991         593.793          41.000  
  18750580.537    98534957.620         564.114          38.000  
  18256504.455    95938571.565        2610.812          39.000  
  36249528.614   190492556.693        1365.432          33.000  
  19955936.560   104869153.940        4132.695          36.000  
  19664268.110   103336398.736        1209.399          36.000  
  20557460.058   108030181.2873       3903.139          32.000  
  22933907.451                        4111.778          27.000  
  22505794.378   118268786.741       -1448.189          33.000  
  20927401.699   109974247.5152      -1835.211          33.000  
  22324458.113   117315817.829       -2236.797          36.000  
 16 10  2  8 18 49.9920000  0 11G26G21G16S20G27G20G18G 7G 5G29G31
  18073770.482    94978305.652         593.567          41.000  
  18750473.451    98534393.734         564.438          37.000  
  18256007.391    95935961.248        2610.556          39.000  
  36249268.973   190491191.109        1365.625          34.000  
  19955150.144   104865021.917        4132.187          36.000  
  19664038.003   103335189.866        1209.166          37.000  
  20556715.371   108026277.3282       3905.150          32.000  
  22933124.293                        4108.757          27.000  
  22506067.629   118270234.239       -1447.646          32.000  
  20927755.123   109976082.4402      -1834.466          33.000  
  22324883.698   117318055.062       -2236.631          35.000  
 16 10  2  8 18 50.9920000  0 11G26G21G16S20G27G20G18G 7G 5G29G31
  18073657.612    94977712.799         593.027          41.000  
  18750366.560    98533830.398         563.461          38.000  
  18255510.959    95933351.288        2609.504          39.000  
  36249009.175   190489825.386        1365.512          33.000  
  19954363.836   104860889.728        4132.087          35.000  
  19663808.486   103333982.071        1208.625          36.000  
  20555971.818   108022373.8692       3903.926          32.000  
  22932338.360                        4111.157          27.000  
  22506340.638   118271682.684       -1449.311          32.000  
  20928101.572   109977917.8872      -1835.371          34.000  
  22325308.878   117320291.846       -2235.813          33.000  
 16 10  2  8 18 51.9920000  0 11G26G21G16S20G27G20G18G 7G 5G29G31
  18073544.998    94977120.420         591.780          41.000  
  18750259.560    98533267.426         562.156          37.000  
  18255014.323    95930741.888        2608.819          39.000  
  36248749.142   190488459.128        1366.090          33.000  
  19953577.522   104856757.769        4131.418          35.000  
  19663578.611   103332774.968        1206.284          35.000  
  20555229.858   108018470.4072       3902.526          31.000  
  22931551.271                        4109.330          27.000  
  22506616.770   118273131.813       -1451.179          31.000  
  20928450.654   109979753.4162      -1836.578          33.000  
  22325734.901   117322528.506       -2236.926          34.000  
 16 10  2  8 18 52.9920000  0 12G26G21G16S20G27G20G18G 7G 5G29G31G10
  18073432.378    94976529.062         591.356          39.000  
  18750152.706    98532705.080         562.264          37.000  
  18254518.087    95928133.441        2608.269          39.000  
  36248488.945   190487094.2883       1366.269          32.000  
  19952791.291   104852626.536        4131.807          35.000  
  19663348.861   103331568.482        1206.065          35.000  
  20554488.254   108014567.5682       3901.478          32.000  
  22930772.867                        4109.706          27.000  
  22506900.089   118274580.952       -1448.950          28.000  
  20928799.913   109981589.0502      -1836.305          34.000  
  22326160.631   117324765.618       -2237.073          33.000  
  22759656.556                        5003.503          30.000  
 16 10  2  8 18 53.9920000  0 12G26G21G16S20G27G20G18G 7G 5G29G31G10
  18073320.084    94975938.467         590.035          38.000  
  18750045.744    98532143.346         561.260          37.000  
  18254021.765    95925525.871        2607.299          39.000  
  36248228.781   190485727.3942       1365.156          32.000  
  19952005.029   104848495.872        4130.568          35.000  
  19663119.450   103330362.917        1205.305          35.000  
  20553743.589   108010664.7882       3902.023          36.000  
  22929990.830                        4109.682          27.000  
  22507167.566   118276031.261       -1450.167          32.000  
  20929145.701   109983424.9342      -1836.407          32.000  
  22326584.246   117327002.703       -2237.983          33.000  
  22758703.026   119597791.3993       5003.564          29.000  
 16 10  2  8 18 54.9920000  0 12G26G21G16S20G27G20G18G 7G 5G29G31G10
  18073207.720    94975348.468         590.346          40.000  
  18749939.125    98531581.973         562.137          37.000  
  18253525.394    95922918.969        2607.280          38.000  
  36247969.212   190484361.6472       1366.188          32.000  
  19951218.956   104844365.503        4129.798          36.000  
  19662889.875   103329157.831        1205.527          36.000  
  20553002.709   108006762.1302       3903.458          37.000  
  22929207.753                        4111.178          27.000  
  22507451.178   118277481.710       -1449.431          37.000  
  20929499.555   109985260.733       -1833.807          32.000  
  22327013.326   117329239.706       -2236.250          34.000  
  22757748.985                        5005.171          27.000  
 16 10  2  8 18 55.9920000  0 12G26G21G16S20G27G20G18G 7G 5G29G31G10
  18073095.513    94974758.862         589.462          42.000  
  18749832.193    98531020.931         561.479          37.000  
  18253029.378    95920312.366        2606.899          40.000  
  36247709.483   190482995.6982       1366.422          33.000  
  19950432.944   104840235.085        4130.451          36.000  
  19662660.814   103327953.465        1203.658          33.000  
  20552259.754   108002859.7882       3901.849          35.000  
  22928425.337                        4108.500          27.000  
  22507728.111   118278932.550       -1451.118          32.000  
  20929848.950   109987096.720       -1836.162          36.000  
  22327435.502   117331476.548       -2237.038          36.000  
  22756796.718                        5005.158          26.000  
 16 10  2  8 18 56.9920000  0 12G26G21G16S20G27G20G18G 7G 5G29G31G10
  18072983.509    94974170.223         588.616          41.000  
  18749725.611    98530460.709         560.748          37.000  
  18252533.775    95917706.531        2605.511          38.000  
  36247449.648   190481630.2202       1365.036          33.000  
  19949647.187   104836105.062        4129.381          34.000  
  19662431.690   103326750.146        1204.189          34.000  
  20551517.589   107998958.2382       3902.736          31.000  
  22927637.552                        4108.900          27.000  
  22508009.525   118280387.9633      -1452.498          27.000  
  20930198.132   109988933.238       -1835.882          33.000  
  22327862.510   117333713.823       -2237.209          35.000  
  22755843.121                        5001.854          25.000  
 16 10  2  8 18 57.9920000  0 12G26G21G16S20G27G20G18G 7G 5G29G31G10
  18072871.547    94973582.118         587.846          41.000  
  18749619.120    98529900.822         560.032          37.000  
  18252037.943    95915101.189        2605.252          38.000  
  36247189.978   190480264.6422       1365.754          32.000  
  19948861.037   104831975.158        4130.133          34.000  
  19662202.910   103325547.544        1201.616          32.000  
  20550772.608   107995056.9292       3901.991          33.000  
  22926862.431                        4106.183          26.000  
  22508285.149                       -1450.113          27.000  
  20930547.774   109990769.739       -1836.547          33.000  
  22328287.182   117335950.988       -2236.597          33.000  
  22754889.683                        5003.878          25.000  
 16 10  2  8 18 58.9920000  0 12G26G21G16S20G27G20G18G 7G 5G29G31G10
  18072759.799    94972994.470         586.372          40.000  
  18749512.972    98529341.362         558.369          37.000  
  18251542.337    95912496.265        2603.900          38.000  
  36246930.003   190478898.9332       1365.261          32.000  
  19948075.315   104827845.263        4128.987          36.000  
  19661975.110                        1201.080          32.000  
  20550032.101   107991155.8812       3900.245          33.000  
  22926085.312                        4098.219          26.000  
  22508555.292                       -1458.871          25.000  
  20930897.288   109992606.610       -1836.855          33.000  
  22328717.991   117338187.902       -2237.460          34.000  
  22753935.708   119572738.5623       5003.974          27.000  
 16 10  2  8 18 59.9920000  0 12G26G21G16S20G27G20G18G 7G 5G29G31G10
  18072648.041    94972407.741         586.225          42.000  
  18749406.488    98528782.403         558.242          39.000  
  18251046.762    95909892.236        2603.546          40.000  
  36246670.223   190477533.5922       1365.109          31.000  
  19947289.635   104823716.186        4129.034          36.000  
  19661747.806   103323174.3293       1200.226          35.000  
  20549290.348   107987255.1532       3899.601          31.000  
  22925303.256                        4113.604          26.000  
  22508841.125                       -1455.648          30.000  
  20931246.188   109994443.393       -1838.352          33.000  
  22329139.350   117340425.350       -2237.822          35.000  
  22752982.959   119567735.2212       5001.665          26.000  
 16 10  2  8 19  0.9920000  0 11G26G21G16S20G27G20G18G 7G 5G29G31
  18072536.632    94971821.751         585.969          41.000  
  18749300.239    98528224.184         557.506          38.000  
  18250551.787    95907288.983        2603.633          39.000  
  36246410.522   190476167.938        1365.505          32.000  
  19946503.742   104819587.387        4129.615          36.000  
  19661511.418   103321974.0102       1199.086          32.000  
  20548547.060   107983354.966        3898.763          30.000  
  22924526.146                        4107.759          26.000  
  22509115.177                       -1453.842          24.000  
  20931600.098   109996280.649       -1837.440          32.000  
  22329564.429   117342662.670       -2236.999          32.000  
 16 10  2  8 19  1.9920000  0 12G26G21G16S20G27G20G18G 7G 5G29G31G10
  18072425.299    94971236.208         585.294          41.000  
  18749194.235    98527666.239         557.427          38.000  
  18250056.413    95904686.189        2602.900          39.000  
  36246150.854   190474802.063        1365.731          31.000  
  19945718.081   104815458.697        4127.799          36.000  
  19661288.986   103320774.2942       1198.930          34.000  
  20547804.891   107979454.689        3900.321          29.000  
  22923750.249                        4109.377          26.000  
  22509391.152                       -1453.100          25.000  
  20931942.150   109998117.875       -1837.351          27.000  
  22329991.640   117344899.779       -2237.001          33.000  
  22751075.924                        5004.052          27.000  
 16 10  2  8 19  2.9920000  0 11G26G21G16S20G27G20G18G 7G29G31G10
  18072314.031    94970651.390         585.361          41.000  
  18749088.140    98527108.887         557.715          38.000  
  18249561.246    95902084.011        2602.825          40.000  
  36245891.208   190473436.473        1366.086          31.000  
  19944932.303   104811330.199        4129.244          35.000  
  19661060.520   103319575.5082       1198.648          34.000  
  20547067.836                        3893.799          33.000  
  22922973.888                        4105.757          24.000  
  20932294.826   109999955.599       -1838.979          29.000  
  22330414.679   117347136.979       -2236.666          36.000  
  22750128.443   119552706.3823       5005.624          33.000  
 16 10  2  8 19  3.9920000  0 11G26G21G16S20G27G20G18G 7G29G31G10
  18072203.277    94970067.337         583.969          41.000  
  18748981.821    98526552.186         557.070          38.000  
  18249066.211    95899482.557        2600.964          39.000  
  36245630.773                        1367.822          30.000  
  19944146.643   104807202.082        4127.376          35.000  
  19660830.890   103318377.4582       1198.938          32.000  
  20546322.418   107971652.8123       3899.953          33.000  
  22922192.553                        4103.550          24.000  
  20932643.405                       -1837.052          25.000  
  22330841.725   117349374.322       -2237.308          33.000  
  22749174.784   119547702.5912       5005.018          32.000  
 16 10  2  8 19  4.9920000  0 12G26G21G16S20G27G20G18G 7G 5G29G31G10
  18072092.129    94969483.880         582.585          39.000  
  18748875.733    98525995.645         555.347          37.000  
  18248571.246    95896881.530        2600.205          35.000  
  36245370.810   190470708.3443       1364.907          32.000  
  19943360.981   104803074.154        4127.431          32.000  
  19660600.990   103317179.7012       1198.159          31.000  
  20545580.385   107967753.6352       3899.800          33.000  
  22921418.025                        4116.212          26.000  
  22510222.872                       -1487.038          26.000  
  20932994.606                       -1840.729          31.000  
  22331265.468   117351611.790       -2237.501          33.000  
  22748225.142   119542698.8672       5003.399          33.000  
 16 10  2  8 19  5.9920000  0 12G26G21G16S20G27G20G18G 7G 5G29G31G10
  18071981.034    94968900.987         582.320          39.000  
  18748770.174    98525439.952         554.633          35.000  
  18248076.465    95894281.243        2599.325          35.000  
  36245110.940   190469342.6802       1365.230          31.000  
  19942574.362   104798946.463        4127.761          32.000  
  19660371.562   103315983.5842       1195.172          32.000  
  20544843.085   107963855.0712       3898.683          28.000  
  22920634.875                        4105.609          26.000  
  22510494.638                       -1453.471          25.000  
  20933348.040                       -1837.248          25.000  
  22331697.287   117353848.855       -2237.339          31.000  
  22747269.023   119537694.8632       5003.050          31.000  
 16 10  2  8 19  6.9920000  0 12G26G21G16S20G27G20G18G 7G 5G29G31G10
  18071870.312    94968318.735         581.885          39.000  
  18748664.438    98524884.490         555.373          37.000  
  18247581.742    95891681.656        2599.656          37.000  
  36244851.218   190467977.0062       1365.948          34.000  
  19941789.483   104794819.292        4127.195          35.000  
  19660146.627   103314787.669        1195.195          35.000  
  20544099.757   107959956.5302       3896.908          34.000  
  22919865.262                        4108.987          32.000  
  22510774.191                       -1447.042          29.000  
  20933693.127   110007299.4313      -1837.852          30.000  
  22332124.243   117356086.067       -2237.673          37.000  
  22746317.424   119532690.6342       5003.518          35.000  
 16 10  2  8 19  7.9920000  0 11G26G21G16S20G27G20G18G 7G29G31G10
  18071759.766    94967737.010         581.013          41.000  
  18748558.869    98524329.600         553.648          37.000  
  18247087.186    95889082.515        2598.967          37.000  
  36244591.325   190466611.0182       1365.907          35.000  
  19941005.254   104790692.054        4127.900          36.000  
  19659921.192   103313592.719        1193.887          37.000  
  20543356.312   107956058.2202       3897.136          32.000  
  22919080.585                        4105.831          26.000  
  20934047.437   110009138.1082      -1839.736          33.000  
  22332547.374   117358322.912       -2237.322          36.000  
  22745367.595   119527686.2092       5003.908          35.000  
 16 10  2  8 19  8.9920000  0 11G26G21G16S20G27G20G18G 7G29G31G10
  18071649.075    94967155.896         581.402          41.000  
  18748453.400    98523775.005         554.892          37.000  
  18246592.690    95886483.890        2598.824          37.000  
  36244331.348   190465245.2442       1365.213          32.000  
  19940220.346   104786565.059        4126.887          38.000  
  19659693.605   103312398.200        1196.010          35.000  
  20542614.245   107952160.3372       3898.318          32.000  
  22918292.746                        4105.961          26.000  
  20934393.419   110010976.6222      -1837.730          36.000  
  22332971.256   117360559.982       -2236.614          35.000  
  22744414.548   119522681.9132       5005.135          32.000  
 16 10  2  8 19  9.9920000  0 12G26G21G16S20G27G20G18G 7G 5G29G31G10
  18071538.483    94966575.646         580.916          40.000  
  18748348.184    98523221.069         554.158          38.000  
  18246098.326    95883886.154        2597.723          39.000  
  36244071.393   190463879.7642       1366.370          33.000  
  19939435.193   104782438.605        4126.880          41.000  
  19659466.808                        1193.359          31.000  
  20541870.447                        3899.235          29.000  
  22917512.589                        4109.406          28.000  
  22511605.230   118299283.3803      -1459.333          34.000  
  20934747.103   110012815.3262      -1837.800          28.000  
  22333397.749   117362797.142       -2236.627          33.000  
  22743459.491                        5005.010          33.000  
 16 10  2  8 19 10.9920000  0 12G26G21G16S20G27G20G18G 7G 5G29G31G10
  18071428.306    94965995.881         579.849          37.000  
  18748242.833    98522667.896         553.302          34.000  
  18245604.216    95881288.637        2597.209          37.000  
  36243811.816   190462516.4923       1366.408          30.000  
  19938650.065   104778311.759        4126.552          37.000  
  19659241.280                        1192.344          26.000  
  20541125.253                        3895.685          28.000  
  22916736.091                        4106.409          28.000  
  22511876.713   118300742.4842      -1459.245          36.000  
  20935092.440   110014654.9792      -1838.439          28.000  
  22333823.043   117365034.070       -2236.006          30.000  
  22742512.698   119512681.2433       5005.852          31.000  
 16 10  2  8 19 11.9920000  0 12G26G21G16S20G27G20G18G 7G 5G29G31G10
  18071318.095    94965416.827         578.478          41.000  
  18748137.542    98522115.257         551.406          37.000  
  18245109.956    95878691.629        2596.367          41.000  
  36243551.797   190461150.7862       1366.000          32.000  
  19937864.629   104774184.993        4126.636          37.000  
  19659008.864   103308818.6503       1190.684          27.000  
  20540385.976                        3895.789          26.000  
  22915955.535   120424155.5023       4107.309          27.000  
  22512152.062   118302202.0752      -1459.766          35.000  
  20935447.010                       -1839.789          30.000  
  22334248.611   117367271.156       -2236.676          31.000  
  22741556.771   119507677.2972       5004.674          31.000  
 16 10  2  8 19 12.9920000  0 12G26G21G16S20G27G20G18G 7G 5G29G31G10
  18071207.908    94964838.320         577.448          41.000  
  18748032.395    98521563.171         551.724          37.000  
  18244616.141    95876095.138        2596.166          39.000  
  36243291.930   190459784.8112       1364.384          33.000  
  19937079.501   104770058.350        4126.131          37.000  
  19658786.925   103307628.0812       1190.845          33.000  
  20539646.927                        3894.707          26.000  
  22915176.516   120420065.0593       4104.402          32.000  
  22512433.632   118303662.4682      -1459.854          32.000  
  20935793.108                       -1840.062          28.000  
  22334674.636   117369507.973       -2238.235          30.000  
  22740607.766   119502673.0492       5003.745          31.000  
 16 10  2  8 19 13.9920000  0 12G26G21G16S20G27G20G18G 7G 5G29G31G10
  18071097.644    94964260.454         577.465          40.000  
  18747927.166    98521010.881         552.112          37.000  
  18244122.161    95873499.375        2595.738          41.000  
  36243032.143   190458419.5932       1365.569          32.000  
  19936294.006   104765932.550        4126.285          36.000  
  19658557.446   103306437.0782       1190.971          32.000  
  20538908.222                        3895.810          26.000  
  22914396.679   120415959.6852       4106.274          32.000  
  22512712.568   118305122.4692      -1461.069          29.000  
  20936142.765                       -1840.444          27.000  
  22335104.866   117371745.421       -2237.531          31.000  
  22739650.958   119497668.9202       5003.803          31.000  
 16 10  2  8 19 14.9920000  0 12G26G21G16S20G27G20G18G 7G 5G29G31G10
  18070988.080    94963682.875         577.254          40.000  
  18747822.187    98520459.210         552.047          38.000  
  18243628.218    95870903.958        2595.483          40.000  
  36242772.150   190457053.3232       1365.643          32.000  
  19935509.043   104761806.433        4126.333          37.000  
  19658330.639   103305247.3292       1189.533          33.000  
  20538165.687                        3894.783          26.000  
  22913608.526   120411855.0642       4106.189          27.000  
  22512986.724   118306583.4212      -1461.400          34.000  
  20936496.102                       -1839.074          26.000  
  22335528.271                       -2236.914          31.000  
  22738700.803   119492664.0432       5003.975          30.000  
 16 10  2  8 19 15.9920000  0 12G26G21G16S20G27G20G18G 7G 5G29G31G10
  18070878.440    94963106.111         576.483          42.000  
  18747717.290    98519907.853         551.729          40.000  
  18243134.482    95868309.225        2594.917          43.000  
  36242512.244   190455687.4542       1366.555          35.000  
  19934724.365   104757680.804        4126.633          39.000  
  19658108.313   103304057.8352       1188.970          36.000  
  20537426.049                        3895.268          26.000  
  22912828.911   120407750.6412       4103.746          29.000  
  22513268.820   118308044.2142      -1461.014          38.000  
  20936836.133                       -1828.616          25.000  
  22335962.544   117376229.9243      -2237.231          31.000  
  22737747.156   119487659.2992       5004.875          31.000  
 16 10  2  8 19 16.9920000  0 12G26G21G16S20G27G20G18G 7G 5G29G31G10
  18070768.735    94962530.057         576.719          42.000  
  18747612.699    98519357.268         551.152          40.000  
  18242641.028    95865715.291        2594.193          41.000  
  36242252.466   190454321.5852       1366.987          34.000  
  19933939.262   104753555.576        4125.875          39.000  
  19657882.329   103302869.4742       1188.460          36.000  
  20536684.446                        3894.886          26.000  
  22912052.332                        4102.086          32.000  
  22513545.432   118309506.0862      -1461.590          35.000  
  20937199.819                       -1836.292          24.000  
  22336379.122   117378466.7722      -2237.656          31.000  
  22736791.961   119482654.3122       5006.237          29.000  
 16 10  2  8 19 17.9920000  0 12G26G21G16S20G27G20G18G 7G 5G29G31G10
  18070659.045    94961954.658         575.504          42.000  
  18747508.095    98518807.347         550.523          40.000  
  18242147.127    95863121.825        2593.469          42.000  
  36241992.750   190452957.1203       1366.281          33.000  
  19933154.106   104749430.296        4124.775          41.000  
  19657657.013   103301682.2842       1187.494          36.000  
  20535943.176                        3896.107          25.000  
  22911268.802                        4100.196          28.000  
  22513824.729   118310968.6522      -1464.049          36.000  
  20937553.914                       -1852.896          23.000  
  22336803.179   117380703.3062      -2235.353          30.000  
  22735845.226   119477649.5392       5005.949          28.000  
 16 10  2  8 19 18.9920000  0 12G26G21G16S20G27G20G18G 7G 5G29G31G10
  18070549.605    94961379.835         574.368          43.000  
  18747403.449    98518257.692         549.131          38.000  
  18241653.811    95860528.825        2592.071          42.000  
  36241732.776   190451591.1662       1366.887          32.000  
  19932368.981   104745305.176        4124.829          41.000  
  19657430.441   103300495.426        1185.138          32.000  
  20535201.824                        3895.039          24.000  
  22910490.626                        4101.091          26.000  
  22514099.897   118312430.7431      -1463.656          38.000  
  20937904.667                       -1839.259          22.000  
  22337233.712                       -2238.227          22.000  
  22734895.256   119472644.8172       5005.417          27.000  
 16 10  2  8 19 19.9920000  0 12G26G21G16S20G27G20G18G 7G 5G29G31G10
  18070440.175    94960805.504         573.154          43.000  
  18747298.952    98517708.425         547.804          40.000  
  18241160.314    95857936.332        2591.231          42.000  
  36241472.821   190450225.1602       1365.534          35.000  
  19931583.736   104741180.220        4123.759          39.000  
  19657205.856   103299309.259        1184.946          37.000  
  20534458.956                        3890.430          25.000  
  22909720.211                        4101.006          26.000  
  22514381.488   118313893.909       -1464.030          35.000  
  20938257.897                       -1832.398          22.000  
  22337673.713                       -2236.785          23.000  
  22733938.013   119467639.7582       5005.460          27.000  
 16 10  2  8 19 20.9920000  0 12G26G21G16S20G27G20G18G 7G 5G29G31G10
  18070330.981    94960231.648         573.412          45.000  
  18747194.611    98517159.426         548.175          41.000  
  18240667.087    95855344.343        2592.308          43.000  
  36241212.712   190448858.9572       1366.093          36.000  
  19930798.913   104737055.500        4124.770          41.000  
  19656979.779   103298123.713        1184.990          33.000  
  20533717.618                        3893.450          26.000  
  22908932.020                        4100.432          26.000  
  22514663.687   118315357.487       -1462.009          35.000  
  20938611.837                       -1829.548          23.000  
  22338085.004                       -2235.584          26.000  
  22732985.155   119462634.5222       5004.471          33.000  
 16 10  2  8 19 21.9920000  0 11G26G21G16S20G27G20G18G 7G 5G31G10
  18070221.965    94959658.127         572.511          43.000  
  18747090.133    98516610.885         547.642          39.000  
  18240174.038    95852752.689        2590.795          42.000  
  36240952.723   190447492.0992       1366.210          32.000  
  19930013.843   104732930.531        4124.641          39.000  
  19656754.145   103296938.997        1183.770          35.000  
  20532977.310                        3891.861          26.000  
  22908144.325                        4094.659          24.000  
  22514936.755   118316821.725       -1462.792          35.000  
  22338517.323                       -2238.613          25.000  
  22732032.146   119457628.8602       5004.545          32.000  
 16 10  2  8 19 22.9920000  0 12G26G21G16S20G27G20G18G 7G 5G29G31G10
  18070113.033    94959085.304         572.334          43.000  
  18746985.666    98516062.705         547.948          41.000  
  18239681.129    95850161.598        2590.820          43.000  
  36240692.501   190446125.6602       1366.694          33.000  
  19929228.815   104728805.901        4124.907          38.000  
  19656528.839   103295754.828        1183.571          36.000  
  20532240.328                        3875.759          23.000  
  22907359.270                        4099.414          34.000  
  22515212.370   118318238.8233      -1463.847          36.000  
  20939319.943                       -1838.039          23.000  
  22338943.713                       -2233.048          25.000  
  22731079.174   119452623.2872       5005.264          31.000  
 16 10  2  8 19 23.9920000  0 12G26G21G16S20G27G20G18G 7G 5G29G31G10
  18070004.238    94958512.935         571.171          44.000  
  18746881.502    98515514.840         546.839          41.000  
  18239188.117    95847570.940        2590.175          43.000  
  36240432.763   190444759.1142       1365.318          34.000  
  19928443.794   104724681.310        4123.963          39.000  
  19656303.711   103294571.222        1182.523          34.000  
  20531500.893                        3887.298          20.000  
  22906580.691                        4098.627          29.000  
  22515494.715   118319703.5892      -1464.720          40.000  
  20939671.624                       -1835.756          23.000  
  22339363.731                       -2237.911          24.000  
  22730122.906   119447617.6182       5004.354          33.000  
 16 10  2  8 19 24.9920000  0 12G26G21G16S20G27G20G18G 7G 5G29G31G10
  18069895.635    94957941.239         571.883          41.000  
  18746777.465    98514967.580         548.003          37.000  
  18238695.302    95844980.932        2590.291          41.000  
  36240172.687   190443391.8171       1367.091          33.000  
  19927659.268   104720557.021        4124.493          37.000  
  19656078.719   103293388.537        1182.901          37.000  
  20530757.688                        3893.975          17.000  
  22905804.212                        4107.144          27.000  
  22515771.825   118321169.0692      -1464.741          37.000  
  20940024.087                       -1836.235          22.000  
  22339812.054                       -2237.564          24.000  
  22729170.021   119442611.847        5005.228          32.000  
 16 10  2  8 19 25.9920000  0 11G26G21G16S20G27G20G18G 7G 5G31G10
  18069787.031    94957370.392         571.160          41.000  
  18746673.402    98514421.041         547.006          39.000  
  18238202.646    95842391.756        2588.950          41.000  
  36239912.626   190442025.130        1367.315          34.000  
  19926874.335   104716433.131        4124.639          38.000  
  19655853.843   103292206.814        1181.167          39.000  
  20530015.352                        3897.430          20.000  
  22905021.093                        4095.162          27.000  
  22516053.272   118322635.3652      -1466.138          40.000  
  22340264.705                       -2236.926          24.000  
  22728215.963   119437606.063        5005.604          31.000  
 16 10  2  8 19 26.9920000  0 11G26G21G16S20G27G20G18G 7G 5G31G10
  18069678.666    94956800.380         570.737          41.000  
  18746569.600    98513875.228         546.359          39.000  
  18237709.840    95839803.160        2588.514          41.000  
  36239652.589                        1366.555          34.000  
  19926089.679   104712309.507        4123.308          38.000  
  19655629.295   103291026.054        1181.471          41.000  
  20529276.509                        3884.923          22.000  
  22904230.383                        4099.518          26.000  
  22516332.574   118324102.0382      -1466.789          34.000  
  22340682.602                       -2242.075          25.000  
  22727264.563   119432600.776        5006.596          31.000  
 16 10  2  8 19 27.9920000  0 11G26G21G16S20G27G20G18G 7G 5G31G10
  18069570.016    94956230.641         569.926          43.000  
  18746465.623    98513329.440         545.856          39.000  
  18237217.310    95837214.731        2587.884          41.000  
  36239392.488   190439292.1433       1367.733          33.000  
  19925305.195   104708185.572        4123.543          38.000  
  19655404.543   103289845.687        1179.921          39.000  
  20528538.003                        3892.274          21.000  
  22903464.232   120358516.3123       4100.314          35.000  
  22516610.926   118325568.3412      -1466.783          33.000  
  22341117.322                       -2225.372          24.000  
  22726313.016   119427595.223        5006.763          31.000  
 16 10  2  8 19 28.9920000  0 12G26G21G16S20G27G20G18G 7G 5G29G31G10
  18069461.547    94955661.734         569.858          41.000  
  18746361.732    98512784.405         545.730          40.000  
  18236724.850    95834627.254        2588.142          42.000  
  36239132.478   190437925.7382       1366.634          33.000  
  19924520.294   104704062.304        4124.441          37.000  
  19655179.874   103288666.323        1179.287          39.000  
  20527797.526                        3896.591          21.000  
  22902689.771   120354417.6622       4099.451          36.000  
  22516894.207   118327077.4343      -1466.943          38.000  
  20941429.070                       -1834.205          23.000  
  22341542.056                       -2239.432          23.000  
  22725357.410   119422589.661        5006.489          32.000  
 16 10  2  8 19 29.9920000  0 11G26G21G16S20G27G20G18G 7G 5G31G10
  18069353.614    94955093.601         568.197          43.000  
  18746258.160    98512240.040         544.209          40.000  
  18236232.507    95832040.142        2586.481          40.000  
  36238872.563   190436559.2752       1367.180          33.000  
  19923736.034   104699938.930        4123.567          39.000  
  19654955.474   103287487.954        1178.197          41.000  
  20527058.210                        3882.936          21.000  
  22901903.533   120350320.0342       4095.587          33.000  
  22517171.423   118328534.3572      -1466.783          38.000  
  22341972.935                       -2237.887          24.000  
  22724406.941   119417584.637        5007.034          31.000  
 16 10  2  8 19 30.9920000  0 11G26G21G16S20G27G20G18G 7G 5G31G10
  18069245.811    94954525.557         567.198          41.000  
  18746154.693    98511695.820         543.633          39.000  
  18235740.255    95829453.198        2585.957          41.000  
  36238612.311   190435192.2172       1366.920          33.000  
  19922950.997   104695815.356        4122.684          39.000  
  19654731.498   103286310.190        1177.245          42.000  
  20526318.802                        3893.177          23.000  
  22901120.678                        4095.747          27.000  
  22517455.271                       -1468.097          39.000  
  22342401.526                       -2236.256          22.000  
  22723457.805   119412578.839        5007.012          31.000  
 16 10  2  8 19 31.9920000  0 11G26G21G16S20G27G20G18G 7G 5G31G10
  18069137.405    94953958.032         566.643          40.000  
  18746051.111    98511151.632         543.185          39.000  
  18235248.323    95826866.850        2585.572          41.000  
  36238352.128   190433825.4142       1366.092          33.000  
  19922166.305   104691692.239        4122.927          40.000  
  19654507.288   103285132.502        1177.173          42.000  
  20525576.188   107862630.0203       3889.198          27.000  
  22900335.756                        4096.686          26.000  
  22517728.891   118331463.9642      -1469.295          34.000  
  22342828.732                       -2233.089          20.000  
  22722506.137   119407572.870        5006.272          32.000  
 16 10  2  8 19 32.9920000  0 11G26G21G16S20G27G20G18G 7G 5G31G10
  18069029.488    94953391.081         566.273          39.000  
  18745947.513    98510608.204         542.743          39.000  
  18234756.554    95824280.955        2585.059          41.000  
  36238092.174   190432458.2542       1365.960          33.000  
  19921381.907   104687568.920        4122.832          39.000  
  19654283.387   103283955.968        1176.281          40.000  
  20524834.367   107858739.6532       3890.149          26.000  
  22899561.439                        4093.646          26.000  
  22518012.924   118332955.6892      -1467.516          34.000  
  22343255.454                       -2240.463          18.000  
  22721553.008   119402566.717        5005.693          31.000  
 16 10  2  8 19 33.9920000  0 11G26G21G16S20G27G20G18G 7G 5G31G10
  18068921.619    94952824.868         565.170          38.000  
  18745844.013    98510065.071         542.327          39.000  
  18234264.542    95821695.792        2584.745          41.000  
  36237831.893   190431091.193        1368.270          34.000  
  19920597.608   104683446.190        4122.696          39.000  
  19654059.489   103282779.806        1175.464          40.000  
  20524092.838   107854835.4163       3889.498          28.000  
  22898782.495                        4092.948          26.000  
  22518289.872   118334425.4252      -1470.880          30.000  
  22343681.016                       -2239.105          17.000  
  22720599.727   119397560.485        5004.870          31.000  
 16 10  2  8 19 34.9920000  0 11G26G21G16S20G27G20G18G 7G 5G31G10
  18068813.895    94952259.015         565.259          37.000  
  18745740.768    98509522.460         542.278          39.000  
  18233772.611    95819111.020        2584.458          41.000  
  36237571.469   190429723.937        1367.327          30.000  
  19919813.106   104679323.354        4123.011          39.000  
  19653835.719   103281604.702        1175.064          38.000  
  20523353.012   107850945.6292       3889.844          33.000  
  22898008.447                        4099.955          26.000  
  22518574.154                       -1467.682          33.000  
  22344107.864                       -2236.039          16.000  
  22719649.669   119392554.205        5005.992          32.000  
 16 10  2  8 19 35.9920000  0 11G26G21G16S20G27G20G18G 7G 5G31G10
  18068706.307    94951694.033         563.840          41.000  
  18745637.611    98508980.316         540.938          40.000  
  18233280.618    95816527.004        2582.979          41.000  
  36237311.540   190428356.933        1366.771          31.000  
  19919028.847   104675200.970        4121.811          40.000  
  19653611.944   103280430.131        1173.823          37.000  
  20522612.200   107847056.2572       3887.698          34.000  
  22897228.011                        4090.585          27.000  
  22518850.585                       -1473.551          29.000  
  22344536.828                       -2239.771          19.000  
  22718699.921   119387547.983        5004.718          32.000  
 16 10  2  8 19 36.9920000  0 10G26G21G16S20G27G20G18G 7G31G10
  18068598.934    94951129.572         563.819          37.000  
  18745534.254    98508438.721         541.366          41.000  
  18232788.850    95813943.340        2583.579          43.000  
  36237051.213   190426989.540        1366.548          30.000  
  19918244.300   104671078.428        4122.299          43.000  
  19653388.671   103279256.577        1173.847          37.000  
  20521869.846   107843167.3122       3888.154          36.000  
  22896446.883                        4093.311          29.000  
  22344967.995                       -2231.145          20.000  
  22717746.060   119382541.449        5008.563          30.000  
 16 10  2  8 19 37.9920000  0  9G26G21G16G27G20G18G 7G31G10
  18068491.559    94950565.824         563.041          44.000  
  18745431.437    98507897.549         541.151          39.000  
  18232297.438    95811360.308        2582.974          43.000  
  19917459.744   104666956.296        4122.035          43.000  
  19653165.449   103278083.562        1172.776          39.000  
  20521130.292   107839278.9612       3889.595          35.000  
  22895660.703   120317508.7003       4092.242          33.000  
  22345388.103                       -2241.654          20.000  
  22716790.992                        5007.544          31.000  
 16 10  2  8 19 38.9920000  0 10G26G21G16G27G20G18G 7G 5G31G10
  18068384.441    94950002.746         562.910          43.000  
  18745328.593    98507356.895         540.725          39.000  
  18231806.056    95808777.728        2582.272          37.000  
  19916675.660   104662834.207        4122.438          38.000  
  19652942.675   103276911.239        1171.889          35.000  
  20520390.943   107835390.9082       3889.578          30.000  
  22894876.698   120313388.7972       4089.350          30.000  
  22519696.149   118341801.8913      -1473.532          36.000  
  22345809.822                       -2233.156          21.000  
  22715836.407   119372525.9333       5006.759          31.000  
 16 10  2  8 19 39.9920000  0 10G26G21G16G27G20G18G 7G 5G31G10
  18068277.658    94949440.443         562.424          42.000  
  18745225.878    98506816.763         540.819          36.000  
  18231314.773    95806195.662        2582.311          38.000  
  19915891.349   104658712.234        4121.940          39.000  
  19652719.763   103275739.736        1171.159          35.000  
  20519649.021                        3888.344          26.000  
  22894099.050                        4090.210          32.000  
  22519969.490   118343272.9272      -1471.524          36.000  
  22346229.076                       -2242.872          21.000  
  22714888.573                        5007.698          30.000  
 16 10  2  8 19 40.9920000  0 10G26G21G16G27G20G18G 7G 5G31G10
  18068170.608    94948878.326         561.841          44.000  
  18745123.102    98506276.769         539.162          42.000  
  18230823.624    95803613.890        2580.951          42.000  
  19915106.654   104654590.203        4121.468          38.000  
  19652496.744   103274568.567        1170.009          36.000  
  20518911.010   107827595.5053       3887.454          37.000  
  22893317.044   120305210.2042       4091.457          32.000  
  22520258.412   118344744.0952      -1470.282          36.000  
  22346653.147                       -2247.012          21.000  
  22713935.491                        5006.191          29.000  
 16 10  2  8 19 41.9920000  0 10G26G21G16G27G20G18G 7G 5G31G10
  18068064.083    94948316.720         560.808          40.000  
  18745020.488    98505737.262         538.855          40.000  
  18230332.245    95801032.536        2580.672          38.000  
  19914322.326   104650468.136        4121.580          38.000  
  19652273.957   103273398.330        1169.419          36.000  
  20518172.121   107823708.4072       3886.590          33.000  
  22892534.471                        4090.804          26.000  
  22520538.189   118346216.2422      -1470.553          29.000  
  22347077.793                       -2239.327          19.000  
  22712980.310                        5005.157          28.000  
 16 10  2  8 19 42.9920000  0 11G26G21G16G27G20G18G 7G 5G29G31G10
  18067957.231    94947755.351         559.960          43.000  
  18744917.795    98505197.698         538.788          41.000  
  18229841.266    95798451.343        2580.896          40.000  
  19913537.509   104646345.943        4122.253          39.000  
  19652051.201   103272228.298        1169.020          37.000  
  20517426.085   107819821.0282       3886.054          33.000  
  22891764.031                        4094.149          31.000  
  22520812.938   118347688.2542      -1471.693          34.000  
  20946339.667                       -1840.836          23.000  
  22347503.938                       -2235.949          17.000  
  22712024.113                        5005.420          27.000  
 16 10  2  8 19 43.9920000  0 11G26G21G16G27G20G18G 7G 5G29G31G10
  18067850.284    94947194.382         560.547          40.000  
  18744815.199    98504658.546         539.329          38.000  
  18229350.024    95795870.525        2580.574          38.000  
  19912752.959   104642223.709        4122.420          38.000  
  19651828.822   103271059.082        1169.355          35.000  
  20516693.058   107815933.9382       3887.043          34.000  
  22890988.201                        4090.473          30.000  
  22521089.880   118349160.7592      -1473.521          30.000  
  20946695.396                       -1840.836          23.000  
  22347925.272                       -2228.878          16.000  
  22711070.262   119347484.2832       5007.015          27.000  
 16 10  2  8 19 44.9920000  0 11G26G21G16G27G20G18G 7G 5G29G31G10
  18067743.222    94946634.095         559.635          40.000  
  18744712.331    98504119.885         537.982          39.000  
  18228858.873    95793290.338        2579.810          38.000  
  19911968.810   104638101.827        4121.723          38.000  
  19651607.287   103269890.396        1168.638          31.000  
  20515951.623   107812047.2512       3885.833          35.000  
  22890205.057   120288850.1002       4089.651          33.000  
  22521366.515                       -1474.741          24.000  
  20947047.712                       -1840.836          23.000  
  22348350.362                       -2242.432          15.000  
  22710120.061                        5006.244          25.000  
 16 10  2  8 19 45.9920000  0 11G26G21G16G27G20G18G 7G 5G29G31G10
  18067637.017    94946074.600         559.475          41.000  
  18744610.066    98503581.637         537.521          39.000  
  18228368.122    95790710.728        2579.186          38.000  
  19911184.580   104633980.162        4121.171          37.000  
  19651380.624   103268722.385        1165.027          31.000  
  20515215.151   107808160.8952       3886.317          36.000  
  22889429.913   120284759.6442       4089.207          34.000  
  22521651.655                       -1475.642          25.000  
  20947404.478                       -1840.836          24.000  
  22348774.209                       -2230.719          15.000  
  22709168.938                        5006.481          25.000  
 16 10  2  8 19 46.9920000  0 10G26G21G16G27G20G18G 7G 5G31G10
  18067530.828    94945515.257         558.360          39.000  
  18744507.621    98503043.616         537.821          37.000  
  18227877.120    95788131.047        2579.780          38.000  
  19910400.000   104629857.818        4122.440          37.000  
  19651161.238                        1167.651          26.000  
  20514473.499   107804275.1762       3886.723          33.000  
  22888645.991   120280669.2452       4090.620          34.000  
  22521932.258   118353552.4413      -1474.034          31.000  
  22349199.065                       -2239.880          13.000  
  22708211.347                        5007.738          25.000  
 16 10  2  8 19 47.9920000  0 10G26G21G16G27G20G18G 7G 5G31G10
  18067424.518    94944956.891         557.602          40.000  
  18744405.383    98502506.101         537.244          41.000  
  18227386.327    95785552.177        2578.336          43.000  
  19909615.244   104625736.418        4121.104          37.000  
  19650939.922   103266382.2673       1167.338          32.000  
  20513733.889   107800389.8132       3885.015          36.000  
  22887871.460   120276579.1912       4090.930          37.000  
  22522216.306   118355026.2842      -1473.522          37.000  
  22349622.836                       -2237.458          16.000  
  22707265.931                        5004.364          23.000  
 16 10  2  8 19 48.9920000  0 10G26G21G16G27G20G18G 7G 5G31G10
  18067318.294    94944399.297         558.386          40.000  
  18744302.997    98501969.111         536.908          41.000  
  18226895.870    95782974.250        2578.596          39.000  
  19908831.044   104621615.429        4121.989          41.000  
  19650717.780   103265216.0872       1165.374          27.000  
  20512995.673   107796503.8841       3886.807          35.000  
  22887094.583   120272489.6672       4088.444          37.000  
  22522490.670   118356500.8232      -1477.171          25.000  
  22350047.508                       -2246.003          16.000  
  22706317.332                        5007.998          26.000  
 16 10  2  8 19 49.9920000  0 10G26G21G16G27G20G18G 7G 5G31G10
  18067212.261    94943842.126         557.715          38.000  
  18744201.156    98501432.386         536.911          40.000  
  18226405.142    95780396.725        2578.043          33.000  
  19908047.080   104617494.637        4120.222          37.000  
  19650499.079                        1164.805          26.000  
  20512255.324   107792618.688        3886.178          33.000  
  22886312.412   120268400.5272       4089.128          33.000  
  22522772.663   118357975.6402      -1474.550          31.000  
  22350474.733                       -2246.003          15.000  
  22705362.868                        5007.808          26.000  
 16 10  2  8 19 50.9920000  0 10G26G21G16G27G20G18G 7G 5G31G10
  18067106.647    94943285.913         555.580          40.000  
  18744099.302    98500896.487         535.026          40.000  
  18225915.016    95777820.202        2576.782          37.000  
  19907262.993   104613374.263        4120.656          37.000  
  19650280.526                        1164.623          26.000  
  20511516.444   107788734.189        3883.638          34.000  
  22885534.946   120264312.0482       4088.448          32.000  
  22523053.737                       -1477.011          24.000  
  22350900.372                       -2229.306          12.000  
  22704408.691                        5006.066          28.000  
 16 10  2  8 19 51.9920000  0  9G26G21G16G27G20G18G 7G31G10
  18067000.864    94942730.108         555.464          40.000  
  18743997.625    98500361.108         535.418          42.000  
  18225424.735    95775243.763        2576.358          41.000  
  19906479.019   104609253.523        4120.475          41.000  
  19650054.070                        1163.405          26.000  
  20510777.479   107784850.281        3883.982          37.000  
  22884758.940   120260223.5522       4089.009          35.000  
  22351324.989                       -2231.817          13.000  
  22703452.113                        5006.947          29.000  
 16 10  2  8 19 52.9920000  0  9G26G21G16G27G20G18G 7G 5G10
  18066895.305    94942174.995         554.830          40.000  
  18743895.932    98499826.104         535.141          43.000  
  18224934.617    95772668.047        2575.774          42.000  
  19905695.028   104605133.227        4120.341          41.000  
  19649831.608                        1164.140          26.000  
  20510038.224   107780966.404        3884.167          35.000  
  22883980.449   120256135.7152       4087.898          31.000  
  22523615.830   118362400.0293      -1475.383          31.000  
  22702499.211                        5005.338          30.000  
 16 10  2  8 19 53.9920000  0  9G26G21G16G27G20G18G 7G 5G10
  18066789.675    94941620.647         554.862          40.000  
  18743794.175    98499291.863         534.257          41.000  
  18224444.521    95770092.922        2575.289          42.000  
  19904910.936   104601013.078        4121.086          40.000  
  19649609.027                        1160.901          26.000  
  20509299.340   107777083.294        3882.390          36.000  
  22883200.597   120252048.0342       4089.154          35.000  
  22523898.447                       -1479.025          31.000  
  22701546.052                        5007.289          24.000  
 16 10  2  8 19 54.9920000  0  9G26G21G16G27G20G18G 7G 5G10
  18066684.491    94941067.102         553.672          41.000  
  18743692.507    98498758.160         533.593          42.000  
  18223954.745    95767518.559        2574.105          39.000  
  19904127.086   104596893.416        4119.397          39.000  
  19649390.094                        1161.255          26.000  
  20508560.255   107773200.452        3883.774          36.000  
  22882421.385                        4086.223          31.000  
  22524174.513   118365335.9283      -1477.977          33.000  
  22700596.569                        5005.689          30.000  
 16 10  2  8 19 55.9920000  0  9G26G21G16G27G20G18G 7G 5G10
  18066579.176    94940513.651         553.358          44.000  
  18743590.688    98498224.415         533.659          45.000  
  18223464.881    95764944.353        2574.011          42.000  
  19903342.926   104592773.610        4120.254          40.000  
  19649164.704   103257056.4923       1161.495          32.000  
  20507821.176   107769317.492        3882.436          38.000  
  22881643.154   120243848.2503       4086.886          35.000  
  22524466.958                       -1454.197          29.000  
  22699646.081                        5004.749          26.000  
 16 10  2  8 19 56.9920000  0  9G26G21G16G27G20G18G 7G 5G10
  18066474.057    94939960.488         553.086          43.000  
  18743489.520    98497690.933         533.589          44.000  
  18222974.852    95762370.274        2573.829          41.000  
  19902558.918   104588653.494        4119.922          38.000  
  19648947.705                        1160.137          27.000  
  20507082.345   107765434.697        3882.829          38.000  
  22880863.240   120239761.3992       4087.955          32.000  
  22524766.024                       -1469.416          30.000  
  22698691.023                        5017.822          27.000  
 16 10  2  8 19 57.9920000  0  8G26G21G16G27G20G18G 7G10
  18066368.814    94939408.041         551.446          41.000  
  18743387.922    98497157.901         532.229          42.000  
  18222485.123    95759796.863        2572.635          41.000  
  19901775.075   104584533.677        4119.255          37.000  
  19648719.809                        1155.791          17.000  
  20506343.417   107761552.217        3881.849          36.000  
  22880095.691   120235675.0592       4087.472          35.000  
  22697743.367                        5002.535          28.000  
 16 10  2  8 19 58.9920000  0  8G26G21G16G27G20G18G 7G10
  18066264.129    94938856.515         551.457          42.000  
  18743286.595    98496625.405         532.409          42.000  
  18221995.766    95757224.402        2572.327          41.000  
  19900991.005   104580414.527        4118.952          37.000  
  19648503.052   103253579.6253       1158.865          33.000  
  20505604.459   107757670.163        3882.094          38.000  
  22879309.036   120231588.9432       4083.899          30.000  
  22696789.112                        5005.103          28.000  
 16 10  2  8 19 59.9920000  0  9G26G21G16G27G20G18G 7G 5G10
  18066158.840    94938305.407         550.653          40.000  
  18743185.210    98496093.148         531.792          42.000  
  18221506.412    95754652.026        2571.722          39.000  
  19900206.917   104576295.183        4119.221          38.000  
  19648289.341   103252420.9832       1157.201          34.000  
  20504865.736   107753788.561        3881.005          35.000  
  22878537.895   120227502.7662       4086.477          34.000  
  22525590.960                       -1476.461          29.000  
  22695836.934                        5022.466          26.000  
 16 10  2  8 20  0.9920000  0  9G26G21G16G27G20G18G 7G 5G10
  18066053.990    94937754.573         550.108          39.000  
  18743083.819    98495561.164         531.634          39.000  
  18221016.994    95752079.917        2571.483          39.000  
  19899422.986   104572175.685        4119.460          34.000  
  19648069.696   103251262.9022       1157.637          29.000  
  20504127.173   107749907.039        3880.921          32.000  
  22877756.895   120223416.8812       4086.251          30.000  
  22525871.654                       -1478.857          30.000  
  22694884.098                        5005.624          26.000  
 16 10  2  8 20  1.9920000  0  8G26G21G16G27G20G18G 7G10
  18065948.956    94937203.910         550.460          40.000  
  18742982.579    98495029.289         531.461          42.000  
  18220527.440    95749507.973        2571.644          39.000  
  19898639.374   104568055.890        4120.781          37.000  
  19647852.672   103250105.3082       1157.629          28.000  
  20503388.694   107746025.407        3881.763          35.000  
  22876982.634   120219331.0462       4085.990          33.000  
  22693934.237                        5004.125          24.000  
 16 10  2  8 20  2.9920000  0  8G26G21G16G27G20G18G 7G10
  18065844.353    94936653.942         550.271          41.000  
  18742881.779    98494497.769         531.332          42.000  
  18220038.124    95746936.566        2571.714          42.000  
  19897855.413   104563936.288        4121.153          37.000  
  19647626.107                        1156.652          28.000  
  20502650.001   107742144.066        3880.780          35.000  
  22876202.517                        4080.237          28.000  
  22692984.236                        4994.664          21.000  
 16 10  2  8 20  3.9920000  0  9G26G21G16G27G20G18G 7G 5G10
  18065739.827    94936104.308         549.210          37.000  
  18742780.809    98493966.371         531.533          38.000  
  18219548.791    95744365.455        2570.876          38.000  
  19897071.984   104559816.858        4119.184          37.000  
  19647403.866                        1155.877          29.000  
  20501911.330   107738262.730        3881.318          31.000  
  22875428.298   120211186.2543       4085.805          29.000  
  22526717.003   118378696.6532      -1479.942          32.000  
  22692031.353                        5010.992          21.000  
 16 10  2  8 20  4.9920000  0  9G26G21G16G27G20G18G 7G 5G10
  18065635.402    94935555.264         548.610          39.000  
  18742679.855    98493435.684         530.759          40.000  
  18219059.624    95741794.940        2570.611          37.000  
  19896287.940   104555697.416        4118.889          36.000  
  19647184.069   103246647.8663       1155.111          29.000  
  20501171.868   107734381.913        3880.434          31.000  
  22874645.398   120207101.2762       4085.124          32.000  
  22526990.493   118380177.1802      -1479.707          35.000  
  22691076.950                        5006.158          23.000  
 16 10  2  8 20  5.9920000  0 10G26G21G16G27G20G18G 7G 5G29G10
  18065531.169    94935007.031         548.732          39.000  
  18742578.898    98492905.542         530.436          38.000  
  18218570.457    95739225.141        2570.115          35.000  
  19895503.963   104551578.359        4119.560          37.000  
  19646965.452   103245492.9672       1154.699          29.000  
  20500435.041   107730501.513        3880.560          31.000  
  22873871.693   120203016.8112       4084.522          32.000  
  22527280.530   118381658.0522      -1481.645          31.000  
  20954407.760                       -1854.776          26.000  
  22690124.797                        5005.246          20.000  
 16 10  2  8 20  6.9920000  0  9G26G21G16G27G20G18G 7G 5G10
  18065426.948    94934459.321         548.122          39.000  
  18742478.046    98492375.817         529.684          36.000  
  18218081.559    95736655.688        2570.544          37.000  
  19894720.180   104547459.195        4121.055          36.000  
  19646746.572   103244338.7972       1154.549          29.000  
  20499694.657   107726621.596        3879.959          30.000  
  22873097.560   120198932.2422       4083.679          30.000  
  22527559.403   118383123.2573      -1482.714          30.000  
  22689171.314                        5010.475          19.000  
 16 10  2  8 20  7.9920000  0  9G26G21G16G27G20G18G 7G 5G10
  18065322.709    94933912.157         546.857          39.000  
  18742377.338    98491846.299         529.306          36.000  
  18217592.440    95734086.632        2568.688          37.000  
  19893936.319   104543340.298        4118.275          36.000  
  19646530.180   103243185.1392       1153.268          31.000  
  20498957.701   107722742.001        3879.972          30.000  
  22872318.193   120194847.9712       4083.306          30.000  
  22527843.217   118384604.4842      -1480.491          30.000  
  22688219.266                        5013.692          16.000  
 16 10  2  8 20  8.9920000  0  8G26G21G16G27G20G18G 7G 5
  18065218.807    94933365.530         545.351          37.000  
  18742276.798    98491317.114         528.904          36.000  
  18217103.726    95731518.212        2568.309          36.000  
  19893152.760   104539221.579        4119.000          35.000  
  19646306.044   103242032.0862       1152.961          32.000  
  20498216.965   107718862.370        3879.236          31.000  
  22871541.128   120190764.1492       4084.649          30.000  
  22528123.827                       -1481.046          29.000  
 16 10  2  8 20  9.9920000  0  8G26G21G16G27G20G18G 7G 5
  18065114.894    94932819.413         545.666          38.000  
  18742176.403    98490788.369         528.027          35.000  
  18216614.880    95728950.157        2567.753          38.000  
  19892368.897   104535102.944        4118.394          35.000  
  19646089.308   103240879.7462       1150.641          35.000  
  20497479.776   107714983.273        3878.944          32.000  
  22870763.757   120186680.3842       4083.902          31.000  
  22528405.216                       -1481.190          28.000  
 16 10  2  8 20 10.9920000  0  9G26G21G16G27G20G18G 7G29G10
  18065010.950    94932274.254         545.703          38.000  
  18742075.939    98490260.256         527.624          35.000  
  18216126.831    95726383.131        2566.817          37.000  
  19891585.276   104530984.950        4119.022          35.000  
  19645869.157   103239727.9452       1150.093          34.000  
  20496741.495   107711104.291        3879.083          32.000  
  22869987.699   120182597.3272       4082.051          30.000  
  20956159.992                       -1849.738          25.000  
  22685360.587                        5011.098          16.000  
 16 10  2  8 20 11.9920000  0  9G26G21G16G27G20G18G 7G29G10
  18064907.402    94931729.593         544.479          38.000  
  18741975.673    98489732.311         527.922          36.000  
  18215638.178    95723816.476        2566.645          36.000  
  19890801.546   104526867.199        4118.210          36.000  
  19645650.833   103238576.7082       1150.182          35.000  
  20496003.329   107707225.623        3877.780          33.000  
  22869211.470                        4082.620          23.000  
  20956506.900                       -1846.781          24.000  
  22684408.071                        5005.761          15.000  
 16 10  2  8 20 12.9920000  0  8G26G21G16G27G20G18G 7G10
  18064803.975    94931185.290         543.760          38.000  
  18741875.419    98489205.003         527.318          36.000  
  18215149.856    95721249.971        2565.934          36.000  
  19890017.566   104522748.859        4117.966          34.000  
  19645431.049   103237426.636        1151.264          35.000  
  20495267.247   107703347.532        3879.290          34.000  
  22868440.450                        4081.973          26.000  
  22683457.145                        4997.392          16.000  
 16 10  2  8 20 13.9920000  0  9G26G21G16G27G20G18G 7G29G10
  18064700.668    94930641.919         542.881          36.000  
  18741775.105    98488678.031         527.020          36.000  
  18214661.894    95718684.603        2565.227          36.000  
  19889234.118   104518631.674        4117.509          34.000  
  19645212.641   103236276.907        1150.121          37.000  
  20494531.170   107699469.474        3878.369          33.000  
  22867660.167                        4081.600          26.000  
  20957205.814                       -1846.920          29.000  
  22682507.494                        5020.306          15.000  
 16 10  2  8 20 14.9920000  0 10G26G21G16G27G20G18G 7G 5G29G10
  18064597.594    94930099.271         542.670          37.000  
  18741675.024    98488151.683         525.878          36.000  
  18214173.439    95716119.573        2565.468          37.000  
  19888450.433   104514514.316        4117.741          35.000  
  19644993.043   103235128.003        1147.223          36.000  
  20493793.171   107695592.253        3876.558          34.000  
  22866878.684   120166282.4133       4081.994          30.000  
  22529838.028                       -1486.740          21.000  
  20957559.227                       -1846.996          29.000  
  22681556.453                        5005.671          15.000  
 16 10  2  8 20 15.9920000  0  9G26G21G16G27G20G18G 7G 5G29
  18064494.296    94929556.991         543.241          37.000  
  18741574.804    98487625.584         526.269          36.000  
  18213685.382    95713554.553        2566.985          34.000  
  19887666.787   104510396.631        4118.296          35.000  
  19644774.526   103233979.801        1148.761          35.000  
  20493054.806   107691715.644        3876.446          33.000  
  22866107.751   120162200.1682       4083.423          30.000  
  22530115.019                       -1485.845          23.000  
  20957911.028                       -1842.998          28.000  
 16 10  2  8 20 16.9920000  0  8G26G21G16G27G20G18G 7G 5
  18064390.890    94929014.761         541.558          38.000  
  18741474.605    98487099.543         525.696          38.000  
  18213197.170    95710990.109        2564.075          37.000  
  19886883.139   104506279.103        4117.356          35.000  
  19644556.141   103232831.969        1148.021          37.000  
  20492316.534   107687838.313        3877.121          38.000  
  22865323.551   120158119.0862       4080.582          32.000  
  22530379.856   118397944.3563      -1483.995          34.000  
 16 10  2  8 20 17.9920000  0 11G26G21G16G27G20G18G 7G 5G29G31G10
  18064287.898    94928473.829         540.121          38.000  
  18741374.597    98486574.543         524.773          38.000  
  18212709.511    95708426.648        2563.174          39.000  
  19886099.756   104502162.189        4116.576          36.000  
  19644338.202   103231685.200        1147.294          38.000  
  20491578.907   107683961.887        3875.936          35.000  
  22864546.996   120154038.2342       4081.854          29.000  
  22530658.373   118399429.6422      -1484.084          34.000  
  20958619.474                       -1847.223          36.000  
  22362309.615                       -2238.386          17.000  
  22678696.033                        5003.673          18.000  
 16 10  2  8 20 18.9920000  0 10G26G21G16G27G20G18G 7G 5G29G31
  18064185.050    94927933.611         540.450          40.000  
  18741274.849    98486050.056         524.302          40.000  
  18212221.817    95705863.698        2562.910          40.000  
  19885316.564   104498045.326        4117.641          36.000  
  19644120.264   103230539.222        1145.820          38.000  
  20490841.270   107680085.979        3876.586          36.000  
  22863769.726   120149957.5642       4079.913          29.000  
  22530942.353   118400915.2732      -1487.427          30.000  
  20958964.181                       -1850.164          32.000  
  22362741.775                       -2233.671          19.000  
 16 10  2  8 20 19.9920000  0  9G26G21G16G27G20G18G 7G29G31
  18064082.335    94927393.616         539.533          40.000  
  18741174.654    98485525.483         523.917          39.000  
  18211734.221    95703301.016        2562.137          41.000  
  19884533.506   104493928.641        4116.286          33.000  
  19643902.282   103229393.381        1145.627          39.000  
  20490103.995   107676210.001        3875.402          39.000  
  22863000.692                        4081.710          30.000  
  20959322.120                       -1846.468          37.000  
  22363168.167                       -2243.237          19.000  
 16 10  2  8 20 20.9920000  0  9G26G21G16G27G20G18G 7G29G31
  18063979.610    94926853.881         539.534          40.000  
  18741074.959    98485001.232         524.445          41.000  
  18211246.548    95700738.469        2562.437          39.000  
  19883749.970   104489811.537        4116.474          34.000  
  19643684.559   103228248.337        1145.697          38.000  
  20489366.206   107672334.212        3876.052          37.000  
  22862217.113   120141798.2863       4080.737          33.000  
  20959670.322                       -1846.790          36.000  
  22363600.645                       -2244.572          18.000  
 16 10  2  8 20 21.9920000  0 11G26G21G16G27G20G18G 7G 5G29G31G10
  18063876.868    94926314.724         539.325          40.000  
  18740975.339    98484477.286         524.161          40.000  
  18210759.217    95698176.502        2561.338          40.000  
  19882966.356   104485694.663        4116.728          34.000  
  19643466.947   103227103.732        1144.324          38.000  
  20488628.392   107668458.656        3876.015          37.000  
  22861449.322   120137718.0592       4079.288          30.000  
  22531795.126                       -1485.346          31.000  
  20960022.714                       -1846.842          36.000  
  22364033.920                       -2241.852          20.000  
  22674906.919                        5000.492          20.000  
 16 10  2  8 20 22.9920000  0 11G26G21G16G27G20G18G 7G 5G29G31G10
  18063774.349    94925776.487         538.041          40.000  
  18740875.678    98483953.749         522.788          41.000  
  18210271.855    95695615.399        2561.317          40.000  
  19882183.107   104481578.589        4116.854          36.000  
  19643249.178   103225959.363        1143.471          38.000  
  20487890.801   107664583.329        3874.617          38.000  
  22860673.721   120133638.0532       4080.605          31.000  
  22532079.373                       -1482.609          30.000  
  20960373.483   110147505.5403      -1847.658          38.000  
  22364464.989                       -2237.376          20.000  
  22673955.737                        5000.492          21.000  
 16 10  2  8 20 23.9920000  0 11G26G21G16G27G20G18G 7G 5G29G31G10
  18063671.781    94925238.381         537.451          42.000  
  18740775.983    98483430.451         522.956          40.000  
  18209784.628    95693054.344        2560.198          39.000  
  19881400.076   104477462.090        4115.678          40.000  
  19643031.543   103224816.053        1143.547          40.000  
  20487152.756   107660708.374        3874.857          40.000  
  22859896.508   120129566.5603       4079.245          26.000  
  22532359.345                       -1485.314          30.000  
  20960728.109                       -1822.728          28.000  
  22364897.080                       -2244.881          22.000  
  22672994.472                        5000.492          18.000  
 16 10  2  8 20 24.9920000  0 11G26G21G16G27G20G18G 7G 5G29G31G10
  18063569.447    94924701.148         537.200          42.000  
  18740676.495    98482907.788         522.621          40.000  
  18209297.218    95690494.028        2560.642          39.000  
  19880616.776   104473345.983        4116.545          41.000  
  19642813.938   103223673.347        1143.138          40.000  
  20486415.488   107656833.811        3874.668          38.000  
  22859110.816   120125487.3142       4079.409          32.000  
  22532641.268   118409834.3853      -1487.833          30.000  
  20961075.670                       -1847.659          37.000  
  22365325.299                       -2233.817          21.000  
  22672039.343                        5000.492          16.000  
 16 10  2  8 20 25.9920000  0 11G26G21G16G27G20G18G 7G 5G29G31G10
  18063467.365    94924164.781         535.671          42.000  
  18740577.147    98482385.597         521.704          40.000  
  18208810.385    95687934.664        2559.357          41.000  
  19879833.759   104469230.567        4115.947          39.000  
  19642595.995   103222531.089        1141.745          39.000  
  20485678.341   107652959.248        3874.167          39.000  
  22858334.344   120121408.6152       4078.743          35.000  
  22532923.468   118411321.6172      -1487.350          30.000  
  20961425.516   110153034.3683      -1847.776          35.000  
  22365751.268                       -2231.464          20.000  
  22671087.283                        5000.492          16.000  
 16 10  2  8 20 26.9920000  0 11G26G21G16G27G20G18G 7G 5G29G31G10
  18063365.145    94923628.643         535.692          43.000  
  18740477.758    98481863.855         521.932          42.000  
  18208323.152    95685375.337        2558.246          41.000  
  19879050.374   104465114.632        4115.381          42.000  
  19642378.979   103221390.024        1141.318          42.000  
  20484941.301   107649085.408        3874.184          40.000  
  22857559.360   120117330.1262       4077.981          35.000  
  22533203.875   118412809.7382      -1488.094          34.000  
  20961775.707                       -1854.197          27.000  
  22366178.440                       -2230.026          20.000  
  22670130.371                        5000.492          19.000  
 16 10  2  8 20 27.9920000  0 11G26G21G16G27G20G18G 7G 5G29G31G10
  18063263.157    94923093.071         535.229          43.000  
  18740378.516    98481342.509         521.377          42.000  
  18207836.229    95682816.510        2558.244          42.000  
  19878267.165   104460998.818        4115.764          43.000  
  19642161.987   103220249.540        1140.894          42.000  
  20484204.055   107645211.718        3874.417          42.000  
  22856781.932   120113251.7802       4078.134          38.000  
  22533489.314   118414298.1282      -1488.729          33.000  
  20962127.046   110156720.6363      -1848.526          39.000  
  22366603.883                       -2237.849          21.000  
  22669175.272                        5000.492          19.000  
 16 10  2  8 20 28.9920000  0 10G26G21G16G27G20G18G 7G 5G29G31
  18063161.391    94922558.592         534.965          43.000  
  18740279.104    98480821.754         520.986          42.000  
  18207349.575    95680258.602        2557.976          42.000  
  19877484.177   104456883.716        4115.397          43.000  
  19641945.061   103219109.657        1139.687          41.000  
  20483467.027   107641338.661        3873.382          40.000  
  22856006.243   120109173.7502       4077.265          33.000  
  22533767.218   118415786.6732      -1486.593          35.000  
  20962477.022   110158569.8282      -1849.529          40.000  
  22367032.772                       -2248.516          22.000  
 16 10  2  8 20 29.9920000  0 10G26G21G16G27G20G18G 7G 5G29G31
  18063059.677    94922024.475         533.020          42.000  
  18740180.363    98480301.214         520.026          42.000  
  18206862.773    95677701.119        2556.743          42.000  
  19876700.543   104452768.712        4114.327          42.000  
  19641728.574   103217970.252        1138.710          41.000  
  20482730.096   107637465.669        3872.552          42.000  
  22855233.274   120105096.2072       4076.603          40.000  
  22534055.029   118417275.6432      -1489.948          32.000  
  20962834.672   110160419.0242      -1849.648          41.000  
  22367464.018                       -2238.988          22.000  
 16 10  2  8 20 30.9920000  0 10G26G21G16G27G20G18G 7G 5G29G31
  18062958.128    94921490.767         533.313          44.000  
  18740081.342    98479781.188         520.142          43.000  
  18206375.937    95675143.965        2557.078          44.000  
  19875917.389   104448653.517        4114.925          43.000  
  19641511.727   103216831.843        1138.204          41.000  
  20481992.994   107633592.977        3872.898          40.000  
  22854456.204   120101018.5071       4077.163          40.000  
  22534341.860   118418765.224       -1489.229          36.000  
  20963188.449   110162268.5492      -1848.156          45.000  
  22367889.405                       -2238.417          23.000  
 16 10  2  8 20 31.9920000  0 10G26G21G16G27G20G18G 7G 5G29G31
  18062856.669    94920957.564         533.574          44.000  
  18739982.206    98479261.410         519.848          44.000  
  18205889.149    95672587.206        2557.065          42.000  
  19875133.845   104444538.436        4115.662          41.000  
  19641295.072   103215693.824        1137.729          42.000  
  20481255.824   107629720.552        3872.206          40.000  
  22853681.145   120096941.402        4075.464          34.000  
  22534625.420   118420254.950       -1490.523          33.000  
  20963539.047                       -1852.930          34.000  
  22368312.740                       -2233.285          22.000  
 16 10  2  8 20 32.9920000  0 10G26G21G16G27G20G18G 7G 5G29G31
  18062755.787    94920424.878         531.966          44.000  
  18739883.280    98478741.919         518.754          43.000  
  18205402.654    95670031.008        2555.340          43.000  
  19874350.970   104440423.580        4114.448          41.000  
  19641079.000   103214556.309        1135.954          42.000  
  20480518.910   107625848.142        3872.221          40.000  
  22852904.922   120092864.501        4076.129          39.000  
  22534909.458   118421745.008       -1491.415          36.000  
  20963887.977   110165974.4893      -1849.242          41.000  
  22368736.504                       -2231.899          21.000  
 16 10  2  8 20 33.9920000  0 11G26G21G16G27G20G18G 7G 5G29G31G10
  18062654.815    94919892.975         530.944          44.000  
  18739784.359    98478222.960         518.255          43.000  
  18204916.424    95667475.528        2554.729          43.000  
  19873568.319   104436309.179        4113.618          40.000  
  19640862.783   103213419.608        1136.875          41.000  
  20479782.383   107621976.295        3871.184          42.000  
  22852129.282   120088788.415        4076.651          40.000  
  22535197.929   118423264.2553      -1488.604          28.000  
  20964237.726   110167824.1322      -1849.692          41.000  
  22369161.184                       -2228.926          20.000  
  22663457.087                        5007.433          23.000  
 16 10  2  8 20 34.9920000  0 11G26G21G16S20G27G20G18G 7G 5G29G31
  18062553.687    94919362.073         530.398          45.000  
  18739685.529    98477705.031         517.762          43.000  
  18204430.319    95664920.774        2553.980          43.000  
  36221947.759   190347620.0793       1368.319          35.000  
  19872785.475   104432194.937        4114.015          41.000  
  19640646.248   103212284.265        1135.357          42.000  
  20479045.892   107618105.547        3870.571          43.000  
  22851353.634   120084712.549        4076.120          38.000  
  22535468.933   118424688.4962      -1491.703          34.000  
  20964591.042   110169674.7182      -1849.751          42.000  
  22369582.407                       -2236.344          21.000  
 16 10  2  8 20 35.9920000  0 10G26G21G16S20G27G20G18G 7G29G31
  18062452.923    94918832.046         530.190          44.000  
  18739587.431    98477187.496         517.516          43.000  
  18203944.592    95662366.878        2554.440          43.000  
  36221687.787   190346251.9822       1368.844          36.000  
  19872002.492   104428081.498        4113.554          41.000  
  19640430.438   103211149.356        1134.022          41.000  
  20478309.450   107614235.022        3870.471          42.000  
  22850578.471   120080637.330        4074.219          38.000  
  20964943.080   110171525.1242      -1851.351          41.000  
  22370004.405                       -2235.277          23.000  
 16 10  2  8 20 36.9920000  0 11G26G21G16S20G27G20G18G 7G 5G29G31
  18062351.824    94918302.492         528.361          44.000  
  18739489.186    98476670.212         516.290          42.000  
  18203458.397    95659813.543        2552.626          43.000  
  36221427.780   190344883.4211       1367.495          37.000  
  19871219.704   104423968.273        4112.471          40.000  
  19640214.445   103210014.854        1133.917          41.000  
  20477572.819   107610364.497        3869.845          42.000  
  22849803.275   120076562.444        4074.622          36.000  
  22536040.899   118427693.7432      -1491.633          37.000  
  20965293.951   110173375.2872      -1850.536          41.000  
  22370425.439                       -2237.755          23.000  
 16 10  2  8 20 37.9920000  0 10G26G21G16S20G27G20G18G 7G29G31
  18062251.195    94917773.387         528.609          45.000  
  18739390.665    98476153.344         516.723          42.000  
  18202972.902    95657260.318        2552.668          43.000  
  36221167.480   190343515.155        1368.586          37.000  
  19870436.865   104419854.685        4113.131          38.000  
  19639998.290   103208881.245        1133.662          40.000  
  20476836.379   107606494.687        3869.687          42.000  
  22849027.639   120072487.403        4074.119          37.000  
  20965647.829   110175226.0162      -1850.357          41.000  
  22370853.804                       -2226.129          22.000  
 16 10  2  8 20 38.9920000  0 11G26G21G16S20G27G20G18G 7G 5G29G31
  18062150.830    94917244.821         529.589          44.000  
  18739292.255    98475636.843         517.417          43.000  
  18202486.976    95654707.848        2553.389          44.000  
  36220907.202   190342146.598        1368.940          36.000  
  19869654.618   104415741.512        4114.076          41.000  
  19639782.494   103207748.118        1132.889          40.000  
  20476099.845   107602624.637        3870.669          42.000  
  22848252.396   120068413.027        4075.330          38.000  
  22536612.487   118430697.3482      -1491.290          26.000  
  20966000.905   110177076.4052      -1849.459          43.000  
  22371278.220                       -2229.532          21.000  
 16 10  2  8 20 39.9920000  0 11G26G21G16S20G27G20G18G 7G 5G29G31
  18062050.524    94916716.777         527.598          44.000  
  18739194.187    98475120.487         515.906          43.000  
  18202001.413    95652155.721        2551.516          43.000  
  36220647.146   190340778.224        1368.644          37.000  
  19868872.130   104411628.420        4112.526          40.000  
  19639567.181   103206615.249        1132.682          42.000  
  20475363.209   107598754.893        3869.550          41.000  
  22847477.136   120064338.574        4074.329          37.000  
  22536888.914   118432189.8972      -1494.131          35.000  
  20966353.087   110178926.5992      -1850.280          42.000  
  22371702.742                       -2231.678          20.000  
 16 10  2  8 20 40.9920000  0 11G26G21G16S20G27G20G18G 7G 5G29G31
  18061950.194    94916189.122         527.361          46.000  
  18739096.064    98474604.413         516.287          43.000  
  18201515.798    95649603.872        2551.907          41.000  
  36220386.569   190339409.861        1368.026          36.000  
  19868089.521   104407515.186        4112.621          37.000  
  19639351.967   103205483.029        1132.745          41.000  
  20474627.074   107594885.498        3869.048          41.000  
  22846701.894   120060264.252        4074.301          36.000  
  22537175.619   118433682.3592      -1491.309          35.000  
  20966705.171   110180777.1182      -1850.511          39.000  
  22372127.711                       -2229.678          19.000  
 16 10  2  8 20 41.9920000  0  9G26G21G16S20G20G18G 7G29G31
  18061849.859    94915662.052         527.500          45.000  
  18738998.151    98474088.872         516.331          43.000  
  18201030.284    95647052.639        2551.797          41.000  
  36220126.133   190338041.150        1369.766          36.000  
  19639136.518   103204351.713        1131.890          40.000  
  20473890.579   107591016.282        3870.259          43.000  
  22845927.032   120056190.570        4073.776          38.000  
  20967057.554   110182627.6012      -1848.685          42.000  
  22372552.079                       -2239.457          28.000  
 16 10  2  8 20 42.9920000  0 11G26G21G16S20G27G20G18G 7G 5G29G31
  18061749.678    94915135.394         526.498          44.000  
  18738899.840    98473573.528         514.967          44.000  
  18200544.841    95644501.815        2551.381          42.000  
  36219865.917   190336672.197        1368.960          38.000  
  19866524.877   104399292.2321       4113.589          34.000  
  19638921.709   103203220.621        1130.398          41.000  
  20473154.313   107587146.972        3867.926          42.000  
  22845151.711   120052116.863        4073.655          36.000  
  22537746.537   118436656.8673      -1491.855          30.000  
  20967409.110   110184477.9262      -1851.547          39.000  
  22372973.753                       -2227.734          23.000  
 16 10  2  8 20 43.9920000  0 10G26G21G16S20G20G18G 7G 5G29G31
  18061649.750    94914609.484         525.194          44.000  
  18738802.080    98473058.651         514.323          43.000  
  18200059.588    95641951.536        2549.570          39.000  
  36219605.416   190335303.648        1368.740          36.000  
  19638706.520   103202090.338        1129.295          40.000  
  20472418.239   107583278.285        3868.607          40.000  
  22844376.592   120048043.585        4072.542          38.000  
  22538038.844   118438193.1493      -1496.195          30.000  
  20967761.217   110186328.5642      -1851.227          38.000  
  22373401.155                       -2230.247          22.000  
 16 10  2  8 20 44.9920000  0 11G26G21G16S20G27G20G18G 7G 5G29G31
  18061549.654    94914084.107         523.973          42.000  
  18738704.052    98472544.460         513.089          41.000  
  18199574.417    95639401.782        2548.705          38.000  
  36219345.008   190333934.750        1368.212          36.000  
  19864957.246   104391054.015        4111.975          41.000  
  19638491.612   103200961.152        1127.990          38.000  
  20471682.106   107579409.863        3868.354          41.000  
  22843601.357   120043970.872        4072.612          37.000  
  22538323.691                       -1494.800          34.000  
  20968113.169   110188179.6012      -1851.339          38.000  
  22373829.473                       -2232.487          20.000  
 16 10  2  8 20 45.9920000  0 11G26G21G16S20G27G20G18G 7G 5G29G31
  18061449.992    94913559.818         524.208          45.000  
  18738606.454    98472030.652         513.668          41.000  
  18199089.065    95636852.949        2549.753          37.000  
  36219084.672   190332566.913        1368.225          36.000  
  19864176.297   104386942.226        4111.316          38.000  
  19638277.053   103199832.130        1129.008          42.000  
  20470946.152   107575542.167        3866.505          41.000  
  22842826.673   120039898.130        4072.867          40.000  
  22538607.250                       -1493.573          34.000  
  20968465.391   110190030.3542      -1851.682          36.000  
  22374253.702                       -2236.357          21.000  
 16 10  2  8 20 46.9920000  0 11G26G21G16S20G27G20G18G 7G 5G29G31
  18061350.200    94913036.363         522.962          45.000  
  18738508.848    98471517.419         512.784          40.000  
  18198603.929    95634305.082        2547.365          39.000  
  36218824.669   190331199.032        1367.987          33.000  
  19863391.322   104382831.079        4110.850          38.000  
  19638062.188   103198703.958        1128.196          40.000  
  20470210.308   107571674.725        3867.572          43.000  
  22842051.845   120035826.351        4070.971          32.000  
  22538882.234   118442674.7992      -1494.401          34.000  
  20968817.552   110191881.4072      -1850.560          34.000  
  22374677.850                       -2233.442          23.000  
 16 10  2  8 20 47.9920000  0 11G26G21G16S20G27G20G18G 7G 5G29G31
  18061250.753    94912513.456         522.755          42.000  
  18738411.029    98471004.680         512.825          43.000  
  18198119.409    95631757.522        2547.078          41.000  
  36218564.832   190329830.969        1367.988          33.000  
  19862610.247   104378719.719        4112.004          38.000  
  19637847.588   103197576.601        1126.928          39.000  
  20469474.518   107567807.736        3867.600          40.000  
  22841277.286   120031754.568        4072.540          32.000  
  22539171.410   118444170.2052      -1494.900          34.000  
  20969169.985   110193732.6632      -1850.267          35.000  
  22375106.645                       -2233.487          21.000  
 16 10  2  8 20 48.9920000  0 11G26G21G16S20G27G20G18G 7G 5G29G31
  18061151.403    94911990.926         522.349          37.000  
  18738313.792    98470492.133         512.243          33.000  
  18197634.557    95629210.474        2547.169          35.000  
  36218304.423                        1373.828          28.000  
  19861827.709   104374608.613        4110.605          34.000  
  19637632.884   103196449.623        1125.663          33.000  
  20468738.671   107563940.457        3867.503          36.000  
  22840502.934   120027683.284        4070.215          30.000  
  22539453.663   118445665.8632      -1496.825          29.000  
  20969523.774                       -1851.237          26.000  
  22375530.934                       -2236.667          18.000  
 16 10  2  8 20 49.9920000  0 10G26G21G16G27G20G18G 7G 5G29G31
  18061052.106    94911468.819         522.632          35.000  
  18738216.165    98469979.548         513.405          32.000  
  18197150.225    95626663.891        2547.007          31.000  
  19861050.789   104370497.834        4110.616          31.000  
  19637418.467   103195322.603        1127.020          33.000  
  20468002.824   107560073.162        3867.857          32.000  
  22839726.306                        4071.022          25.000  
  22539751.278   118447161.5152      -1495.444          28.000  
  20969874.966   110197436.4913      -1849.406          28.000  
  22375956.676                       -2226.625          14.000  
 16 10  2  8 20 50.9920000  0  9G26G21G16G27G20G18G 7G 5G29
  18060952.815    94910947.202         522.162          39.000  
  18738118.585    98469467.495         512.737          36.000  
  18196665.757    95624117.675        2546.710          34.000  
  19860262.102   104366386.794        4111.669          32.000  
  19637204.291   103194196.543        1126.918          30.000  
  20467267.167   107556206.376        3867.100          34.000  
  22838955.151   120019500.8693       4071.000          30.000  
  22540036.521                       -1493.431          25.000  
  20970229.659                       -1850.910          27.000  
 16 10  2  8 20 51.9910000  0  9G26G21G16G27G20G18G 7G 5G29
  18060853.582    94910426.181         521.497          40.000  
  18738021.148    98468955.831         512.146          37.000  
  18196181.503    95621574.274        2545.026          37.000  
  19859480.852   104362280.092        4110.069          35.000  
  19636992.362   103193071.794        1125.506          31.000  
  20466531.926   107552342.919        3867.600          34.000  
  22838175.859   120015434.5252       4070.209          34.000  
  22540313.750                       -1496.867          27.000  
  20970583.427   110201136.0992      -1850.567          32.000  
 16 10  2  8 20 52.9910000  0 10G26G21G16G27G20G18G 7G 5G29G31
  18060754.616    94909905.578         520.642          41.000  
  18737923.688    98468444.469         511.741          37.000  
  18195697.054    95619028.577        2545.691          40.000  
  19858698.272   104358168.886        4110.906          36.000  
  19636771.959   103191947.244        1124.802          26.000  
  20465796.205   107548476.938        3866.017          36.000  
  22837404.734   120011363.4872       4070.468          36.000  
  22540598.417                       -1479.947          25.000  
  20970929.199   110202987.0072      -1850.156          32.000  
  22377233.908                       -2232.776          15.000  
 16 10  2  8 20 53.9910000  0  9G26G21G16G27G20G18G 7G29G31
  18060655.755    94909385.577         520.343          41.000  
  18737826.590    98467933.466         511.051          36.000  
  18195212.517    95616483.970        2544.647          38.000  
  19857918.426   104354058.661        4110.022          35.000  
  19636561.935   103190822.878        1124.275          29.000  
  20465060.699   107544610.709        3865.156          35.000  
  22836635.065   120007293.7002       4070.527          36.000  
  20971282.657                       -1851.303          26.000  
  22377659.467                       -2230.342          16.000  
 16 10  2  8 20 54.9910000  0  9G26G21G16G27G20G18G 7G29G31
  18060556.495    94908866.061         518.323          39.000  
  18737729.368    98467422.660         510.507          37.000  
  18194728.399    95613939.555        2543.256          38.000  
  19857133.477   104349948.231        4108.753          37.000  
  19636342.737   103189699.080        1124.525          31.000  
  20464324.859   107540744.754        3865.214          35.000  
  22835854.304   120003223.9062       4069.204          36.000  
  20971630.141                       -1849.790          27.000  
  22378082.029                       -2230.287          17.000  
 16 10  2  8 20 55.9910000  0 10G26G21G16G27G20G18G 7G 5G29G31
  18060458.077    94908347.616         518.231          41.000  
  18737632.201    98466912.144         510.718          39.000  
  18194244.473    95611396.341        2542.938          38.000  
  19856355.515   104345839.428        4108.484          40.000  
  19636137.448   103188575.262        1123.912          33.000  
  20463589.157   107536879.089        3865.844          37.000  
  22835080.798   119999155.0252       4068.411          36.000  
  22541446.358   118456100.0653      -1496.430          26.000  
  20971982.683   110208510.1203      -1850.202          27.000  
  22378505.426                       -2230.287          15.000  
 16 10  2  8 20 56.9910000  0  9G26G21G16G27G20G18G 7G29G31
  18060359.416    94907830.128         517.566          45.000  
  18737535.480    98466402.460         509.730          43.000  
  18193760.862    95608854.383        2541.962          44.000  
  19855572.825   104341731.272        4108.359          43.000  
  19635920.676   103187452.539        1122.328          36.000  
  20462853.659   107533013.539        3866.071          42.000  
  22834310.311   119995087.3192       4067.692          40.000  
  20972330.613   110210360.6742      -1850.464          28.000  
  22378928.764                       -2231.459          20.000  
 16 10  2  8 20 57.9910000  0 10G26G21G16G27G20G18G 7G 5G29G31
  18060260.897    94907312.898         517.139          45.000  
  18737438.378    98465892.893         509.722          43.000  
  18193277.165    95606312.675        2541.699          44.000  
  19854791.415   104337622.980        4108.359          43.000  
  19635708.288   103186330.152        1122.507          37.000  
  20462118.067   107529147.906        3865.791          43.000  
  22833528.338   119991019.7262       4067.803          39.000  
  22542005.068                       -1509.228          32.000  
  20972682.152   110212211.1312      -1850.249          34.000  
  22379352.258                       -2230.925          20.000  
 16 10  2  8 20 58.9910000  0  9G26G21G16G27G20G18G 7G 5G29
  18060162.570    94906796.600         516.010          40.000  
  18737341.659    98465384.000         508.568          39.000  
  18192793.854    95603771.905        2540.515          37.000  
  19854010.009   104333515.083        4107.699          41.000  
  19635495.397   103185208.679        1120.800          34.000  
  20461382.192   107525282.735        3864.625          39.000  
  22832755.283   119986952.5732       4066.248          36.000  
  22542289.488   118460530.4143      -1499.707          27.000  
  20973040.310   110214061.7222      -1850.123          30.000  
 16 10  2  8 20 59.9910000  0  9G26G21G16G27G20G18G 7G 5G29
  18060064.470    94906280.558         515.125          38.000  
  18737244.673    98464875.382         507.626          35.000  
  18192310.496    95601231.404        2539.771          36.000  
  19853228.360   104329407.295        4106.255          34.000  
  19635281.155   103184087.705        1120.383          31.000  
  20460646.557   107521417.537        3864.454          37.000  
  22831982.280   119982885.7122       4066.139          35.000  
  22542581.996   118462029.6292      -1499.908          25.000  
  20973396.036   110215912.3672      -1851.677          28.000  
 16 10  2  8 21  0.9910000  0  9G26G21G16G27G20G18G 7G 5G29
  18059966.009    94905765.064         515.692          39.000  
  18737147.994    98464367.210         507.976          36.000  
  18191827.162    95598690.807        2541.119          38.000  
  19852446.240   104325298.663        4111.159          35.000  
  19635067.579   103182967.776        1119.596          30.000  
  20459911.021   107517553.458        3863.052          36.000  
  22831208.556   119978817.8861       4067.678          35.000  
  22542870.627   118463529.1132      -1500.082          26.000  
  20973746.477   110217763.6662      -1851.993          28.000  
 16 10  2  8 21  1.9910000  0  9G26G21G16G27G20G18G 7G 5G29
  18059868.097    94905250.464         514.221          39.000  
  18737051.188    98463859.824         506.620          35.000  
  18191343.816    95596150.671        2539.911          37.000  
  19851664.665   104321190.267        4108.125          31.000  
  19634852.651   103181848.650        1119.445          31.000  
  20459175.603   107513690.351        3863.429          33.000  
  22830434.642   119974750.298        4066.485          36.000  
  22543156.557   118465028.6562      -1500.313          27.000  
  20974103.976   110219615.5882      -1850.672          26.000  
 16 10  2  8 21  2.9910000  0 10G26G21G16G27G20G18G 7G 5G29G31
  18059770.052    94904735.989         514.215          41.000  
  18736954.608    98463352.924         507.408          37.000  
  18190860.524    95593610.908        2539.392          39.000  
  19850882.532   104317081.500        4108.971          35.000  
  19634641.874   103180730.994        1118.240          31.000  
  20458440.330   107509827.384        3863.860          36.000  
  22829661.014   119970683.734        4066.847          36.000  
  22543441.134   118466529.7872      -1501.134          28.000  
  20974457.810                       -1852.351          25.000  
  22381434.922                       -2224.965          17.000  
 16 10  2  8 21  3.9910000  0 10G26G21G16G27G20G18G 7G 5G29G31
  18059672.246    94904222.550         512.616          40.000  
  18736858.402    98462846.688         505.814          37.000  
  18190377.543    95591071.929        2538.226          39.000  
  19850100.316   104312973.246        4108.201          35.000  
  19634425.573   103179614.010        1116.190          35.000  
  20457705.582   107505965.114        3861.582          35.000  
  22828887.425   119966617.329        4065.693          37.000  
  22543727.396   118468030.7922      -1502.944          32.000  
  20974804.744   110223341.9973      -1854.365          31.000  
  22381865.325                       -2234.897          28.000  
 16 10  2  8 21  4.9910000  0 10G26G21G16G27G20G18G 7G 5G29G31
  18059574.873    94903709.915         512.262          41.000  
  18736761.904    98462340.474         506.201          38.000  
  18189894.798    95588534.210        2537.500          41.000  
  19849319.015   104308866.521        4106.486          40.000  
  19634214.250   103178496.794        1116.942          35.000  
  20456970.589   107502102.306        3862.818          33.000  
  22828113.947   119962552.187        4064.801          37.000  
  22544014.118   118469532.3212      -1501.548          27.000  
  20975160.551   110225193.5982      -1851.160          30.000  
  22382293.889                       -2235.899          27.000  
 16 10  2  8 21  5.9910000  0 10G26G21G16G27G20G18G 7G 5G29G31
  18059477.347    94903197.806         511.469          41.000  
  18736665.279    98461834.517         505.475          37.000  
  18189412.167    95585997.255        2536.407          39.000  
  19848537.648   104304760.252        4105.902          40.000  
  19634002.447   103177379.958        1116.324          35.000  
  20456235.539   107498239.375        3861.926          33.000  
  22827340.587   119958487.769        4063.553          36.000  
  22544297.682   118471034.0932      -1501.881          27.000  
  20975510.992   110227045.0422      -1851.060          29.000  
  22382720.895                       -2234.661          26.000  
 16 10  2  8 21  6.9910000  0 10G26G21G16G27G20G18G 7G 5G29G31
  18059379.950    94902686.931         510.370          40.000  
  18736569.405    98461329.615         504.213          37.000  
  18188929.396    95583461.257        2535.876          40.000  
  19847756.570   104300654.556        4105.576          38.000  
  19633791.538   103176264.490        1114.013          35.000  
  20455500.630   107494377.553        3860.980          33.000  
  22826567.327   119954423.856        4064.041          37.000  
  22544585.424   118472536.6962      -1503.162          27.000  
  20975862.115   110228897.3632      -1852.900          29.000  
  22383145.888                       -2236.214          26.000  
 16 10  2  8 21  7.9910000  0 10G26G21G16G27G20G18G 7G 5G29G31
  18059283.053    94902176.966         510.681          40.000  
  18736473.504    98460825.972         503.651          37.000  
  18188446.875    95580925.846        2536.420          39.000  
  19846975.242   104296548.624        4107.554          36.000  
  19633579.207   103175150.962        1111.883          35.000  
  20454765.991   107490517.046        3860.454          33.000  
  22825794.047   119950360.470        4063.807          37.000  
  22544874.238                       -1503.609          26.000  
  20976215.408   110230751.0662      -1854.136          28.000  
  22383575.730                       -2235.883          25.000  
 16 10  2  8 21  8.9910000  0 10G26G21G16G27G20G18G 7G 5G29G31
  18059186.154    94901667.412         509.381          40.000  
  18736377.502    98460322.635         502.943          38.000  
  18187964.562    95578390.663        2534.363          39.000  
  19846193.654   104292442.602        4105.716          37.000  
  19633367.472   103174038.049        1112.716          35.000  
  20454031.626   107486656.890        3860.119          34.000  
  22825020.890   119946297.090        4063.144          38.000  
  22545159.023                       -1497.032          23.000  
  20976571.882                       -1852.897          27.000  
  22384001.659                       -2234.710          25.000  
 16 10  2  8 21  9.9910000  0 10G26G21G16G27G20G18G 7G 5G29G31
  18059089.440    94901158.680         508.484          40.000  
  18736281.891    98459820.031         502.809          37.000  
  18187482.111    95575856.028        2534.033          37.000  
  19845412.519   104288336.649        4105.292          38.000  
  19633156.013   103172926.252        1111.802          35.000  
  20453298.455   107482808.1573       3859.425          32.000  
  22824247.866   119942233.885        4062.720          38.000  
  22545444.520                       -1505.233          24.000  
  20976921.535                       -1853.042          26.000  
  22384429.023                       -2234.504          24.000  
 16 10  2  8 21 10.9910000  0 11G26G21G16S20G27G20G18G 7G 5G29G31
  18058992.743    94900650.503         508.746          39.000  
  18736186.523    98459317.687         502.175          36.000  
  18187000.095    95573322.287        2534.924          38.000  
  36212578.146   190298382.0783       1368.024          31.000  
  19844631.244   104284231.307        4107.058          38.000  
  19632944.570   103171814.789        1110.665          36.000  
  20452560.093   107478948.6452       3858.255          31.000  
  22823474.877   119938171.629        4063.064          37.000  
  22545734.133   118478632.3093      -1506.467          31.000  
  20977276.018                       -1849.647          24.000  
  22384850.787                       -2228.323          21.000  
 16 10  2  8 21 11.9910000  0 11G26G21G16S20G27G20G18G 7G 5G29G31
  18058896.176    94900142.495         507.684          40.000  
  18736090.875    98458815.495         502.411          37.000  
  18186517.832    95570788.499        2533.533          38.000  
  36212318.761   190297014.2872       1367.047          32.000  
  19843850.093   104280125.515        4105.137          38.000  
  19632733.273   103170703.909        1111.265          36.000  
  20451827.899   107475089.3112       3860.257          30.000  
  22822701.924   119934109.194        4062.030          37.000  
  22546017.339                       -1506.311          24.000  
  20977628.935                       -1858.119          24.000  
  22385279.043                       -2234.259          25.000  
 16 10  2  8 21 12.9910000  0 11G26G21G16S20G27G20G18G 7G 5G29G31
  18058799.482    94899634.912         506.836          39.000  
  18735995.659    98458313.324         502.147          37.000  
  18186035.777    95568254.563        2532.623          36.000  
  36212058.816   190295646.574        1366.522          31.000  
  19843068.797   104276019.184        4104.951          37.000  
  19632522.054   103169593.169        1110.352          34.000  
  20451093.631   107471230.5372       3860.360          28.000  
  22821928.754   119930045.664        4061.493          37.000  
  22546298.496                       -1505.396          25.000  
  20977981.304                       -1853.382          25.000  
  22385704.789                       -2233.941          25.000  
 16 10  2  8 21 13.9910000  0 11G26G21G16S20G27G20G18G 7G 5G29G31
  18058702.964    94899127.881         506.555          39.000  
  18735900.203    98457811.860         500.999          34.000  
  18185553.876    95565721.628        2533.276          37.000  
  36211798.596   190294278.145        1368.213          31.000  
  19842287.459   104271913.482        4105.477          34.000  
  19632310.913   103168483.385        1108.835          35.000  
  20450356.708                        3858.012          26.000  
  22821156.048   119925983.587        4061.547          37.000  
  22546592.728                       -1505.320          30.000  
  20978333.342                       -1857.794          24.000  
  22386130.219                       -2234.166          25.000  
 16 10  2  8 21 14.9910000  0 11G26G21G16S20G27G20G18G 7G 5G29G31
  18058606.601    94898621.482         505.743          40.000  
  18735804.733    98457310.630         500.709          36.000  
  18185071.817    95563189.309        2532.617          37.000  
  36211538.189   190292910.087        1367.859          30.000  
  19841506.138   104267808.173        4105.510          34.000  
  19632099.926   103167374.145        1108.189          36.000  
  20449625.371   107463513.0522       3856.858          27.000  
  22820382.968   119921921.930        4061.856          37.000  
  22546885.304   118484681.2313      -1506.281          32.000  
  20978686.156                       -1862.736          24.000  
  22386554.379   117642141.6373      -2234.974          26.000  
 16 10  2  8 21 15.9910000  0 11G26G21G16S20G27G20G18G 7G 5G29G31
  18058509.880    94898115.703         505.749          40.000  
  18735709.703    98456809.710         501.573          38.000  
  18184589.933    95560657.228        2531.586          38.000  
  36211277.795   190291548.4543       1368.469          30.000  
  19840724.651   104263702.721        4105.623          34.000  
  19631889.020   103166265.368        1109.069          36.000  
  20448888.951   107459655.0132       3858.872          28.000  
  22819609.715   119917859.765        4062.043          36.000  
  22547171.180                       -1505.581          26.000  
  20979038.980                       -1852.854          25.000  
  22386978.449   117644376.1352      -2234.501          27.000  
 16 10  2  8 21 16.9910000  0 11G26G21G16S20G27G20G18G 7G 5G29G31
  18058413.856    94897609.912         506.116          41.000  
  18735614.754    98456308.939         501.299          40.000  
  18184108.040    95558125.119        2532.605          36.000  
  36211017.701   190290180.1842       1367.786          30.000  
  19839943.146   104259597.002        4104.664          39.000  
  19631677.986   103165157.229        1108.517          38.000  
  20448153.976   107455796.9222       3858.385          29.000  
  22818837.222   119913798.199        4061.173          39.000  
  22547451.022                       -1512.357          25.000  
  20979385.450                       -1853.252          32.000  
  22387402.938   117646609.9672      -2233.415          27.000  
 16 10  2  8 21 17.9910000  0 11G26G21G16S20G27G20G18G 7G 5G29G31
  18058318.243    94897105.202         505.225          45.000  
  18735519.494    98455808.574         500.333          43.000  
  18183626.408    95555593.972        2531.671          42.000  
  36210757.201   190288812.5062       1368.317          35.000  
  19839162.016   104255491.920        4106.685          41.000  
  19631467.210   103164049.383        1107.050          41.000  
  20447422.481   107451939.2932       3857.614          36.000  
  22818064.412   119909736.612        4061.099          44.000  
  22547746.231                       -1507.135          37.000  
  20979742.787   110249301.9213      -1855.159          41.000  
  22387832.358   117648844.9102      -2235.539          27.000  
 16 10  2  8 21 18.9910000  0 11G26G21G16S20G27G20G18G 7G 5G29G31
  18058222.257    94896600.969         503.894          44.000  
  18735423.926    98455308.590         499.827          42.000  
  18183145.154    95553063.281        2530.505          41.000  
  36210496.707   190287444.6852       1366.821          31.000  
  19838380.769   104251386.890        4104.522          42.000  
  19631256.306   103162942.221        1106.970          41.000  
  20446688.945   107448081.3611       3857.541          36.000  
  22817291.307   119905675.237        4061.358          44.000  
  22548023.235   118490661.0332      -1505.858          31.000  
  20980092.285   110251156.1792      -1854.527          41.000  
  22388256.856   117651079.0862      -2233.848          31.000  
 16 10  2  8 21 19.9910000  0 11G26G21G16S20G27G20G18G 7G 5G29G31
  18058126.514    94896097.228         503.088          44.000  
  18735328.803    98454809.015         499.200          42.000  
  18182663.758    95550533.014        2528.876          41.000  
  36210236.463   190286076.8302       1366.858          32.000  
  19837599.230   104247281.830        4103.651          43.000  
  19631045.980   103161835.852        1106.331          41.000  
  20445954.398   107444224.254        3857.105          36.000  
  22816518.250   119901614.280        4059.595          44.000  
  22548311.367   118492167.9262      -1505.415          30.000  
  20980448.149   110253010.7022      -1854.027          42.000  
  22388679.736   117653313.3002      -2234.125          31.000  
 16 10  2  8 21 20.9910000  0 11G26G21G16S20G27G20G18G 7G 5G29G31
  18058029.923    94895594.154         502.447          42.000  
  18735233.814    98454310.047         498.641          40.000  
  18182182.555    95548003.353        2529.199          40.000  
  36209976.080   190284708.8992       1368.304          32.000  
  19836818.329   104243177.016        4103.879          41.000  
  19630835.260   103160730.310        1105.399          38.000  
  20445219.305   107440367.561        3855.677          36.000  
  22815745.626   119897553.830        4060.468          41.000  
  22548599.588   118493675.8322      -1507.705          34.000  
  20980800.909   110254865.5762      -1855.317          41.000  
  22389104.112   117655547.4732      -2233.528          31.000  
 16 10  2  8 21 21.9910000  0 11G26G21G16S20G27G20G18G 7G 5G29G31
  18057934.384    94895091.598         502.087          42.000  
  18735138.668    98453811.186         498.221          40.000  
  18181701.319    95545474.360        2528.650          40.000  
  36209715.931   190283341.0122       1367.456          31.000  
  19836037.177   104239072.644        4104.871          41.000  
  19630625.163   103159625.066        1104.237          40.000  
  20444485.923   107436510.686        3855.837          35.000  
  22814973.072   119893493.792        4060.264          41.000  
  22548883.913   118495183.5672      -1508.307          35.000  
  20981156.226   110256719.9942      -1855.068          41.000  
  22389534.088   117657781.5992      -2234.680          33.000  
 16 10  2  8 21 22.9910000  0 12G26G21G16S20G27G20G18G 7G 5G29G31G10
  18057839.373    94894589.287         501.709          44.000  
  18735043.668    98453312.374         498.689          41.000  
  18181219.695    95542945.367        2528.229          40.000  
  36209455.811   190281972.771        1367.883          32.000  
  19835256.099   104234967.990        4103.759          41.000  
  19630414.724   103158520.039        1104.836          40.000  
  20443752.312   107432653.996        3856.608          36.000  
  22814200.201   119889433.485        4060.226          42.000  
  22549171.642   118496691.2012      -1507.610          31.000  
  20981507.774   110258574.2242      -1853.295          40.000  
  22389956.747   117660015.4942      -2234.137          36.000  
  22616739.188                        5014.263          20.000  
 16 10  2  8 21 23.9910000  0 12G26G21G16S20G27G20G18G 7G 5G29G31G10
  18057743.524    94894087.647         501.294          43.000  
  18734949.182    98452814.136         497.799          41.000  
  18180738.429    95540417.018        2527.637          41.000  
  36209195.600   190280604.521        1366.681          31.000  
  19834475.193   104230863.601        4103.392          41.000  
  19630204.606   103157415.893        1103.605          42.000  
  20443018.995   107428797.731        3856.827          37.000  
  22813428.017   119885373.695        4058.506          43.000  
  22549457.245   118498199.2262      -1508.351          31.000  
  20981860.235   110260428.7192      -1854.793          38.000  
  22390380.378   117662249.4552      -2234.453          36.000  
  22615799.181                        5014.263          21.000  
 16 10  2  8 21 24.9910000  0 11G26G21G16S20G27G20G18G 7G 5G29G31
  18057648.106    94893586.762         501.398          42.000  
  18734854.702    98452316.616         497.845          41.000  
  18180257.337    95537889.374        2528.912          39.000  
  36208934.890   190279236.063        1369.012          31.000  
  19833694.107   104226759.413        4104.422          41.000  
  19629994.523   103156312.854        1102.073          39.000  
  20442285.312   107424941.993        3855.757          37.000  
  22812655.841   119881314.513        4059.244          41.000  
  22549741.588   118499708.2692      -1507.512          32.000  
  20982213.569   110262283.2281      -1855.312          40.000  
  22390806.605   117664482.8311      -2233.724          36.000  
 16 10  2  8 21 25.9910000  0 11G26G21G16S20G27G20G18G 7G 5G29G31
  18057553.131    94893086.724         498.968          43.000  
  18734760.228    98451819.591         496.215          41.000  
  18179776.440    95535362.667        2526.270          39.000  
  36208674.151   190277867.695        1367.627          31.000  
  19832913.114   104222655.839        4103.882          40.000  
  19629784.545   103155210.377        1101.171          40.000  
  20441551.443   107421086.430        3854.532          39.000  
  22811883.483   119877255.929        4058.532          41.000  
  22550029.625   118501217.6262      -1509.067          32.000  
  20982566.583   110264138.214       -1855.916          40.000  
  22391232.183   117666716.753       -2233.846          35.000  
 16 10  2  8 21 26.9910000  0 11G26G21G16S20G27G20G18G 7G 5G29G31
  18057458.226    94892587.393         498.547          44.000  
  18734665.807    98451323.231         496.055          43.000  
  18179295.460    95532836.545        2525.427          42.000  
  36208413.779   190276499.630        1367.932          35.000  
  19832132.382   104218552.545        4102.803          43.000  
  19629575.128   103154109.051        1101.014          44.000  
  20440817.885   107417231.676        3854.761          41.000  
  22811111.681   119873197.982        4056.953          42.000  
  22550320.408   118502727.9852      -1510.642          36.000  
  20982919.759   110265993.860       -1855.511          41.000  
  22391656.704   117668951.098       -2234.589          40.000  
 16 10  2  8 21 27.9910000  0 11G26G21G16S20G27G20G18G 7G 5G29G31
  18057363.330    94892089.051         497.888          45.000  
  18734571.341    98450827.616         495.490          43.000  
  18178814.700    95530311.267        2524.261          43.000  
  36208153.490   190275131.894        1367.853          37.000  
  19831351.488   104214449.767        4101.891          38.000  
  19629366.088   103153008.619        1100.745          43.000  
  20440084.795   107413377.579        3854.502          41.000  
  22810339.633   119869140.539        4056.771          40.000  
  22550607.740   118504238.7552      -1511.111          41.000  
  20983272.555   110267849.892       -1855.500          40.000  
  22392082.346   117671185.694       -2234.536          40.000  
 16 10  2  8 21 28.9910000  0 11G26G21G16S20G27G20G18G 7G 5G29G31
  18057268.580    94891591.425         497.559          45.000  
  18734476.698    98450332.337         495.363          42.000  
  18178334.084    95527786.571        2525.513          41.000  
  36207893.303   190273764.653        1367.157          37.000  
  19830570.885   104210347.260        4102.665          40.000  
  19629156.855   103151908.459        1100.549          41.000  
  20439351.383   107409523.907        3853.042          41.000  
  22809567.071   119865082.982        4058.606          40.000  
  22550895.232   118505749.3332      -1510.609          42.000  
  20983625.484   110269705.632       -1856.086          40.000  
  22392507.271   117673420.703       -2235.556          38.000  
 16 10  2  8 21 29.9910000  0 11G26G21G16S20G27G20G18G 7G 5G29G31
  18057174.145    94891094.342         496.948          44.000  
  18734382.248    98449837.337         494.894          41.000  
  18177854.060    95525262.491        2523.950          41.000  
  36207632.932   190272397.175        1367.548          36.000  
  19829790.478   104206245.050        4103.007          39.000  
  19628947.548   103150808.790        1098.978          37.000  
  20438617.797   107405670.120        3852.996          40.000  
  22808794.861   119861025.920        4057.571          41.000  
  22551184.525   118507260.1462      -1510.497          38.000  
  20983978.920   110271561.130       -1855.678          40.000  
  22392932.582   117675655.395       -2233.891          38.000  
 16 10  2  8 21 30.9910000  0 11G26G21G16S20G27G20G18G 7G 5G29G31
  18057079.477    94890597.357         496.350          43.000  
  18734288.183    98449342.477         494.846          41.000  
  18177373.412    95522738.264        2523.419          39.000  
  36207372.362   190271029.507        1367.334          35.000  
  19829009.825   104202142.324        4101.872          37.000  
  19628738.067   103149709.834        1098.813          39.000  
  20437884.746   107401816.752        3854.098          38.000  
  22808022.729   119856968.678        4056.673          39.000  
  22551470.195   118508770.6331      -1511.132          36.000  
  20984332.025   110273417.104       -1855.385          39.000  
  22393357.649   117677889.862       -2234.167          38.000  
 16 10  2  8 21 31.9910000  0 12G26G21G16S20G27G20G18G 7G 5G29G31G10
  18056984.937    94890101.156         495.789          43.000  
  18734194.016    98448847.993         494.380          41.000  
  18176893.177    95520214.743        2523.193          39.000  
  36207111.859   190269662.311        1367.053          36.000  
  19828229.030   104198040.135        4101.758          38.000  
  19628529.015   103148611.228        1098.186          38.000  
  20437151.507   107397963.664        3853.101          37.000  
  22807250.542   119852911.870        4056.398          39.000  
  22551757.963   118510281.898       -1511.868          40.000  
  20984685.134   110275272.770       -1855.615          38.000  
  22393782.839   117680124.657       -2234.730          39.000  
  22608169.064                        5009.083          23.000  
 16 10  2  8 21 32.9910000  0 11G26G21G16S20G27G20G18G 7G 5G29G31
  18056890.897    94889605.639         496.069          43.000  
  18734100.062    98448353.916         494.258          42.000  
  18176412.823    95517692.284        2523.187          39.000  
  36206851.640   190268294.880        1367.987          36.000  
  19827448.578   104193938.562        4103.130          39.000  
  19628319.998   103147513.294        1097.523          38.000  
  20436418.301   107394110.326        3853.137          37.000  
  22806479.193   119848856.027        4056.102          39.000  
  22552048.126   118511793.817       -1512.172          40.000  
  20985038.219   110277128.324       -1855.711          38.000  
  22394207.931   117682359.039       -2233.976          38.000  
 16 10  2  8 21 33.9910000  0 11G26G21G16S20G27G20G18G 7G 5G29G31
  18056796.674    94889110.500         494.916          43.000  
  18734006.173    98447860.095         493.829          42.000  
  18175933.103    95515170.067        2521.637          39.000  
  36206591.293   190266927.296        1367.432          35.000  
  19826667.793   104189837.031        4100.182          39.000  
  19628111.178   103146415.802        1097.710          39.000  
  20435685.273   107390257.231        3853.490          37.000  
  22805707.339   119844800.306        4054.646          39.000  
  22552331.789   118513305.896       -1512.840          39.000  
  20985391.151   110278983.809       -1854.584          38.000  
  22394633.135   117684593.343       -2234.430          39.000  
 16 10  2  8 21 34.9910000  0 11G26G21G16S20G27G20G18G 7G 5G29G31
  18056702.863    94888616.529         493.677          40.000  
  18733912.481    98447366.973         492.296          38.000  
  18175453.596    95512648.967        2520.898          39.000  
  36206331.325   190265560.128        1367.908          34.000  
  19825887.394   104185736.203        4101.247          37.000  
  19627902.668   103145319.067        1096.005          36.000  
  20434952.469   107386404.640        3851.619          32.000  
  22804935.451   119840745.114        4054.553          35.000  
  22552617.186   118514818.303       -1512.857          34.000  
  20985744.264   110280839.350       -1856.226          33.000  
  22395058.617   117686828.030       -2234.718          37.000  
 16 10  2  8 21 35.9910000  0 11G26G21G16S20G27G20G18G 7G 5G29G31
  18056608.772    94888123.001         493.573          40.000  
  18733818.965    98446874.407         492.842          36.000  
  18174974.324    95510128.212        2520.044          39.000  
  36206070.835   190264192.607        1367.761          34.000  
  19825106.893   104181635.339        4099.661          34.000  
  19627694.316   103144223.482        1096.030          34.000  
  20434217.616   107382552.523        3854.375          31.000  
  22804163.781   119836690.506        4053.975          35.000  
  22552909.323   118516331.764       -1514.048          34.000  
  20986097.727   110282695.731       -1856.006          33.000  
  22395483.693   117689062.583       -2234.963          36.000  
 16 10  2  8 21 36.9910000  0 11G26G21G16S20G27G20G18G 7G 5G29G31
  18056515.060    94887630.410         492.377          40.000  
  18733725.533    98446382.579         491.311          36.000  
  18174494.688    95507608.617        2520.148          39.000  
  36205810.645   190262825.154        1367.670          34.000  
  19824326.565   104177535.281        4101.544          34.000  
  19627486.133   103143128.722        1094.231          34.000  
  20433484.306   107378700.801        3850.290          32.000  
  22803392.170   119832637.025        4053.870          33.000  
  22553194.167   118517845.946       -1513.652          31.000  
  20986451.257   110284552.178       -1857.574          32.000  
  22395909.103   117691297.385       -2234.649          35.000  
 16 10  2  8 21 37.9910000  0 11G26G21G16S20G27G20G18G 7G 5G29G31
  18056421.626    94887138.445         491.705          38.000  
  18733632.124    98445891.382         489.746          34.000  
  18174015.476    95505089.192        2517.847          35.000  
  36205550.434                        1363.086          32.000  
  19823546.371   104173434.813        4099.497          34.000  
  19627277.764   103142034.931        1093.233          34.000  
  20432755.111   107374850.072        3851.070          33.000  
  22802620.993   119828583.141        4052.194          33.000  
  22553476.449   118519360.447       -1515.679          33.000  
  20986804.614   110286409.113       -1857.043          31.000  
  22396334.711   117693532.309       -2233.829          32.000  
 16 10  2  8 21 38.9910000  0 11G26G21G16S20G27G20G18G 7G 5G29G31
  18056328.101    94886646.887         492.108          38.000  
  18733538.825    98445400.404         491.359          38.000  
  18173536.087    95502570.059        2518.817          37.000  
  36205290.214   190260083.2603       1367.560          32.000  
  19822766.270   104169334.480        4100.032          37.000  
  19627070.449   103140941.732        1094.311          34.000  
  20432018.850   107370999.425        3851.481          35.000  
  22801849.906   119824529.476        4053.404          37.000  
  22553769.498   118520875.211       -1515.003          34.000  
  20987157.576   110288266.214       -1856.183          33.000  
  22396759.817   117695767.093       -2234.790          35.000  
 16 10  2  8 21 39.9910000  0 11G26G21G16S20G27G20G18G 7G 5G29G31
  18056234.305    94886155.675         491.943          40.000  
  18733445.184    98444909.117         492.776          39.000  
  18173056.858    95500051.141        2519.702          38.000  
  36205029.945   190258716.0072       1367.352          32.000  
  19821986.172   104165234.161        4100.743          39.000  
  19626862.402   103139847.994        1094.900          37.000  
  20431288.863   107367148.724        3851.448          36.000  
  22801078.367   119820475.196        4054.607          37.000  
  22554056.378   118522388.884       -1513.073          33.000  
  20987511.758   110290122.374       -1855.328          34.000  
  22397184.944   117698002.072       -2235.409          37.000  
 16 10  2  8 21 40.9910000  0 11G26G21G16S20G27G20G18G 7G 5G29G31
  18056140.700    94885665.061         490.131          39.000  
  18733351.595    98444418.288         489.745          39.000  
  18172577.821    95497532.941        2518.304          37.000  
  36204769.639   190257348.4482       1367.981          32.000  
  19821205.878   104161134.158        4100.054          35.000  
  19626654.411   103138755.056        1091.564          36.000  
  20430555.220   107363297.934        3849.601          35.000  
  22800307.296   119816421.559        4053.728          34.000  
  22554346.738   118523903.179       -1514.477          33.000  
  20987866.580   110291978.509       -1857.873          34.000  
  22397609.915   117700236.557       -2235.036          36.000  
 16 10  2  8 21 41.9910000  0 11G26G21G16S20G27G20G18G 7G 5G29G31
  18056047.476    94885174.944         489.606          39.000  
  18733258.387    98443927.543         490.411          37.000  
  18172098.392    95495015.066        2517.535          36.000  
  36204509.553   190255981.2622       1367.401          32.000  
  19820425.920   104157034.338        4099.728          31.000  
  19626447.169   103137662.268        1091.988          35.000  
  20429821.500   107359447.425        3849.898          32.000  
  22799535.932   119812367.848        4054.389          31.000  
  22554633.027   118525417.065       -1513.943          28.000  
  20988219.392   110293834.386       -1857.208          33.000  
  22398035.521   117702471.388       -2235.962          31.000  
 16 10  2  8 21 42.9910000  0 11G26G21G16S20G27G20G18G 7G 5G29G31
  18055954.284    94884685.371         489.246          39.000  
  18733165.182    98443437.660         488.938          37.000  
  18171619.212    95492497.365        2516.370          36.000  
  36204249.443   190254613.9062       1368.201          31.000  
  19819645.468   104152934.047        4099.291          30.000  
  19626239.005   103136571.041        1089.878          35.000  
  20429091.371   107355597.987        3849.402          31.000  
  22798764.654   119808314.176        4054.350          34.000  
  22554927.112   118526932.075       -1515.788          28.000  
  20988571.517   110295691.294       -1857.404          33.000  
  22398462.878                       -2234.744          31.000  
 16 10  2  8 21 43.9910000  0 11G26G21G16S20G27G20G18G 7G 5G29G31
  18055861.311    94884196.468         488.531          37.000  
  18733071.802    98442948.362         489.620          36.000  
  18171140.035    95489980.468        2516.290          35.000  
  36203989.254   190253246.6652       1367.895          31.000  
  19818861.989   104148834.040        4098.489          33.000  
  19626032.404   103135480.709        1091.312          34.000  
  20428356.975   107351748.715        3850.470          31.000  
  22797993.388   119804261.670        4051.513          35.000  
  22555217.025   118528448.062       -1517.037          27.000  
  20988924.127   110297548.545       -1856.012          33.000  
  22398888.740   117706954.6453      -2235.584          33.000  
 16 10  2  8 21 44.9910000  0 11G26G21G16S20G27G20G18G 7G 5G29G31
  18055768.438    94883708.985         487.286          39.000  
  18732978.813    98442459.836         489.265          36.000  
  18170661.168    95487464.864        2515.948          36.000  
  36203729.259   190251880.6322       1366.016          31.000  
  19818085.341   104144735.201        4098.862          33.000  
  19625825.284   103134391.009        1089.993          35.000  
  20427624.763   107347900.490        3847.612          31.000  
  22797222.302   119800209.397        4053.263          35.000  
  22555500.289   118529953.4843      -1515.492          32.000  
  20989277.428   110299405.905       -1856.787          33.000  
  22399311.124   117709190.2042      -2235.253          33.000  
 16 10  2  8 21 45.9910000  0 11G26G21G16S20G27G20G18G 7G 5G29G31
  18055675.928    94883222.259         487.500          39.000  
  18732885.918    98441971.658         488.511          37.000  
  18170182.878    95484950.242        2515.088          37.000  
  36203469.398   190250514.557        1366.718          31.000  
  19817302.454   104140637.148        4101.847          32.000  
  19625617.619   103133301.664        1089.360          33.000  
  20426888.891   107344051.950        3847.188          30.000  
  22796451.403   119796158.115        4051.201          35.000  
  22555789.335   118531469.8122      -1516.474          33.000  
  20989631.434   110301262.908       -1857.385          34.000  
  22399736.740   117711425.9242      -2236.093          29.000  
 16 10  2  8 21 46.9910000  0 11G26G21G16S20G27G20G18G 7G 5G29G31
  18055583.283    94882735.818         485.217          39.000  
  18732793.056    98441483.922         486.676          37.000  
  18169703.997    95482435.825        2513.654          37.000  
  36203209.383   190249147.691        1366.077          31.000  
  19816520.113   104136538.982        4098.726          31.000  
  19625410.172   103132213.362        1086.754          33.000  
  20426160.569   107340203.707        3846.662          31.000  
  22795680.408   119792107.200        4051.012          35.000  
  22556076.935   118532987.0422      -1517.404          32.000  
  20989984.553   110303120.359       -1857.996          33.000  
  22400159.176   117713661.0182      -2236.578          30.000  
 16 10  2  8 21 47.9910000  0 10G26G21G16S20G27G20G18G 7G29G31
  18055490.916    94882249.887         485.504          39.000  
  18732700.356    98440996.561         486.638          37.000  
  18169225.532    95479921.998        2513.263          38.000  
  36202949.364   190247780.685        1367.682          31.000  
  19815744.858   104132441.017        4097.677          31.000  
  19625203.064   103131125.671        1087.394          34.000  
  20425428.192   107336355.799        3847.482          31.000  
  22794909.651   119788056.873        4050.385          35.000  
  20990337.807   110304977.975       -1858.295          33.000  
  22400583.744   117715896.1642      -2235.895          30.000  
 16 10  2  8 21 48.9910000  0 11G26G21G16S20G27G20G18G 7G 5G29G31
  18055398.435    94881764.667         485.077          37.000  
  18732607.693    98440509.822         487.004          37.000  
  18168747.455    95477408.569        2511.975          37.000  
  36202689.395   190246413.764        1366.595          32.000  
  19814965.516   104128342.978        4096.035          32.000  
  19624996.315   103130038.990        1087.666          34.000  
  20424694.651   107332508.597        3847.483          31.000  
  22794138.810   119784006.512        4049.982          33.000  
  22556661.585   118536055.9163      -1518.795          31.000  
  20990691.354   110306836.045       -1856.891          34.000  
  22401011.260   117718131.4662      -2236.727          31.000  
 16 10  2  8 21 49.9910000  0 11G26G21G16S20G27G20G18G 7G 5G29G31
  18055306.372    94881280.473         483.783          37.000  
  18732515.159    98440023.682         486.587          39.000  
  18168269.297    95474896.150        2512.628          37.000  
  36202429.287   190245047.354        1366.321          35.000  
  19814183.999   104124245.600        4096.614          31.000  
  19624789.650   103128952.977        1086.204          37.000  
  20423963.717   107328661.883        3847.500          35.000  
  22793368.372   119779957.033        4048.042          34.000  
  22556944.040   118537574.3432      -1518.144          32.000  
  20991045.071   110308694.167       -1857.483          36.000  
  22401436.073   117720367.2692      -2236.232          34.000  
 16 10  2  8 21 50.9910000  0 11G26G21G16S20G27G20G18G 7G 5G29G31
  18055214.513    94880797.253         482.758          37.000  
  18732423.015    98439538.263         484.862          37.000  
  18167791.737    95472384.750        2511.383          36.000  
  36202169.309   190243681.118        1366.010          32.000  
  19813401.633   104120149.071        4097.125          32.000  
  19624583.059   103127867.782        1084.059          34.000  
  20423232.462   107324815.694        3843.798          31.000  
  22792597.681   119775907.936        4049.368          32.000  
  22557233.079   118539093.3432      -1518.922          32.000  
  20991398.747   110310552.613       -1859.930          33.000  
  22401863.704   117722603.2232      -2236.907          33.000  
 16 10  2  8 21 51.9910000  0 11G26G21G16S20G27G20G18G 7G 5G29G31
  18055122.876    94880314.568         482.947          41.000  
  18732330.668    98439053.043         486.569          38.000  
  18167313.699    95469873.180        2512.476          39.000  
  36201909.831   190242315.481        1365.692          33.000  
  19812626.384   104116051.892        4097.290          33.000  
  19624376.420   103126783.034        1084.920          37.000  
  20422500.713   107320970.486        3844.366          32.000  
  22791826.821   119771857.876        4050.044          35.000  
  22557526.628   118540611.7732      -1518.250          38.000  
  20991752.631   110312411.138       -1858.545          35.000  
  22402289.949   117724839.8272      -2237.376          34.000  
 16 10  2  8 21 52.9910000  0 11G26G21G16S20G27G20G18G 7G 5G29G31
  18055031.371    94879832.444         483.508          41.000  
  18732238.588    98438568.258         486.028          38.000  
  18166835.741    95467362.215        2512.610          39.000  
  36201650.163   190240949.927        1365.900          33.000  
  19811847.693   104111954.978        4098.542          34.000  
  19624170.297   103125698.956        1084.875          36.000  
  20421769.595   107317125.427        3843.671          32.000  
  22791056.265   119767808.342        4050.694          37.000  
  22557812.745   118542130.5072      -1517.708          36.000  
  20992106.198   110314269.748       -1858.917          36.000  
  22402714.683   117727076.2302      -2236.442          36.000  
 16 10  2  8 21 53.9910000  0 11G26G21G16S20G27G20G18G 7G 5G29G31
  18054939.579    94879350.892         482.440          41.000  
  18732146.244    98438083.859         485.256          38.000  
  18166357.697    95464851.470        2511.469          39.000  
  36201390.559   190239584.671        1365.002          32.000  
  19811066.470   104107858.030        4096.133          30.000  
  19623963.540   103124615.476        1084.816          35.000  
  20421035.564   107313281.050        3844.335          32.000  
  22790285.848   119763758.577        4049.804          34.000  
  22558103.252   118543649.3032      -1519.318          38.000  
  20992459.979   110316128.634       -1858.191          35.000  
  22403140.699   117729312.9892      -2236.757          33.000  
 16 10  2  8 21 54.9910000  0 11G26G21G16S20G27G20G18G 7G 5G29G31
  18054847.909    94878869.567         481.635          39.000  
  18732053.998    98437599.370         485.680          35.000  
  18165879.909    95462341.522        2510.706          36.000  
  36201130.853   190238225.9013       1365.149          29.000  
  19810287.697   104103761.502        4096.917          30.000  
  19623757.355   103123532.160        1082.732          34.000  
  20420305.406   107309435.680        3845.015          31.000  
  22789515.505   119759709.943        4049.375          30.000  
  22558394.272   118545168.2951      -1518.740          32.000  
  20992813.555   110317986.780       -1858.166          31.000  
  22403565.711   117731548.732       -2235.046          31.000  
 16 10  2  8 21 55.9910000  0 11G26G21G16S20G27G20G18G 7G 5G29G31
  18054756.510    94878388.881         480.481          39.000  
  18731962.018    98437115.394         483.900          35.000  
  18165402.543    95459832.060        2509.827          36.000  
  36200867.058                        1409.424          28.000  
  19809506.671   104099665.191        4097.521          34.000  
  19623551.254   103122449.598        1082.921          34.000  
  20419572.517   107305590.938        3843.812          33.000  
  22788746.406   119755661.708        4049.771          35.000  
  22558681.615   118546688.216       -1519.016          31.000  
  20993170.806                       -1858.856          30.000  
  22403990.398   117733784.938       -2236.936          25.000  
 16 10  2  8 21 56.9910000  0 10G26G21G16S20G27G20G18G 7G29G31
  18054665.132    94877908.664         479.370          39.000  
  18731869.694    98436631.595         482.650          35.000  
  18164925.556    95457323.329        2507.715          36.000  
  36200596.405                        1425.195          28.000  
  19808729.441   104095569.538        4094.831          33.000  
  19623345.580   103121367.485        1081.323          33.000  
  20418841.183   107301745.991        3844.479          32.000  
  22787974.275   119751614.391        4047.051          33.000  
  20993522.457   110321714.8263      -1858.301          29.000  
  22404416.884   117736020.775       -2236.112          32.000  
 16 10  2  8 21 57.9910000  0 10G26G21G16S20G27G20G18G 7G29G31
  18054573.747    94877429.300         479.047          38.000  
  18731777.622    98436148.179         483.220          37.000  
  18164448.024    95454815.426        2506.836          36.000  
  36200340.275                        1293.311          28.000  
  19807951.976   104091474.439        4094.185          32.000  
  19623139.619   103120285.619        1080.742          33.000  
  20418105.348   107297901.311        3844.175          31.000  
  22787204.344   119747567.331        4045.615          32.000  
  20993877.844   110323572.7982      -1856.561          28.000  
  22404838.467   117738256.864       -2235.543          31.000  
 16 10  2  8 21 58.9910000  0 11G26G21G16S20G27G20G18G 7G 5G29G31
  18054482.420    94876950.192         478.900          43.000  
  18731685.652    98435664.724         482.661          40.000  
  18163971.304    95452307.999        2506.989          38.000  
  36200092.575                        1375.342          33.000  
  19807169.003   104087379.689        4094.528          36.000  
  19622933.688   103119203.996        1080.523          40.000  
  20417377.662   107294056.509        3845.147          37.000  
  22786435.172   119743520.962        4045.137          38.000  
  22559546.154   118551214.7613      -1521.538          35.000  
  20994225.525   110325430.4732      -1857.800          34.000  
  22405271.290   117740493.378       -2235.714          34.000  
 16 10  2  8 21 59.9910000  0 11G26G21G16S20G27G20G18G 7G 5G29G31
  18054391.270    94876471.966         477.948          42.000  
  18731593.896    98435182.338         482.201          37.000  
  18163493.814    95449801.165        2506.921          36.000  
  36199831.383   190231396.9733       1365.906          33.000  
  19806393.061   104083284.878        4094.777          35.000  
  19622728.215   103118123.905        1079.741          39.000  
  20416647.329   107290212.379        3844.048          36.000  
  22785665.566   119739474.980        4044.463          37.000  
  22559841.002   118552736.4822      -1522.908          32.000  
  20994581.008   110327288.9072      -1858.765          33.000  
  22405700.316   117742729.148       -2236.051          33.000  
 16 10  2  8 22  0.9910000  0 11G26G21G16S20G27G20G18G 7G 5G29G31
  18054300.530    94875994.354         478.058          43.000  
  18731502.229    98434700.200         482.778          38.000  
  18163017.016    95447295.107        2507.306          36.000  
  36199571.146   190230030.9732       1366.064          33.000  
  19805611.345   104079190.455        4095.608          37.000  
  19622522.852   103117044.094        1079.973          38.000  
  20415915.702   107286368.270        3844.167          35.000  
  22784895.005   119735429.348        4044.905          37.000  
  22560132.360                       -1521.298          31.000  
  20994933.975   110329146.8962      -1858.466          32.000  
  22406123.087   117744964.969       -2235.815          33.000  
 16 10  2  8 22  1.9910000  0 11G26G21G16S20G27G20G18G 7G 5G29G31
  18054209.866    94875517.526         475.903          44.000  
  18731410.822    98434218.823         480.840          40.000  
  18162540.297    95444789.816        2504.510          38.000  
  36199311.194   190228664.7632       1365.204          34.000  
  19804832.528   104075096.476        4093.077          38.000  
  19622317.756   103115965.346        1078.341          40.000  
  20415183.829   107282524.770        3842.280          35.000  
  22784126.007   119731384.380        4044.884          37.000  
  22560420.311   118555808.5733      -1523.132          31.000  
  20995291.064   110331005.4282      -1858.661          36.000  
  22406545.667   117747200.909       -2238.066          33.000  
 16 10  2  8 22  2.9910000  0 11G26G21G16S20G27G20G18G 7G 5G29G31
  18054119.323    94875041.460         475.549          38.000  
  18731319.913    98433738.000         480.907          34.000  
  18162063.799    95442285.033        2504.565          36.000  
  36199050.760   190227298.6122       1365.845          32.000  
  19804054.718   104071002.410        4094.075          35.000  
  19622112.592   103114887.518        1078.014          34.000  
  20414452.367   107278681.941        3843.643          35.000  
  22783357.294   119727339.500        4044.637          32.000  
  22560705.463                       -1522.206          31.000  
  20995640.596   110332864.4832      -1858.447          32.000  
  22406969.675                       -2242.436          26.000  
 16 10  2  8 22  3.9910000  0 11G26G21G16S20G27G20G18G 7G 5G29G31
  18054028.820    94874565.799         475.397          40.000  
  18731228.297    98433257.183         480.132          40.000  
  18161587.414    95439780.642        2503.442          37.000  
  36198790.815   190225932.6942       1366.980          32.000  
  19803273.859   104066908.778        4093.736          36.000  
  19621907.318   103113809.786        1077.138          39.000  
  20413721.031   107274839.036        3843.421          35.000  
  22782587.485   119723294.933        4043.817          33.000  
  22560997.630   118558842.5063      -1524.712          31.000  
  20995994.634   110334723.0892      -1859.479          31.000  
  22407403.746                       -2236.226          27.000  
 16 10  2  8 22  4.9910000  0 12G26G21G16S20G27G20G18G 7G 5G29G31G10
  18053938.540    94874090.656         474.591          40.000  
  18731136.875    98432776.863         480.101          36.000  
  18161110.851    95437276.661        2503.381          37.000  
  36198530.856   190224566.7172       1366.016          33.000  
  19802494.130   104062815.075        4093.565          33.000  
  19621702.496   103112733.007        1076.467          33.000  
  20412990.201   107270996.553        3842.589          35.000  
  22781816.529   119719250.630        4044.244          30.000  
  22561286.031   118560365.9292      -1524.134          33.000  
  20996349.670   110336581.9282      -1858.929          34.000  
  22407819.809   117753887.4043      -2235.401          32.000  
  22576688.780                        5013.902          23.000  
 16 10  2  8 22  5.9910000  0 12G26G21G16S20G27G20G18G 7G 5G29G31G10
  18053848.629    94873616.137         474.829          42.000  
  18731045.566    98432296.857         480.453          35.000  
  18160634.694    95434773.569        2504.736          36.000  
  36198271.031   190223200.7662       1366.071          33.000  
  19801715.899   104058722.190        4093.265          33.000  
  19621497.532   103111656.419        1076.958          36.000  
  20412258.898   107267153.883        3841.985          31.000  
  22781043.883   119715207.251        4043.351          32.000  
  22561572.889   118561889.8452      -1521.383          27.000  
  20996702.113   110338440.5012      -1858.765          33.000  
  22408241.325   117756123.1592      -2235.272          34.000  
  22575731.894                        5013.186          24.000  
 16 10  2  8 22  6.9910000  0 12G26G21G16S20G27G20G18G 7G 5G29G31G10
  18053758.398    94873142.461         473.547          40.000  
  18730954.217    98431817.439         479.327          36.000  
  18160158.211    95432271.369        2502.423          38.000  
  36198011.086   190221834.5101       1365.839          34.000  
  19800937.387   104054629.666        4092.872          36.000  
  19621292.827   103110580.768        1076.402          36.000  
  20411527.639   107263311.421        3842.017          34.000  
  22780276.510   119711164.611        4044.226          33.000  
  22561873.678                       -1525.282          33.000  
  20997056.492   110340298.7861      -1858.820          36.000  
  22408666.044   117758358.8892      -2235.940          33.000  
  22574774.107                        5012.480          25.000  
 16 10  2  8 22  7.9910000  0 12G26G21G16S20G27G20G18G 7G 5G29G31G10
  18053668.007    94872668.970         473.120          42.000  
  18730863.121    98431338.181         478.663          38.000  
  18159681.849    95429769.128        2501.184          37.000  
  36197751.131   190220468.593        1366.412          33.000  
  19800158.785   104050536.814        4091.675          36.000  
  19621088.319   103109505.598        1074.656          37.000  
  20410796.658   107259469.432        3841.966          33.000  
  22779508.687   119707121.578        4041.926          33.000  
  22562160.103   118564951.5323      -1524.957          33.000  
  20997411.553   110342157.487       -1858.209          34.000  
  22409093.264   117760594.6332      -2236.679          32.000  
  22573819.770                        5013.329          25.000  
 16 10  2  8 22  8.9910000  0 11G26G21G16S20G27G20G18G 7G 5G29G31
  18053578.203    94872196.262         472.620          42.000  
  18730771.926    98430859.253         478.573          38.000  
  18159205.896    95427267.533        2501.044          38.000  
  36197491.012   190219102.913        1366.626          32.000  
  19799380.063   104046444.227        4092.418          35.000  
  19620883.777   103108430.777        1074.307          37.000  
  20410065.520   107255627.716        3842.356          32.000  
  22778738.800   119703078.626        4041.923          31.000  
  22562448.237   118566475.9732      -1525.670          34.000  
  20997767.006   110344016.142       -1859.045          34.000  
  22409518.386   117762830.5472      -2235.317          31.000  
 16 10  2  8 22  9.9910000  0 11G26G21G16S20G27G20G18G 7G 5G29G31
  18053488.815    94871724.129         472.070          42.000  
  18730680.674    98430380.876         478.115          36.000  
  18158729.876    95424766.586        2500.879          38.000  
  36197231.180   190217736.839        1366.724          32.000  
  19798601.244   104042351.998        4092.203          35.000  
  19620679.356   103107357.001        1073.187          36.000  
  20409336.610   107251786.332        3841.242          35.000  
  22777967.320   119699036.592        4042.634          32.000  
  22562737.530   118567985.3313      -1526.411          34.000  
  20998119.040   110345875.265       -1860.223          33.000  
  22409934.933   117765066.3192      -2236.220          29.000  
 16 10  2  8 22 10.9910000  0 10G26G21G16S20G27G20G18G 7G29G31
  18053398.814    94871252.545         470.795          41.000  
  18730589.598    98429903.069         477.065          37.000  
  18158254.438    95422266.264        2500.128          37.000  
  36196971.067   190216370.466        1365.472          32.000  
  19797822.680   104038259.863        4091.838          36.000  
  19620474.936   103106283.978        1073.152          36.000  
  20408603.460   107247945.123        3840.413          36.000  
  22777201.273   119694995.036        4042.244          31.000  
  20998472.190   110347734.373       -1859.467          34.000  
  22410360.906   117767301.5702      -2236.422          28.000  
 16 10  2  8 22 11.9910000  0 11G26G21G16S20G27G20G18G 7G 5G29G31
  18053309.185    94870781.396         471.191          41.000  
  18730498.666    98429425.258         478.165          37.000  
  18157778.779    95419766.212        2499.994          37.000  
  36196710.718   190215004.142        1367.328          31.000  
  19797044.087   104034167.764        4092.417          34.000  
  19620270.682   103105211.149        1072.948          36.000  
  20407872.403   107244104.050        3841.765          35.000  
  22776432.434   119690953.449        4041.023          31.000  
  22563315.876   118571025.1322      -1526.942          30.000  
  20998824.602   110349593.214       -1857.990          34.000  
  22410783.440   117769536.9902      -2234.453          28.000  
 16 10  2  8 22 12.9910000  0 11G26G21G16S20G27G20G18G 7G 5G29G31
  18053219.588    94870310.657         470.728          41.000  
  18730407.538    98428947.492         477.317          37.000  
  18157303.385    95417266.599        2499.805          37.000  
  36196450.758   190213637.624        1365.955          31.000  
  19796265.808   104030076.007        4091.811          35.000  
  19620066.780   103104138.464        1072.289          37.000  
  20407140.921   107240262.816        3841.382          36.000  
  22775660.378   119686912.005        4040.821          32.000  
  22563607.666   118572550.8432      -1525.759          30.000  
  20999179.305   110351451.616       -1858.972          34.000  
  22411210.357   117771771.7181      -2233.822          27.000  
 16 10  2  8 22 13.9910000  0 11G26G21G16S20G27G20G18G 7G 5G29G31
  18053130.047    94869840.534         469.952          42.000  
  18730316.640    98428470.259         477.240          35.000  
  18156828.006    95414767.675        2498.792          37.000  
  36196190.720   190212270.652        1365.259          31.000  
  19795487.372   104025984.392        4091.635          36.000  
  19619862.607   103103066.597        1071.913          37.000  
  20406411.468   107236421.900        3839.997          36.000  
  22774892.576   119682871.129        4041.486          33.000  
  22563896.539   118574077.1642      -1525.006          29.000  
  20999535.067   110353310.247       -1858.502          33.000  
  22411637.198   117774006.803       -2236.756          28.000  
 16 10  2  8 22 14.9910000  0 11G26G21G16S20G27G20G18G 7G 5G29G31
  18053040.788    94869370.887         469.031          42.000  
  18730225.880    98427993.482         475.935          37.000  
  18156352.284    95412269.293        2498.639          37.000  
  36195930.839   190210903.635        1367.023          32.000  
  19794708.732   104021893.044        4090.991          36.000  
  19619658.887   103101995.595        1070.859          37.000  
  20405679.608   107232581.018        3840.621          35.000  
  22774126.757   119678831.051        4039.573          32.000  
  22564183.539   118575604.4182      -1526.292          28.000  
  20999887.809   110355169.049       -1859.033          34.000  
  22412058.557   117776241.497       -2234.553          28.000  
 16 10  2  8 22 15.9910000  0 11G26G21G16S20G27G20G18G 7G 5G29G31
  18052951.524    94868901.972         469.269          42.000  
  18730135.331    98427517.301         475.438          37.000  
  18155877.014    95409771.646        2497.296          37.000  
  36195670.656   190209536.944        1368.799          33.000  
  19793930.425   104017801.925        4091.826          38.000  
  19619455.233   103100925.505        1068.006          36.000  
  20404949.406   107228740.699        3841.104          33.000  
  22773359.238   119674791.744        4036.366          27.000  
  22564481.305   118577132.1202      -1531.693          30.000  
  21000241.241   110357028.283       -1861.102          34.000  
  22412485.184   117778476.437       -2232.861          28.000  
 16 10  2  8 22 16.9910000  0  9G26G21G16G27G20G18G 7G 5G29
  18052862.465    94868434.112         468.939          28.000  
  18730045.111    98427042.971         476.168          31.000  
  18155400.714    95407275.290        2496.437          29.000  
  19793152.260   104013710.988        4091.094          34.000  
  19619252.249   103099857.949        1068.173          30.000  
  20404218.097   107224889.1563       3840.893          26.000  
  22772591.571   119670753.834        4037.609          25.000  
  22564773.217                       -1530.701          23.000  
  21000593.956   110358865.6123      -1859.784          24.000  
